[{"name": "IU Internationale Hochschule GmbH", "country": "Germany", "lat": 48.96798992480863, "lon": 8.613666710990843, "website": "https://www.iu-fernstudium.de/"}, {"name": "AKAD Hochschulen f\u00fcr Berufst\u00e4tige, Fachhochschule Leipzig", "country": "Germany", "lat": 53.70576557729332, "lon": 12.303939247070947, "website": "http://www.akad.de/"}, {"name": "Alice-Salomon-Fachhochschule f\u00fcr Sozialarbeit und Sozialp\u00e4dagogik Berlin", "country": "Germany", "lat": 51.92060597374898, "lon": 10.215039683314043, "website": "http://www.asfh-berlin.de/"}, {"name": "Augustana Hochschule Neuendettelsau", "country": "Germany", "lat": 50.564815982458434, "lon": 11.19044128194716, "website": "http://www.augustana.de/"}, {"name": "Kirchliche Hochschule Bethel", "country": "Germany", "lat": 49.47162460393111, "lon": 8.613464019583546, "website": "http://www.bethel.de/kiho/"}, {"name": "BiTS - Business and Information Technology School gGmbH", "country": "Germany", "lat": 50.922674034547285, "lon": 9.063239150327725, "website": "http://www.bits-iserlohn.de/"}, {"name": "Cologne Business School", "country": "Germany", "lat": 50.68180014491344, "lon": 10.891897443881808, "website": "http://www.cbs.de/"}, {"name": "CODE University of Applied Sciences Berlin", "country": "Germany", "lat": 54.0495597191873, "lon": 8.193576684752845, "website": "http://code.berlin/"}, {"name": "Deutsche Hochschule f\u00fcr Verwaltungswissenschaften Speyer", "country": "Germany", "lat": 51.63745258132634, "lon": 10.5775988197731, "website": "http://www.dhv-speyer.de/"}, {"name": "DIPLOMA-Fachhochschule \u00d6lsnitz/Vogtland", "country": "Germany", "lat": 50.851300019972086, "lon": 10.541566919160163, "website": "http://www.diploma.de/"}, {"name": "Deutsche Sporthochschule K\u00f6ln", "country": "Germany", "lat": 51.880523322789436, "lon": 11.523204332530156, "website": "http://www.dshs-koeln.de/"}, {"name": "E.A.P. Europ\u00e4ische Wirtschaftshochschule Berlin", "country": "Germany", "lat": 53.56761182937755, "lon": 11.751871624694527, "website": "http://www.eap.net/"}, {"name": "Europ\u00e4ische Betriebswirtschafts-Akademie", "country": "Germany", "lat": 51.15931553214041, "lon": 9.742140520403982, "website": "http://www.eba-muenchen.de/"}, {"name": "European Business School Schlo\u00df Reichartshausen", "country": "Germany", "lat": 50.94684283332484, "lon": 11.050751975272505, "website": "http://www.ebs.de/"}, {"name": "European College of Liberal Arts", "country": "Germany", "lat": 50.12612419360707, "lon": 13.117003068923307, "website": "http://www.ecla.de/"}, {"name": "Evangelische Fachhochschule Rheinland-Westfalen-Lippe", "country": "Germany", "lat": 50.80500446736099, "lon": 11.025760626435218, "website": "http://www.efh-bochum.de/"}, {"name": "Evangelische Fachhochschule Darmstadt", "country": "Germany", "lat": 51.99419284995845, "lon": 9.033218574169053, "website": "https://www.eh-darmstadt.de/"}, {"name": "Evangelische Fachhochschule Freiburg, Hochschule f\u00fcr Soziale Arbeit, Diakonie und Religionsp\u00e4dagogik", "country": "Germany", "lat": 53.128990167255736, "lon": 11.802593466160097, "website": "http://www.efh-freiburg.de/"}, {"name": "Evangelische Fachhochschule Hannover", "country": "Germany", "lat": 49.86367315676478, "lon": 11.536785263276741, "website": "http://www.efh-hannover.de/"}, {"name": "Evangelische Fachhochschule Ludwigshafen Hochschule f\u00fcr Sozial- und Gesundheitswesen", "country": "Germany", "lat": 53.27802111112823, "lon": 9.262993980946423, "website": "http://www.efhlu.de/"}, {"name": "Evangelische Fachhochschule Reutlingen-Ludwigsburg, Hochschule f\u00fcr Soziale Arbeit, Religionsp\u00e4dagogik und Diakonie", "country": "Germany", "lat": 50.85002461054123, "lon": 11.433484554625618, "website": "http://www.efh-reutlingen-ludwigsburg.de/"}, {"name": "Evangelische Hochschule f\u00fcr Soziale Arbeit Dresden (FH)", "country": "Germany", "lat": 50.247380139494005, "lon": 10.524842539958728, "website": "http://www.ehs-dresden.de/"}, {"name": "European Management School", "country": "Germany", "lat": 49.858166520157084, "lon": 9.852692864123023, "website": "http://www.ems-mainz.de/"}, {"name": "Europ\u00e4ische Fachhochschule", "country": "Germany", "lat": 50.70678042859051, "lon": 8.092021513289879, "website": "http://www.eufh.de/"}, {"name": "Europa-Universit\u00e4t Viadrina Frankfurt (Oder)", "country": "Germany", "lat": 51.58565270463982, "lon": 12.3820650406041, "website": "http://www.euv-frankfurt-o.de/"}, {"name": "Evangelische Fachhochschule Berlin, Fachhochschule f\u00fcr Sozialarbeit und Sozialp\u00e4dagogik", "country": "Germany", "lat": 53.39978506039884, "lon": 8.684833619500417, "website": "http://www.evfh-berlin.de/"}, {"name": "Evangelische Fachhochschule N\u00fcrnberg", "country": "Germany", "lat": 51.46310937367244, "lon": 9.742430545425131, "website": "http://www.evfh-nuernberg.de/"}, {"name": "Fern-Fachhochschule Hamburg", "country": "Germany", "lat": 52.745385006418886, "lon": 11.622372594730919, "website": "http://www.fern-fh.de/"}, {"name": "Fernuniversit\u00e4t Gesamthochschule Hagen", "country": "Germany", "lat": 51.99635346238145, "lon": 8.00461816028448, "website": "http://www.fernuni-hagen.de/"}, {"name": "Fachhochschule Aachen", "country": "Germany", "lat": 51.35027521673166, "lon": 8.324179157554598, "website": "http://www.fh-aachen.de/"}, {"name": "Fachhochschule Aschaffenburg", "country": "Germany", "lat": 51.73113866967761, "lon": 12.962371858900077, "website": "http://www.fh-aschaffenburg.de/"}, {"name": "Technical University of Applied Sciences Augsburg", "country": "Germany", "lat": 48.20847632679799, "lon": 11.284145831522618, "website": "https://www.tha.de/"}, {"name": "Internationale Fachhochschule Bad Honnef", "country": "Germany", "lat": 53.431861373829754, "lon": 9.870740148542588, "website": "http://www.fh-bad-honnef.de/"}, {"name": "Fachhochschule Biberach, Hochschule f\u00fcr Bauwesen und Wirtschaft", "country": "Germany", "lat": 48.42642264231716, "lon": 10.993195479557528, "website": "http://www.fh-biberach.de/"}, {"name": "Fachhochschule Bielefeld", "country": "Germany", "lat": 50.391716366201955, "lon": 7.568724483271889, "website": "http://www.fh-bielefeld.de/"}, {"name": "Fachhochschule Bingen", "country": "Germany", "lat": 48.736856430734086, "lon": 13.198301009827873, "website": "http://www.fh-bingen.de/"}, {"name": "Fachhochschule Bochum", "country": "Germany", "lat": 50.99136146308386, "lon": 10.050182703446207, "website": "http://www.fh-bochum.de/"}, {"name": "Hochschule Bonn-Rhein-Sieg", "country": "Germany", "lat": 49.276930432310955, "lon": 8.028534545552054, "website": "http://www.hochschule-bonn-rhein-sieg.de/"}, {"name": "Fachhochschule Brandenburg", "country": "Germany", "lat": 53.91483452427508, "lon": 7.5319772567571555, "website": "http://www.fh-brandenburg.de/"}, {"name": "Technische Hochschule Brandenburg", "country": "Germany", "lat": 48.9837895595437, "lon": 8.970474942903637, "website": "http://www.th-brandenburg.de/"}, {"name": "Technische Hochschule Deggendorf", "country": "Germany", "lat": 48.82854902950456, "lon": 12.998289102329057, "website": "http://www.th-deg.de/"}, {"name": "Fachhochschule Dortmund", "country": "Germany", "lat": 48.509412193847716, "lon": 8.756600126422668, "website": "http://www.fh-dortmund.de/"}, {"name": "Hochschule D\u00fcsseldorf", "country": "Germany", "lat": 52.97574451710974, "lon": 10.100795175910203, "website": "http://www.hs-duesseldorf.de/"}, {"name": "Fachhochschule f\u00fcr die Wirtschaft", "country": "Germany", "lat": 48.18318548575692, "lon": 12.62636420103862, "website": "http://www.fhdw.bib.de/"}, {"name": "Fachhochschule der Wirtschaft", "country": "Germany", "lat": 53.20804550150113, "lon": 12.201842835478239, "website": "http://www.fhdw.de/"}, {"name": "Fachhochschule Eberswalde", "country": "Germany", "lat": 49.898386690039146, "lon": 12.996138012650158, "website": "http://www.fh-eberswalde.de/"}, {"name": "Fachhochschule Erfurt", "country": "Germany", "lat": 52.869554454902776, "lon": 13.289722623073652, "website": "http://www.fh-erfurt.de/"}, {"name": "Fachhochschule Flensburg", "country": "Germany", "lat": 51.78547218034291, "lon": 8.352505321739226, "website": "http://www.fh-flensburg.de/"}, {"name": "Fachhochschule Frankfurt am Main", "country": "Germany", "lat": 51.89325336265597, "lon": 8.140216242935095, "website": "http://www.fh-frankfurt.de/"}, {"name": "Europa Fachhochschule Fresenius", "country": "Germany", "lat": 49.06910856304679, "lon": 7.60623509678516, "website": "http://www.fh-fresenius.de/"}, {"name": "Fachhochschule Furtwangen, Hochschule f\u00fcr Technik und Wirtschaft", "country": "Germany", "lat": 52.48988121670331, "lon": 7.570530219602157, "website": "http://www.fh-furtwangen.de/"}, {"name": "Fachhochschule Gelsenkirchen", "country": "Germany", "lat": 52.9948161579326, "lon": 7.676231762267232, "website": "http://www.fh-gelsenkirchen.de/"}, {"name": "Fachhochschule Gie\u00dfen-Friedberg", "country": "Germany", "lat": 48.41984292541866, "lon": 10.614935495682953, "website": "http://www.fh-giessen.de/"}, {"name": "Fachhochschule Hamburg", "country": "Germany", "lat": 52.406871148152746, "lon": 9.617896190282266, "website": "http://www.fh-hamburg.de/"}, {"name": "Hamburg University of Applied Sciences (HAW Hamburg)", "country": "Germany", "lat": 51.91571885739301, "lon": 11.636450885759093, "website": "https://haw-hamburg.de"}, {"name": "Fachhochschule Hannover", "country": "Germany", "lat": 49.24072271243614, "lon": 8.958213416475346, "website": "http://www.fh-hannover.de/"}, {"name": "Fachhochschule Heidelberg", "country": "Germany", "lat": 49.58047113048618, "lon": 8.483111667752482, "website": "http://www.fh-heidelberg.de/"}, {"name": "Fachhochschule Heilbronn, Hochschule f\u00fcr Technik und Wirtschaft", "country": "Germany", "lat": 50.880971450203106, "lon": 10.716361330956284, "website": "http://www.fh-heilbronn.de/"}, {"name": "Fachhochschule Hildesheim/Holzminden/G\u00f6ttingen, Hochschule f\u00fcr angewandte Wissenschaft und Kunst", "country": "Germany", "lat": 48.642398125077094, "lon": 8.162663154982354, "website": "http://www.fh-hildesheim.de/"}, {"name": "Fachhochschule Hof", "country": "Germany", "lat": 49.111411715339166, "lon": 10.088047254383815, "website": "http://www.fh-hof.de/"}, {"name": "Technische Hochschule Ingolstadt", "country": "Germany", "lat": 49.18502498348708, "lon": 10.538562482681883, "website": "https://www.thi.de/"}, {"name": "Fachhochschule und Berufskollegs NTA, Prof.Dr. Gr\u00fcbler gemein. GmbH", "country": "Germany", "lat": 53.0746035816587, "lon": 9.229175715713934, "website": "http://www.fh-isny.de/"}, {"name": "Fachhochschule Jena", "country": "Germany", "lat": 53.911461261634265, "lon": 12.383187404788586, "website": "http://www.fh-jena.de/"}, {"name": "Fachhochschule Karlsruhe, Hochschule f\u00fcr Technik", "country": "Germany", "lat": 53.4504108123339, "lon": 13.138164673181958, "website": "http://www.fh-karlsruhe.de/"}, {"name": "Fachhochschule Kempten, Hochschule f\u00fcr Technik und Wirtschaft", "country": "Germany", "lat": 51.435126878082926, "lon": 11.038068949787412, "website": "http://www.fh-Kempten.de/"}, {"name": "Fachhochschule Kiel", "country": "Germany", "lat": 49.35195414995836, "lon": 7.795969102775719, "website": "http://www.fh-kiel.de/"}, {"name": "Fachhochschule Kaiserslautern", "country": "Germany", "lat": 53.94448639494222, "lon": 11.39753734131731, "website": "http://www.fh-kl.de/"}, {"name": "Fachhochschule Koblenz", "country": "Germany", "lat": 51.31566847446207, "lon": 8.839237550521734, "website": "http://www.fh-koblenz.de/"}, {"name": "Technische Hochschule K\u00f6ln", "country": "Germany", "lat": 48.90876264535968, "lon": 10.559233400911836, "website": "https://www.th-koeln.de/"}, {"name": "Fachhochschule Konstanz, Hochschule f\u00fcr Technik, Wirtschaft und Gestaltung", "country": "Germany", "lat": 48.53812753165046, "lon": 10.544285696124302, "website": "http://www.fh-konstanz.de/"}, {"name": "Staatlich anerkannte Fachhochschule f\u00fcr Kunsttherapie", "country": "Germany", "lat": 50.80242952879591, "lon": 9.459529704919037, "website": "http://www.fhkt.de/"}, {"name": "Fachhochschule Landshut, Hochschule f\u00fcr Wirtschaft - Sozialwesen - Technik", "country": "Germany", "lat": 51.74210031889685, "lon": 12.096074741892435, "website": "http://www.fh-landshut.de/"}, {"name": "Fachhochschule Lausitz", "country": "Germany", "lat": 48.3446806580582, "lon": 8.233838446843212, "website": "http://www.fh-lausitz.de/"}, {"name": "Fachhochschule Lippe", "country": "Germany", "lat": 48.616623926141656, "lon": 9.086264782922166, "website": "http://www.fh-lippe.de/"}, {"name": "Fachhochschule Ludwigshafen, Hochschule f\u00fcr Wirtschaft", "country": "Germany", "lat": 50.66977120198149, "lon": 8.029642297211806, "website": "http://www.fh-ludwigshafen.de/"}, {"name": "Fachhochschule L\u00fcbeck", "country": "Germany", "lat": 51.18288145512844, "lon": 11.538407912598633, "website": "http://www.fh-luebeck.de/"}, {"name": "Fachhochschule Mainz", "country": "Germany", "lat": 51.4370461774592, "lon": 9.084359435864677, "website": "http://www.fh-mainz.de/"}, {"name": "Fachhochschule Mannheim, Hochschule f\u00fcr Technik und Gestaltung", "country": "Germany", "lat": 50.71051751264438, "lon": 12.037501973925696, "website": "http://www.fh-mannheim.de/"}, {"name": "Fachhochschule Merseburg", "country": "Germany", "lat": 52.29556764586307, "lon": 11.875629507254802, "website": "http://www.fh-merseburg.de/"}, {"name": "Fachhochschule des Mittelstandes (FHM)", "country": "Germany", "lat": 51.78471967565904, "lon": 7.753833066124276, "website": "http://www.fhm-mittelstand.de/"}, {"name": "Fachhochschule M\u00fcnchen", "country": "Germany", "lat": 49.59459058441024, "lon": 9.661623686281182, "website": "http://www.fh-muenchen.de/"}, {"name": "Hochschule M\u00fcnchen", "country": "Germany", "lat": 49.45935070207088, "lon": 12.772076499524417, "website": "http://www.hm.edu/"}, {"name": "Fachhochschule M\u00fcnster", "country": "Germany", "lat": 50.31294227670945, "lon": 13.06671795025724, "website": "http://www.fh-muenster.de/"}, {"name": "Fachhochschule Neubrandenburg", "country": "Germany", "lat": 51.17247070474154, "lon": 8.944778527662859, "website": "http://www.fh-nb.de/"}, {"name": "Hochschule Neu-Ulm, Hochschule Neu-Ulm University of applied sciences", "country": "Germany", "lat": 49.43509668482693, "lon": 9.635224513304115, "website": "http://www.hs-neu-ulm.de/"}, {"name": "Fachhochschule Niederrhein", "country": "Germany", "lat": 53.147701623832646, "lon": 9.303078804815812, "website": "http://www.fh-niederrhein.de/"}, {"name": "Fachhochschule Nordostniedersachsen", "country": "Germany", "lat": 52.57113299798876, "lon": 13.182372091006346, "website": "http://www.fhnon.de/"}, {"name": "Fachhochschule Nordhausen", "country": "Germany", "lat": 53.534381087384766, "lon": 13.093886612689824, "website": "http://www.fh-nordhausen.de/"}, {"name": "Georg-Simon-Ohm-Fachhochschule N\u00fcrnberg", "country": "Germany", "lat": 52.249052922227456, "lon": 11.406068791469597, "website": "http://www.fh-nuernberg.de/"}, {"name": "Fachhochschule N\u00fcrtingen, Hochschule f\u00fcr Wirtschaft, Landwirtschaft und Landespflege", "country": "Germany", "lat": 51.299600579261195, "lon": 11.15961657497698, "website": "http://www.fh-nuertingen.de/"}, {"name": "Fachhochschule f\u00fcr das \u00f6ffentliche Bibliothekswesen Bonn", "country": "Germany", "lat": 53.25110255786785, "lon": 8.493735188263255, "website": "http://www.fhoebb.de/"}, {"name": "Fachhochschule Offenburg, Hochschule f\u00fcr Technik und Wirtschaft", "country": "Germany", "lat": 50.277507578828946, "lon": 8.759594732986981, "website": "http://www.fh-offenburg.de/"}, {"name": "Fachhochschule Oldenburg/Ostfriesland/Wilhelmshaven", "country": "Germany", "lat": 53.61949351063104, "lon": 11.875503187849255, "website": "http://www.fh-oow.de/"}, {"name": "Fachhochschule Osnabr\u00fcck", "country": "Germany", "lat": 49.97928793465144, "lon": 9.51466566038663, "website": "http://www.fh-osnabrueck.de/"}, {"name": "Freie Kunst-Studienst\u00e4tte Ottersberg", "country": "Germany", "lat": 52.16826366602902, "lon": 13.245509415508057, "website": "http://www.fh-ottersberg.de/"}, {"name": "Fachhochschule Pforzheim, Hochschule f\u00fcr Gestaltung, Technik und Wirtschaft", "country": "Germany", "lat": 51.137619644270174, "lon": 9.887551555801624, "website": "http://www.fh-pforzheim.de/"}, {"name": "Fachhochschule Potsdam", "country": "Germany", "lat": 48.756930295500425, "lon": 11.103544485587726, "website": "http://www.fh-potsdam.de/"}, {"name": "Fachhochschule Regensburg", "country": "Germany", "lat": 54.14589394488158, "lon": 9.470507494296596, "website": "http://www.fh-regensburg.de/"}, {"name": "Fachhochschule Reutlingen, Hochschule f\u00fcr Technik und Wirtschaft", "country": "Germany", "lat": 53.43847222863895, "lon": 8.00860417726758, "website": "http://www.fh-reutlingen.de/"}, {"name": "Deutsch-Ordens Fachhochschule Riedlingen, Hochschule f\u00fcr Wirtschaft", "country": "Germany", "lat": 50.31858019452231, "lon": 13.217827089999158, "website": "http://www.fh-riedlingen.de/"}, {"name": "Fachhochschule Rosenheim, Hochschule f\u00fcr Technik und Wirtschaft", "country": "Germany", "lat": 53.701134331292415, "lon": 13.184752606502027, "website": "http://www.fh-rosenheim.de/"}, {"name": "Fachhochschule Rottenburg, Hochschule f\u00fcr Forstwirtschaft", "country": "Germany", "lat": 50.39122239163764, "lon": 11.717334147230543, "website": "http://www.fh-rottenburg.de/"}, {"name": "Fachhochschule Schmalkalden", "country": "Germany", "lat": 54.15715197562178, "lon": 10.97097345845479, "website": "http://www.fh-schmalkalden.de/"}, {"name": "Fachhochschule Schw\u00e4bisch Hall, Hochschule f\u00fcr Gestaltung", "country": "Germany", "lat": 48.455503151910285, "lon": 10.50302720312034, "website": "http://www.fh-schwaebischhall.de/"}, {"name": "Fachhochschule Mannheim, Hochschule f\u00fcr Sozialwesen", "country": "Germany", "lat": 49.42704303255288, "lon": 12.387490731233488, "website": "http://www.fhs-mannheim.de/"}, {"name": "Evangelische Fachhochschule f\u00fcr Religionsp\u00e4dagogik, und Gemeindediakonie Moritzburg", "country": "Germany", "lat": 53.81424591186058, "lon": 12.482712807547536, "website": "http://www.fhs-moritzburg.de/"}, {"name": "Fachhochschule Stralsund", "country": "Germany", "lat": 52.149287330743455, "lon": 11.407845266333684, "website": "http://www.fh-stralsund.de/"}, {"name": "Deutsche Telekom Fachhochschule Leipzig", "country": "Germany", "lat": 48.63376108921747, "lon": 7.7699918474983125, "website": "http://www.fh-telekom-leipzig.de/"}, {"name": "Fachhochschule Trier, Hochschule f\u00fcr Technik, Wirtschaft und Gestaltung", "country": "Germany", "lat": 51.788615297580016, "lon": 7.752549672121227, "website": "http://www.fh-trier.de/"}, {"name": "Fachhochschule Stuttgart, Hochschule f\u00fcr Technik", "country": "Germany", "lat": 53.95331680260597, "lon": 10.492024520715644, "website": "http://www.fht-stuttgart.de/"}, {"name": "Hochschule f\u00fcr Technik und Wirtschaft Berlin", "country": "Germany", "lat": 51.55249604430946, "lon": 12.464485831294322, "website": "https://www.htw-berlin.de/"}, {"name": "Hochschule Ulm, Hochschule f\u00fcr Angewandte Wissenschaft", "country": "Germany", "lat": 53.76291067488464, "lon": 10.174627517641493, "website": "http://www.hs-ulm.de/"}, {"name": "Fachhochschule f\u00fcr Verwaltung und Rechtspflege Berlin", "country": "Germany", "lat": 52.498540299091715, "lon": 11.339890929280465, "website": "http://www.fhvr.berlin.de/"}, {"name": "Fachhochschule f\u00fcr Wirtschaft Berlin", "country": "Germany", "lat": 52.553581454507636, "lon": 10.198059048256951, "website": "http://www.fhw-berlin.de/"}, {"name": "Fachhochschule Wedel", "country": "Germany", "lat": 49.189204039418264, "lon": 12.325230071080139, "website": "http://www.fh-wedel.de/"}, {"name": "Fachhochschule Weihenstephan", "country": "Germany", "lat": 54.07986917304068, "lon": 8.36610333085791, "website": "http://www.fh-weihenstephan.de/"}, {"name": "Fachhochschule Ravensburg-Weingarten", "country": "Germany", "lat": 48.893645308631186, "lon": 10.877820770521215, "website": "http://www.fh-weingarten.de/"}, {"name": "Fachhochschule Westk\u00fcste, Hochschule f\u00fcr Wirtschaft und Technik", "country": "Germany", "lat": 53.374453987392926, "lon": 12.625653406159614, "website": "http://www.fh-westkueste.de/"}, {"name": "Fachhochschule Wiesbaden", "country": "Germany", "lat": 52.05423879048533, "lon": 11.948014380494124, "website": "http://www.fh-wiesbaden.de/"}, {"name": "Ostfalia Hochschule f\u00fcr angewandte Wissenschaften", "country": "Germany", "lat": 50.46939699825506, "lon": 7.583850603388988, "website": "https://www.ostfalia.de/"}, {"name": "Fachhochschule Worms", "country": "Germany", "lat": 53.636568754121484, "lon": 9.136294792755686, "website": "http://www.fh-worms.de/"}, {"name": "Private Fachhochschule f\u00fcr Wirtschaft und Technik Vechta/Diepholz", "country": "Germany", "lat": 48.37275476491316, "lon": 11.146798706216327, "website": "http://www.fhwt.de/"}, {"name": "Fachhochschule W\u00fcrzburg - Schweinfurt", "country": "Germany", "lat": 48.3099664125183, "lon": 8.330156772998546, "website": "http://www.fh-wuerzburg.de/"}, {"name": "Wests\u00e4chsische Hochschule Zwickau (FH)", "country": "Germany", "lat": 52.55051058550613, "lon": 9.672984068360192, "website": "http://www.fh-zwickau.de/"}, {"name": "Fachhochschule f\u00fcr Oekonomie und Management (FOM)", "country": "Germany", "lat": 49.79792200665988, "lon": 10.116592410779697, "website": "http://www.fom.de/"}, {"name": "Freie Universit\u00e4t Berlin", "country": "Germany", "lat": 49.226795022153084, "lon": 11.60305095335757, "website": "http://www.fu-berlin.de/"}, {"name": "Private Hanseuniversit\u00e4t", "country": "Germany", "lat": 53.642448267228986, "lon": 10.422028204680466, "website": "http://www.hanseuni.de/"}, {"name": "Hafencity Universit\u00e4t Hamburg", "country": "Germany", "lat": 48.654882868125355, "lon": 8.375670970855913, "website": "http://www.hcu-hamburg.de/"}, {"name": "Fachhochschule Stuttgart, Hochschule der Medien", "country": "Germany", "lat": 49.13986938048421, "lon": 10.65131400426219, "website": "http://www.hdm-stuttgart.de/"}, {"name": "Hertie School of Governance", "country": "Germany", "lat": 54.15583331669036, "lon": 8.051280660774339, "website": "http://www.hertie-school.org/"}, {"name": "Hochschule f\u00fcr Bankwirtschaft (HfB), Private Fachhochschule der Bankakademie", "country": "Germany", "lat": 49.38657991980167, "lon": 10.051813717498657, "website": "http://www.hfb.de/"}, {"name": "Fachhochschule Schw\u00e4bisch Gm\u00fcnd, Hochschule f\u00fcr Gestaltung", "country": "Germany", "lat": 50.2650207787062, "lon": 11.565394005911672, "website": "http://www.hfg-gmuend.de/"}, {"name": "Hochschule f\u00fcr Philosophie M\u00fcnchen", "country": "Germany", "lat": 48.721805636276656, "lon": 9.499181898396582, "website": "http://www.hfph.mwn.de/"}, {"name": "Hochschule f\u00fcr Politik (HFP)", "country": "Germany", "lat": 48.68830121961718, "lon": 12.527456480367716, "website": "http://www.hfp.mhn.de/"}, {"name": "Handelshochschule Leipzig", "country": "Germany", "lat": 53.935900853562316, "lon": 9.495567999322162, "website": "http://www.hhl.de/"}, {"name": "Hochschule f\u00fcr Internationales Management", "country": "Germany", "lat": 51.1257581754024, "lon": 10.805197973742988, "website": "http://www.himh.de/"}, {"name": "Hochschule f\u00fcr J\u00fcdische Studien Heidelberg", "country": "Germany", "lat": 51.17014047574391, "lon": 11.590678396614754, "website": "http://www.hjs.uni-heidelberg.de/"}, {"name": "Hochschule Albstadt-Sigmaringen", "country": "Germany", "lat": 51.62622447312049, "lon": 13.189654092180785, "website": "http://www.hs-albsig.de/"}, {"name": "Hochschule Anhalt (FH), Hochschule f\u00fcr angewandte Wissenschaften", "country": "Germany", "lat": 52.77596618504083, "lon": 12.07683259551035, "website": "http://www.hs-anhalt.de/"}, {"name": "Hochschule Bremen", "country": "Germany", "lat": 54.107277586605925, "lon": 8.919091018422527, "website": "http://www.hs-bremen.de/"}, {"name": "Hochschule Bremerhaven", "country": "Germany", "lat": 53.825509773753865, "lon": 10.343031981695926, "website": "http://www.hs-bremerhaven.de/"}, {"name": "Hochschule Coburg", "country": "Germany", "lat": 49.682923192573796, "lon": 13.384384118989113, "website": "http://www.hs-coburg.de/"}, {"name": "Hochschule Darmstadt", "country": "Germany", "lat": 53.995463121583924, "lon": 12.061205264695907, "website": "https://www.h-da.de/"}, {"name": "Hochschule Esslingen", "country": "Germany", "lat": 49.6183916293839, "lon": 9.387537599474994, "website": "http://www.hs-esslingen.de/"}, {"name": "Hochschule Fulda", "country": "Germany", "lat": 53.73849591516563, "lon": 10.372196138557953, "website": "http://www.hs-fulda.de/"}, {"name": "Hochschule Harz, Hochschule f\u00fcr angewandte Wissenschaften (FH)", "country": "Germany", "lat": 52.96946673007888, "lon": 7.747738328359361, "website": "http://www.hs-harz.de/"}, {"name": "Hochschule Magdeburg-Stendal (FH)", "country": "Germany", "lat": 48.33629258985998, "lon": 13.427024427228533, "website": "http://www.hs-magdeburg.de/"}, {"name": "Hochschule Wismar, Fachhochschule f\u00fcr Technik, Wirtschaft und Gestaltung", "country": "Germany", "lat": 49.061495199508734, "lon": 10.643212072027621, "website": "http://www.hs-wismar.de/"}, {"name": "Hochschule Zittau/G\u00f6rlitz (FH)", "country": "Germany", "lat": 52.58366086095556, "lon": 12.633697883718703, "website": "http://www.hs-zigr.de/"}, {"name": "Hochschule f\u00fcr Technik und Wirtschaft Dresden (FH)", "country": "Germany", "lat": 52.3691737879929, "lon": 7.867670644451033, "website": "http://www.htw-dresden.de/"}, {"name": "Hochschule f\u00fcr Technik, Wirtschaft und Kultur Leipzig (FH)", "country": "Germany", "lat": 52.9869143138294, "lon": 9.000861331047442, "website": "http://www.htwk-leipzig.de/"}, {"name": "Hochschule Mittweida, University of Applied Sciences", "country": "Germany", "lat": 51.44786887472224, "lon": 9.63465742121268, "website": "http://www.htwm.de/"}, {"name": "Hochschule f\u00fcr Technik und Wirtschaft des Saarlandes", "country": "Germany", "lat": 51.80862163708126, "lon": 10.340512666751193, "website": "http://www.htw-saarland.de/"}, {"name": "Humboldt Universit\u00e4t Berlin", "country": "Germany", "lat": 50.099933327317764, "lon": 12.76617389383112, "website": "http://www.hu-berlin.de/"}, {"name": "HWP - Hamburger Universit\u00e4t f\u00fcr Wirtschaft und Politik", "country": "Germany", "lat": 53.37310859497796, "lon": 11.773098485993355, "website": "http://www.hwp-hamburg.de/"}, {"name": "Internationales Hochschulinstitut Zittau", "country": "Germany", "lat": 53.38163931742933, "lon": 11.755353450132013, "website": "http://www.ihi-zittau.de/"}, {"name": "Internationale Fachhochschule Aalen", "country": "Germany", "lat": 49.17123474817742, "lon": 9.198153653744756, "website": "http://www.international.fh-aalen.de/"}, {"name": "International School of Management ISM Dortmund", "country": "Germany", "lat": 48.48475442468458, "lon": 12.917574983290974, "website": "http://www.ism-dortmund.de/"}, {"name": "International School of New Media, University of L\u00fcbeck", "country": "Germany", "lat": 52.49452652584601, "lon": 11.053727003083386, "website": "http://www.isnm.de/"}, {"name": "International University in Germany", "country": "Germany", "lat": 50.54592694372677, "lon": 9.534823901694029, "website": "http://www.i-u.de/"}, {"name": "Jacobs University Bremen", "country": "Germany", "lat": 52.01039652354318, "lon": 7.824570699737275, "website": "http://www.jacobs-university.de/"}, {"name": "Karlshochschule International University", "country": "Germany", "lat": 51.57142687074837, "lon": 7.650259648989605, "website": "http://www.karlshochschule.de/"}, {"name": "Katholische Fachhochschule Norddeutschland", "country": "Germany", "lat": 50.41667734168968, "lon": 8.662006944291097, "website": "http://www.kath-fh-nord.de/"}, {"name": "Katholische Fachhochschule Berlin (KFB)", "country": "Germany", "lat": 50.52140754574841, "lon": 11.915290951223552, "website": "http://www.kfb-berlin.de/"}, {"name": "Katholische Fachhochschule Freiburg, Hochschule f\u00fcr Sozialwesen, Religionsp\u00e4dagogik und Pflege", "country": "Germany", "lat": 52.078720013193944, "lon": 9.568727802968219, "website": "http://www.kfh-Freiburg.de/"}, {"name": "Katholische Fachhochschule Mainz", "country": "Germany", "lat": 50.12239347506479, "lon": 12.910899393155617, "website": "http://www.kfh-mainz.de/"}, {"name": "Katholische Fachhochschule Nordrhein-Westfalen", "country": "Germany", "lat": 52.08808436177473, "lon": 7.492395937793136, "website": "http://www.kfhnw.de/"}, {"name": "Kunsthochschule Berlin-Weissensee, Hochschule f\u00fcr Gestaltung", "country": "Germany", "lat": 53.1033497951866, "lon": 8.945384147969143, "website": "http://www.kh-berlin.de/"}, {"name": "Katholische Hochschule f\u00fcr Soziale Arbeit Saarbr\u00fccken", "country": "Germany", "lat": 48.24764697789751, "lon": 12.136647937115102, "website": "http://www.khsa.de/"}, {"name": "Katholische Stiftungsfachhochschule M\u00fcnchen", "country": "Germany", "lat": 51.15309127296879, "lon": 12.986526820622208, "website": "http://www.ksfh.de/"}, {"name": "Katholische Universit\u00e4t Eichst\u00e4tt", "country": "Germany", "lat": 50.304833708799706, "lon": 9.57083550244947, "website": "http://www.ku-eichstaett.de/"}, {"name": "Kunstakademie D\u00fcsseldorf.", "country": "Germany", "lat": 52.23221837302139, "lon": 9.982466876899416, "website": "http://www.kunstakademie-duesseldorf.de/"}, {"name": "Merkur Internationale FH Karlsruhe", "country": "Germany", "lat": 53.144948070389916, "lon": 9.516055795090526, "website": "http://www.merkur-fh.org/"}, {"name": "Merz Akademie, Hochschule f\u00fcr Gestaltung Stuttgart", "country": "Germany", "lat": 52.95249450203983, "lon": 7.656949430222901, "website": "http://www.merz-akademie.de/"}, {"name": "M\u00e4rkische Fachhochschule Iserlohn", "country": "Germany", "lat": 52.103878540843205, "lon": 9.942949447050072, "website": "http://www.mfh-iserlohn.de/"}, {"name": "Medizinische Hochschule Hannover", "country": "Germany", "lat": 49.7765924416952, "lon": 13.003796887227303, "website": "http://www.mh-hannover.de/"}, {"name": "Staatliche Hochschule f\u00fcr Musik", "country": "Germany", "lat": 51.54445192723139, "lon": 12.645994755359537, "website": "http://www.mh-trossingen.de/"}, {"name": "Medizinische Universit\u00e4t L\u00fcbeck", "country": "Germany", "lat": 49.55824514502449, "lon": 9.826683868599105, "website": "http://www.mu-luebeck.de/"}, {"name": "Muthesius-Hochschule, Fachhochschule f\u00fcr Kunst und Gestaltung", "country": "Germany", "lat": 50.75483009185397, "lon": 11.089317727420827, "website": "http://www.muthesius.de/"}, {"name": "Nordakademie, Staatlich anerkannte private Fachhochschule mit dualen Studieng\u00e4ngen", "country": "Germany", "lat": 52.12396730506979, "lon": 13.3720076465877, "website": "http://www.nordakademie.de/"}, {"name": "Theologische Fakult\u00e4t Paderborn", "country": "Germany", "lat": 50.10411506900334, "lon": 12.981352354806468, "website": "http://www.paderborn.de/theofak/"}, {"name": "Private Fachhochschule G\u00f6ttingen", "country": "Germany", "lat": 52.51583300805336, "lon": 10.40401876675654, "website": "http://www.pfh-goettingen.de/"}, {"name": "P\u00e4dagogische Hochschule Erfurt/M\u00fchlhausen", "country": "Germany", "lat": 53.83038601045261, "lon": 9.444351305137065, "website": "http://www.ph-erfurt.de/"}, {"name": "P\u00e4dagogische Hochschule Freiburg", "country": "Germany", "lat": 49.99735806169648, "lon": 12.215341363340574, "website": "http://www.ph-freiburg.de/"}, {"name": "P\u00e4dagogische Hochschule Schw\u00e4bisch Gm\u00fcnd", "country": "Germany", "lat": 49.499153492934894, "lon": 12.525485739878002, "website": "http://www.ph-gmuend.de/"}, {"name": "P\u00e4dagogische Hochschule Heidelberg", "country": "Germany", "lat": 50.25336262720593, "lon": 8.561629338291334, "website": "http://www.ph-heidelberg.de/"}, {"name": "Philosophisch-Theologische Hochschule SVD Sankt Augustin", "country": "Germany", "lat": 50.21583663217732, "lon": 9.101886060943238, "website": "http://www.philtheol-augustin.de/"}, {"name": "P\u00e4dagogische Hochschule Karlsruhe", "country": "Germany", "lat": 52.94345384353532, "lon": 8.068029557488176, "website": "http://www.ph-karlsruhe.de/"}, {"name": "P\u00e4dagogische Hochschule Ludwigsburg", "country": "Germany", "lat": 50.67399252283773, "lon": 10.13474825224773, "website": "http://www.ph-ludwigsburg.de/"}, {"name": "P\u00e4dagogische Hochschule Weingarten", "country": "Germany", "lat": 50.48205716138969, "lon": 8.326091974604829, "website": "http://www.ph-weingarten.de/"}, {"name": "Popakademie Baden-W\u00fcrttemberg", "country": "Germany", "lat": 48.77938614599001, "lon": 12.905053730076204, "website": "http://www.popakademie.de/"}, {"name": "Private FernFachhochschule Darmstadt", "country": "Germany", "lat": 53.083025698814055, "lon": 10.409759685691593, "website": "http://www.privatfh-da.de/"}, {"name": "Philosophisch-Theologische Hochschule der Salesianer Don Boscos", "country": "Germany", "lat": 52.59036114147595, "lon": 10.198909877792943, "website": "http://www.pth-bb.de/"}, {"name": "Philosophisch-Theologische Hochschule M\u00fcnster", "country": "Germany", "lat": 49.15915831695311, "lon": 11.27592232524129, "website": "http://www.pth-muenster.de/"}, {"name": "Philosophisch-Theologische Hochschule Vallendar der Gesellschaft des Katholischen Apostolates (Pallottiner)", "country": "Germany", "lat": 52.364650341973466, "lon": 10.28222353363105, "website": "http://www.pthv.de/"}, {"name": "Evangelische Fachhochschule f\u00fcr Sozialp\u00e4dagogik der \"Diakonenanstalt des Rauhen Hauses\" Hamburg", "country": "Germany", "lat": 49.13940040156342, "lon": 9.957504821549561, "website": "http://www.rauheshaus.de/fachhochschule/"}, {"name": "Rheinische Fachhochschule K\u00f6ln", "country": "Germany", "lat": 49.51810110503695, "lon": 9.950817267634779, "website": "http://www.rfh-koeln.de/"}, {"name": "Ruhr-Universit\u00e4t Bochum", "country": "Germany", "lat": 48.8810064570333, "lon": 13.451516614732476, "website": "http://www.ruhr-uni-bochum.de/"}, {"name": "Rheinisch Westf\u00e4lische Technische Hochschule Aachen", "country": "Germany", "lat": 53.6066891670427, "lon": 10.867496095293305, "website": "http://www.rwth-aachen.de/"}, {"name": "Lutherische Theologische Hochschule Oberursel", "country": "Germany", "lat": 49.72125828185993, "lon": 8.299440272043773, "website": "http://www.selk.de/LThH/"}, {"name": "Gustav-Siewerth-Akademie", "country": "Germany", "lat": 52.88266040180973, "lon": 9.983366332172881, "website": "http://www.siewerth-akademie.de/"}, {"name": "Schiller International University, Heidelberg", "country": "Germany", "lat": 53.05401115247313, "lon": 10.394023622488955, "website": "http://www.siu-heidelberg.de/"}, {"name": "SRH University of Applied Sciences", "country": "Germany", "lat": 51.174710868090024, "lon": 9.589283605436947, "website": "http://www.srh-berlin.de/"}, {"name": "Philosophisch-Theologische Hochschule Sankt Georgen", "country": "Germany", "lat": 53.05597470745423, "lon": 10.862735925338301, "website": "http://www.st-georgen.uni-frankfurt.de/"}, {"name": "Steinbeis-Hochschule-Berlin", "country": "Germany", "lat": 48.970768549877356, "lon": 7.837835051309226, "website": "http://www.stw.de/shb/"}, {"name": "Technische Fachhochschule Berlin", "country": "Germany", "lat": 49.40187148827989, "lon": 12.276636143097477, "website": "http://www.tfh-berlin.de/"}, {"name": "Technische Fachhochschule Georg Agricola f\u00fcr Rohstoff, Energie und, Umwelt zu Bochum", "country": "Germany", "lat": 48.742166642402154, "lon": 10.261066935766433, "website": "http://www.tfh-bochum.de/"}, {"name": "Technische Fachhochschule Wildau", "country": "Germany", "lat": 53.55879599147356, "lon": 11.382471261143461, "website": "http://www.tfh-wildau.de/"}, {"name": "Theologische Hochschule Friedensau", "country": "Germany", "lat": 50.10125325846646, "lon": 13.231364905203108, "website": "http://www.thh-friedensau.de/"}, {"name": "Tier\u00e4rztliche Hochschule Hannover", "country": "Germany", "lat": 54.03075863407017, "lon": 12.161819563032218, "website": "http://www.tiho-hannover.de/"}, {"name": "Technische Universit\u00e4t Berlin", "country": "Germany", "lat": 50.08873614768991, "lon": 11.897968560590186, "website": "http://www.tu-berlin.de/"}, {"name": "Technische Universit\u00e4t Carolo-Wilhelmina zu Braunschweig", "country": "Germany", "lat": 53.78476928900533, "lon": 12.592888057667011, "website": "https://www.tu-braunschweig.de/"}, {"name": "Technische Universit\u00e4t Chemnitz", "country": "Germany", "lat": 53.35618462962293, "lon": 8.770057985911734, "website": "http://www.tu-chemnitz.de/"}, {"name": "Technische Universit\u00e4t Clausthal", "country": "Germany", "lat": 48.261129461342506, "lon": 8.368535231350815, "website": "http://www.tu-clausthal.de/"}, {"name": "Brandenburgische Technische Universit\u00e4t Cottbus", "country": "Germany", "lat": 50.07569529013111, "lon": 13.289397046856951, "website": "http://www.tu-cottbus.de/"}, {"name": "Technische Universit\u00e4t Darmstadt", "country": "Germany", "lat": 50.52358283693978, "lon": 11.465464212581198, "website": "https://www.tu-darmstadt.de/"}, {"name": "Technische Universit\u00e4t Dresden", "country": "Germany", "lat": 48.66996819745373, "lon": 13.442687189695437, "website": "http://www.tu-dresden.de/"}, {"name": "Technische Universit\u00e4t Bergakademie Freiberg", "country": "Germany", "lat": 51.71440027171394, "lon": 10.933585717726245, "website": "http://www.tu-freiberg.de/"}, {"name": "Technische Universit\u00e4t Hamburg", "country": "Germany", "lat": 53.964004319434075, "lon": 13.339253497812686, "website": "http://www.tuhh.de/"}, {"name": "Technische Universit\u00e4t Ilmenau", "country": "Germany", "lat": 52.77863127376883, "lon": 10.879684684690705, "website": "http://www.tu-ilmenau.de/"}, {"name": "Technische Universit\u00e4t M\u00fcnchen", "country": "Germany", "lat": 49.071649585724835, "lon": 11.68994242597627, "website": "http://www.tum.de/"}, {"name": "Universit\u00e4t Augsburg", "country": "Germany", "lat": 49.66374956627151, "lon": 13.203096826093262, "website": "http://www.uni-augsburg.de/"}, {"name": "Otto-Friedrich Universit\u00e4t Bamberg", "country": "Germany", "lat": 50.68716113353731, "lon": 10.583203975505501, "website": "http://www.uni-bamberg.de/"}, {"name": "Universit\u00e4t Bayreuth", "country": "Germany", "lat": 52.01076236020385, "lon": 13.11087032719982, "website": "http://www.uni-bayreuth.de/"}, {"name": "Universit\u00e4t Bielefeld", "country": "Germany", "lat": 53.00932353508275, "lon": 8.13205680453363, "website": "http://www.uni-bielefeld.de/"}, {"name": "Rheinische Friedrich-Wilhelms Universit\u00e4t Bonn", "country": "Germany", "lat": 52.2044267365459, "lon": 13.108094057915672, "website": "http://www.uni-bonn.de/"}, {"name": "Universit\u00e4t Bremen", "country": "Germany", "lat": 53.04313340830939, "lon": 9.183658192107789, "website": "http://www.uni-bremen.de/"}, {"name": "Universit\u00e4t der Bundeswehr Hamburg", "country": "Germany", "lat": 48.430836246477334, "lon": 8.405303701483998, "website": "http://www.unibw-hamburg.de/"}, {"name": "Universit\u00e4t der Bundeswehr M\u00fcnchen", "country": "Germany", "lat": 52.461290284771465, "lon": 12.041766043993785, "website": "http://www.unibw-muenchen.de/"}, {"name": "Technische Universit\u00e4t Dortmund", "country": "Germany", "lat": 48.60169291138081, "lon": 12.225793006511127, "website": "http://www.tu-dortmund.de/"}, {"name": "Heinrich-Heine Universit\u00e4t D\u00fcsseldorf", "country": "Germany", "lat": 49.73667086148317, "lon": 10.098997666733212, "website": "http://www.uni-duesseldorf.de/"}, {"name": "Universit\u00e4t Duisburg-Essen", "country": "Germany", "lat": 53.772904603281766, "lon": 7.716676345330336, "website": "http://www.uni-duisburg-essen.de/"}, {"name": "Universit\u00e4t Erfurt", "country": "Germany", "lat": 53.28946917266288, "lon": 11.676481471384344, "website": "http://www.uni-erfurt.de/"}, {"name": "Friedrich-Alexander Universit\u00e4t Erlangen-N\u00fcrnberg", "country": "Germany", "lat": 52.14588658192351, "lon": 10.934359998102071, "website": "https://www.fau.de/"}, {"name": "Universit\u00e4t Flensburg", "country": "Germany", "lat": 48.95081922775845, "lon": 8.173436454036139, "website": "http://www.uni-flensburg.de/"}, {"name": "Johann Wolfgang Goethe Universit\u00e4t Frankfurt am Main", "country": "Germany", "lat": 48.25362852826595, "lon": 12.821322995147682, "website": "http://www.uni-frankfurt.de/"}, {"name": "Albert-Ludwigs-Universit\u00e4t Freiburg", "country": "Germany", "lat": 49.81811329582283, "lon": 11.186598288948325, "website": "http://www.uni-freiburg.de/"}, {"name": "Justus Liebig Universit\u00e4t Gie\u00dfen", "country": "Germany", "lat": 53.81290991699351, "lon": 12.083105176937217, "website": "http://www.uni-giessen.de/"}, {"name": "Georg-August Universit\u00e4t G\u00f6ttingen", "country": "Germany", "lat": 53.15536251673849, "lon": 7.474546001132197, "website": "http://www.uni-goettingen.de/"}, {"name": "Ernst-Moritz-Arndt Universit\u00e4t Greifswald", "country": "Germany", "lat": 49.26694208239208, "lon": 13.014868146521579, "website": "http://www.uni-greifswald.de/"}, {"name": "Martin-Luther Universit\u00e4t Halle-Wittenberg", "country": "Germany", "lat": 50.33818046762226, "lon": 10.267254592965358, "website": "http://www.uni-halle.de/"}, {"name": "Universit\u00e4t Hamburg", "country": "Germany", "lat": 52.31845119321031, "lon": 9.122669687413907, "website": "http://www.uni-hamburg.de/"}, {"name": "Universit\u00e4t Hannover", "country": "Germany", "lat": 51.933907267628406, "lon": 9.944976124029077, "website": "http://www.uni-hannover.de/"}, {"name": "Ruprecht-Karls-Universit\u00e4t Heidelberg", "country": "Germany", "lat": 52.88706110658477, "lon": 9.917051369369236, "website": "http://www.uni-heidelberg.de/"}, {"name": "Universit\u00e4t Hildesheim", "country": "Germany", "lat": 49.513210066354375, "lon": 9.935588371710413, "website": "http://www.uni-hildesheim.de/"}, {"name": "Universit\u00e4t Hohenheim", "country": "Germany", "lat": 49.330235381875454, "lon": 13.323489655747952, "website": "http://www.uni-hohenheim.de/"}, {"name": "Friedrich-Schiller Universit\u00e4t Jena", "country": "Germany", "lat": 50.6407376325299, "lon": 8.048192977005325, "website": "http://www.uni-jena.de/"}, {"name": "Karlsruher Institut f\u00fcr Technologie", "country": "Germany", "lat": 49.571597205997726, "lon": 8.497360812730571, "website": "http://www.kit.edu/"}, {"name": "Universit\u00e4t Kassel", "country": "Germany", "lat": 52.07941698833853, "lon": 11.774497968079423, "website": "http://www.uni-kassel.de/"}, {"name": "Christian-Albrechts-Universit\u00e4t Kiel", "country": "Germany", "lat": 50.090164259787876, "lon": 11.50037906540823, "website": "http://www.uni-kiel.de/"}, {"name": "Universit\u00e4t Kaiserslautern", "country": "Germany", "lat": 52.0504506695785, "lon": 12.996081387295954, "website": "http://www.uni-kl.de/"}, {"name": "Universit\u00e4t Koblenz-Landau", "country": "Germany", "lat": 50.91322516155614, "lon": 10.193469046907685, "website": "http://www.uni-koblenz-landau.de/"}, {"name": "Universit\u00e4t K\u00f6ln", "country": "Germany", "lat": 53.614428857490175, "lon": 12.973349174334077, "website": "http://www.uni-koeln.de/"}, {"name": "Universit\u00e4t Konstanz", "country": "Germany", "lat": 53.54437897792418, "lon": 9.193238066832263, "website": "http://www.uni-konstanz.de/"}, {"name": "Universit\u00e4t Leipzig", "country": "Germany", "lat": 52.779412607100944, "lon": 11.894813836471098, "website": "http://www.uni-leipzig.de/"}, {"name": "Universit\u00e4t L\u00fcneburg", "country": "Germany", "lat": 49.706851371616345, "lon": 10.74162547590605, "website": "http://www.uni-lueneburg.de/"}, {"name": "Otto-von-Guericke Universit\u00e4t Magdeburg", "country": "Germany", "lat": 50.581694343083576, "lon": 10.132330932785116, "website": "http://www.uni-magdeburg.de/"}, {"name": "Johannes-Gutenberg Universit\u00e4t Mainz", "country": "Germany", "lat": 49.49764788842479, "lon": 11.058347833705607, "website": "http://www.uni-mainz.de/"}, {"name": "Universit\u00e4t Mannheim", "country": "Germany", "lat": 49.509328310434775, "lon": 9.900464171846076, "website": "http://www.uni-mannheim.de/"}, {"name": "Phillips-Universit\u00e4t Marburg", "country": "Germany", "lat": 51.25138064549766, "lon": 8.339784938025549, "website": "http://www.uni-marburg.de/"}, {"name": "Ludwig-Maximilians-Universit\u00e4t M\u00fcnchen", "country": "Germany", "lat": 49.23848723865883, "lon": 12.18673211595851, "website": "http://www.lmu.de/"}, {"name": "Westf\u00e4lische Wilhelms-Universit\u00e4t M\u00fcnster", "country": "Germany", "lat": 49.26309921923635, "lon": 13.332957293400465, "website": "http://www.uni-muenster.de/"}, {"name": "Carl von Ossietzky Universit\u00e4t Oldenburg", "country": "Germany", "lat": 51.220989028235515, "lon": 7.620898601900478, "website": "https://uol.de"}, {"name": "Universit\u00e4t Osnabr\u00fcck", "country": "Germany", "lat": 49.21985956267976, "lon": 9.95249794191994, "website": "http://www.uni-osnabrueck.de/"}, {"name": "Universit\u00e4t Paderborn", "country": "Germany", "lat": 49.15808613343818, "lon": 10.546396557712363, "website": "http://www.uni-paderborn.de/"}, {"name": "Universit\u00e4t Passau", "country": "Germany", "lat": 51.29974731534999, "lon": 12.515597177682952, "website": "http://www.uni-passau.de/"}, {"name": "Universit\u00e4t Potsdam", "country": "Germany", "lat": 53.68840569302303, "lon": 8.071090613324122, "website": "http://www.uni-potsdam.de/"}, {"name": "Universit\u00e4t Regensburg", "country": "Germany", "lat": 52.91438928674986, "lon": 10.489326925991271, "website": "http://www.uni-regensburg.de/"}, {"name": "Universit\u00e4t Rostock", "country": "Germany", "lat": 53.660118149076666, "lon": 9.185713055698956, "website": "http://www.uni-rostock.de/"}, {"name": "Universit\u00e4t des Saarlandes", "country": "Germany", "lat": 49.12759403902543, "lon": 13.434330148359706, "website": "http://www.uni-saarland.de/"}, {"name": "Universit\u00e4t Siegen", "country": "Germany", "lat": 51.715988016937594, "lon": 12.732613513587912, "website": "http://www.uni-siegen.de/"}, {"name": "Universit\u00e4t Stuttgart", "country": "Germany", "lat": 52.79059326159891, "lon": 11.352908057040654, "website": "http://www.uni-stuttgart.de/"}, {"name": "Universit\u00e4t Trier", "country": "Germany", "lat": 50.097269981151264, "lon": 9.558630872459812, "website": "http://www.uni-trier.de/"}, {"name": "Eberhard-Karls-Universit\u00e4t T\u00fcbingen", "country": "Germany", "lat": 53.73807742599865, "lon": 13.340213538454293, "website": "http://www.uni-tuebingen.de/"}, {"name": "Universit\u00e4t Ulm", "country": "Germany", "lat": 48.84657443716426, "lon": 12.411007146603605, "website": "http://www.uni-ulm.de/"}, {"name": "Hochschule Vechta", "country": "Germany", "lat": 48.609579207409915, "lon": 7.603473473653003, "website": "http://www.uni-vechta.de/"}, {"name": "Bauhaus Universit\u00e4t Weimar", "country": "Germany", "lat": 51.02897365926483, "lon": 11.839971926784884, "website": "http://www.uni-weimar.de/"}, {"name": "Private Universit\u00e4t Witten/Herdecke", "country": "Germany", "lat": 53.57994162951193, "lon": 11.40373590113438, "website": "http://www.uni-wh.de/"}, {"name": "Bayerische Julius-Maximilians-Universit\u00e4t W\u00fcrzburg", "country": "Germany", "lat": 52.700043565286265, "lon": 12.5898535285596, "website": "http://www.uni-wuerzburg.de/"}, {"name": "Bergische Universit\u00e4t Gesamthochschule Wuppertal", "country": "Germany", "lat": 48.20765886777215, "lon": 10.909750447427783, "website": "http://www.uni-wuppertal.de/"}, {"name": "WHU \u2013 Otto Beisheim School of Management", "country": "Germany", "lat": 49.94049948339443, "lon": 10.659091770608143, "website": "https://www.whu.edu/"}, {"name": "Duale Hochschule Baden-W\u00fcrttemberg", "country": "Germany", "lat": 51.31398532880002, "lon": 13.218300689243316, "website": "http://www.dhbw.de/"}, {"name": "Duale Hochschule Baden-W\u00fcrttemberg Heidenheim", "country": "Germany", "lat": 52.71745401328222, "lon": 12.551568202633177, "website": "http://www.heidenheim.dhbw.de/"}, {"name": "Duale Hochschule Baden-W\u00fcrttemberg Center for Advanced Studies (CAS)", "country": "Germany", "lat": 49.14063865427771, "lon": 11.900125944992396, "website": "http://www.cas.dhbw.de/"}, {"name": "Duale Hochschule Baden-W\u00fcrttemberg L\u00f6rrach", "country": "Germany", "lat": 53.55855626296953, "lon": 7.78206345245318, "website": "http://www.dhbw-loerrach.de/"}, {"name": "Duale Hochschule Baden-W\u00fcrttemberg Mosbach", "country": "Germany", "lat": 52.39357406668994, "lon": 12.114508352151734, "website": "http://www.dhbw-mosbach.de/"}, {"name": "Duale Hochschule Baden-W\u00fcrttemberg Ravensburg", "country": "Germany", "lat": 52.53299974505231, "lon": 8.449633347364784, "website": "http://www.ravensburg.dhbw.de/"}, {"name": "Duale Hochschule Baden-W\u00fcrttemberg Stuttgart", "country": "Germany", "lat": 50.351123971202945, "lon": 11.591858815718748, "website": "http://www.dhbw-stuttgart.de/"}, {"name": "Duale Hochschule Baden-W\u00fcrttemberg Villingen-Schwenningen", "country": "Germany", "lat": 51.79531810552152, "lon": 9.892597610543811, "website": "http://www.dhbw-vs.de/"}, {"name": "Duale Hochschule Baden-W\u00fcrttemberg Heilbronn", "country": "Germany", "lat": 50.355599597972756, "lon": 12.5632170325492, "website": "http://www.heilbronn.dhbw.de/"}, {"name": "Duale Hochschule Baden-W\u00fcrttemberg Karlsruhe", "country": "Germany", "lat": 49.692626278505436, "lon": 12.07397880264496, "website": "http://www.dhbw-karlsruhe.de/"}, {"name": "Duale Hochschule Baden-Wuerttemberg Mannheim", "country": "Germany", "lat": 52.85423996267088, "lon": 9.700112634700364, "website": "http://www.dhbw-mannheim.de/"}, {"name": "Hochschule Hannover", "country": "Germany", "lat": 49.08842224718045, "lon": 11.054183579410669, "website": "https://www.hs-hannover.de/"}, {"name": "Staatliche Studienakademie Bautzen", "country": "Germany", "lat": 53.951237330337136, "lon": 10.140800411910163, "website": "https://www.ba-bautzen.de/"}, {"name": "Technische Hochschule Mittelhessen", "country": "Germany", "lat": 50.60820398665113, "lon": 10.107055696530324, "website": "https://www.thm.de"}, {"name": "Hochschule f\u00fcr Wirtschaft und Gesellschaft Ludwigshafen", "country": "Germany", "lat": 49.110454953602115, "lon": 8.689329107766786, "website": "https://www.hwg-lu.de"}, {"name": "Leuphana Universit\u00e4t L\u00fcneburg", "country": "Germany", "lat": 53.233764354737914, "lon": 12.695579303287476, "website": "https://www.leuphana.de"}, {"name": "Ostbayerische Technische Hochschule Amberg-Weiden", "country": "Germany", "lat": 50.437594278037956, "lon": 12.609575470528227, "website": "https://www.oth-aw.de/"}, {"name": "Musikhochschule L\u00fcbeck", "country": "Germany", "lat": 49.122720574320695, "lon": 7.738075259690797, "website": "https://www.mh-luebeck.de/"}, {"name": "Hochschule f\u00fcr Musik und Theater M\u00fcnchen", "country": "Germany", "lat": 50.97359094803967, "lon": 10.88219398687723, "website": "https://website.musikhochschule-muenchen.de/"}, {"name": "Universit\u00e4t der K\u00fcnste Berlin", "country": "Germany", "lat": 52.08596999683526, "lon": 13.115473445420529, "website": "https://www.udk-berlin.de/"}, {"name": "Hochschule f\u00fcr Musik und Tanz K\u00f6ln", "country": "Germany", "lat": 48.39448670529278, "lon": 12.285016108116277, "website": "https://www.hfmt-koeln.de/"}, {"name": "Hochschule f\u00fcr Musik Carl Maria von Weber", "country": "Germany", "lat": 50.770783569186996, "lon": 9.747084023689766, "website": "https://www.hfmdd.de/"}, {"name": "Hochschule f\u00fcr Musik und Darstellende Kunst Stuttgart", "country": "Germany", "lat": 51.82643313861605, "lon": 7.909991969396536, "website": "https://www.hmdk-stuttgart.de/"}, {"name": "Hochschule f\u00fcr K\u00fcnste Bremen", "country": "Germany", "lat": 49.536003946629684, "lon": 10.331534291668406, "website": "https://www.hfk-bremen.de/"}, {"name": "Hochschule f\u00fcr Musik und Theater \u201eFelix Mendelssohn Bartholdy\u201c Leipzig", "country": "Germany", "lat": 51.012178771992545, "lon": 10.105411628420843, "website": "https://www.hmt-leipzig.de/"}, {"name": "Hochschule f\u00fcr Musik, Theater und Medien Hannover", "country": "Germany", "lat": 49.641703789102706, "lon": 12.083505074790965, "website": "https://www.hmtm-hannover.de"}, {"name": "Hochschule f\u00fcr Musik Detmold", "country": "Germany", "lat": 52.70195127972272, "lon": 11.659613740939019, "website": "https://www.hfm-detmold.de/"}, {"name": "Deutsche Universit\u00e4t f\u00fcr Verwaltungswissenschaften Speyer", "country": "Germany", "lat": 49.64469103761104, "lon": 9.530861916809581, "website": "https://www.uni-speyer.de/"}, {"name": "Europa-Universit\u00e4t Viadrina", "country": "Germany", "lat": 50.54376856509546, "lon": 9.113849128273435, "website": "https://www.europa-uni.de"}, {"name": "Frankfurt School of Finance & Management", "country": "Germany", "lat": 48.64171161072398, "lon": 7.550776525751217, "website": "https://www.frankfurt-school.de/"}, {"name": "Hochschule f\u00fcr Fernsehen und Film M\u00fcnchen", "country": "Germany", "lat": 51.87907665197912, "lon": 9.604321134042472, "website": "https://www.hff-muenchen.de/"}, {"name": "IST-Hochschule fur Management", "country": "Germany", "lat": 50.97532044950266, "lon": 10.471219282181742, "website": "https://www.ist-hochschule.de/"}, {"name": "EBS Universit\u00e4t", "country": "Germany", "lat": 51.341326210349344, "lon": 8.145433845621007, "website": "https://www.ebs.edu/"}, {"name": "Hochschule RheinMain", "country": "Germany", "lat": 52.370138680276426, "lon": 11.930878485273443, "website": "https://www.hs-rm.de/"}, {"name": "Rosenheim University of Applied Sciences", "country": "Germany", "lat": 53.90115356004438, "lon": 12.318536997646962, "website": "https://th-rosenheim.de"}, {"name": "Karl-Schiller-Berufskolleg (KSBK)", "country": "Germany", "lat": 49.66243138282225, "lon": 9.925268370792303, "website": "http://www.ksbk-do.de/"}, {"name": "Westphalian University of Applied Sciences", "country": "Germany", "lat": 49.8037503892195, "lon": 8.21687772328941, "website": "https://www.w-hs.de/"}, {"name": "Technische Hochschule Ulm", "country": "Germany", "lat": 49.609945441626714, "lon": 9.824196053911955, "website": "https://www.thu.de/"}]