[{"name": "Arab Academy for Science & Technology", "country": "Egypt", "lat": 28.767361015129467, "lon": 31.512892208184, "website": "http://www.aast.edu/"}, {"name": "Akhbar El Yom Academy", "country": "Egypt", "lat": 26.722896523255713, "lon": 28.171321363897817, "website": "http://www.akhbaracademy.edu.eg/"}, {"name": "Alexandria University", "country": "Egypt", "lat": 24.94552924805884, "lon": 28.699956118622797, "website": "http://www.alex.edu.eg/"}, {"name": "Arab Open University", "country": "Egypt", "lat": 27.747191549018623, "lon": 29.534892688015066, "website": "http://www.aou.edu.eg/"}, {"name": "American University in Cairo", "country": "Egypt", "lat": 29.82047452626872, "lon": 31.613994860337495, "website": "http://www.aucegypt.edu/"}, {"name": "Assiut University", "country": "Egypt", "lat": 27.77921524595405, "lon": 29.237354893182996, "website": "http://www.aun.edu.eg/"}, {"name": "Al Azhar University", "country": "Egypt", "lat": 28.210749414471735, "lon": 31.882263103835847, "website": "http://www.azhar.edu.eg/"}, {"name": "Beni Suef University", "country": "Egypt", "lat": 28.32473120885041, "lon": 32.824236015636224, "website": "http://www.bsu.edu.eg/"}, {"name": "Benha University", "country": "Egypt", "lat": 28.242521034789007, "lon": 29.70105954941108, "website": "http://www.bu.edu.eg/"}, {"name": "Cairo University", "country": "Egypt", "lat": 29.54364954688331, "lon": 32.445494535555454, "website": "http://www.cu.edu.eg/"}, {"name": "Damanhour University", "country": "Egypt", "lat": 29.197585275666437, "lon": 28.440441519928687, "website": "http://www.damanhour.edu.eg/"}, {"name": "Damietta University", "country": "Egypt", "lat": 26.54409151318298, "lon": 32.56883799575951, "website": "http://www.du.edu.eg/"}, {"name": "El Shorouk Academy", "country": "Egypt", "lat": 24.958190673796857, "lon": 31.465231777235942, "website": "http://www.elshoroukacademy.edu.eg/"}, {"name": "Fayoum University", "country": "Egypt", "lat": 29.293930363720452, "lon": 32.24237836925083, "website": "http://www.fayoum.edu.eg/"}, {"name": "Future University", "country": "Egypt", "lat": 28.345550283417424, "lon": 28.288531449136674, "website": "http://www.futureuniversity.edu.eg/"}, {"name": "German University in Cairo", "country": "Egypt", "lat": 26.647626531814844, "lon": 28.50737838331479, "website": "http://www.guc.edu.eg/"}, {"name": "Helwan University", "country": "Egypt", "lat": 27.369282580152372, "lon": 32.128932877077055, "website": "http://www.helwan.edu.eg/"}, {"name": "Higher Technological Institute", "country": "Egypt", "lat": 29.76246760603881, "lon": 32.96356780855883, "website": "http://www.hti.edu.eg/"}, {"name": "Kafr El-Sheikh University", "country": "Egypt", "lat": 28.237660754094637, "lon": 31.05485895656429, "website": "http://www.kfs.edu.eg/"}, {"name": "Mansoura University", "country": "Egypt", "lat": 27.04829931696691, "lon": 29.006017309492602, "website": "http://www.mans.edu.eg/"}, {"name": "Menoufia University", "country": "Egypt", "lat": 24.021950585915384, "lon": 27.100201635895385, "website": "http://www.menofia.edu.eg/"}, {"name": "Minia University", "country": "Egypt", "lat": 27.445937254105605, "lon": 29.603917684731208, "website": "http://www.minia.edu.eg/"}, {"name": "Misr International University", "country": "Egypt", "lat": 26.900396599363617, "lon": 32.44536699670837, "website": "http://www.miuegypt.edu.eg/"}, {"name": "Modern Acadmy", "country": "Egypt", "lat": 27.34683830898121, "lon": 27.92566438032534, "website": "http://www.modern-academy.edu.eg/"}, {"name": "Modern Sciences & Arts University", "country": "Egypt", "lat": 29.226045035778824, "lon": 27.373627809225052, "website": "http://www.msa.eun.eg/"}, {"name": "Military Technical College", "country": "Egypt", "lat": 24.926380434159718, "lon": 32.87695620346613, "website": "http://www.mtc.edu.eg/"}, {"name": "Modern University For Technology and Information", "country": "Egypt", "lat": 27.274542377888878, "lon": 30.729649818333986, "website": "http://www.mti.edu.eg/"}, {"name": "Misr University for Sience and Technology", "country": "Egypt", "lat": 28.09110570124335, "lon": 28.513951939028985, "website": "http://www.must.edu.eg/"}, {"name": "Nile University", "country": "Egypt", "lat": 24.77660474946465, "lon": 32.07443726794414, "website": "http://www.nileu.edu.eg/"}, {"name": "October 6 university", "country": "Egypt", "lat": 28.21286291437614, "lon": 27.551216210532115, "website": "http://www.o6u.edu.eg/"}, {"name": "Pharos International University", "country": "Egypt", "lat": 27.233225206021174, "lon": 30.70668401458216, "website": "http://www.pua.edu.eg/"}, {"name": "Sadat Academy for Management Sciences", "country": "Egypt", "lat": 24.066507092260775, "lon": 27.281809824093358, "website": "http://www.sadatacademy.edu.eg/"}, {"name": "Ain Shams University", "country": "Egypt", "lat": 26.623337113707702, "lon": 27.85834109841202, "website": "https://www.asu.edu.eg/"}, {"name": "Sohag University", "country": "Egypt", "lat": 27.772833141028734, "lon": 29.829194739137474, "website": "http://www.sohag-univ.edu.eg/"}, {"name": "Sinai University", "country": "Egypt", "lat": 24.42319869322648, "lon": 32.781475891199406, "website": "http://www.su.edu.eg/"}, {"name": "Suez Canal University", "country": "Egypt", "lat": 24.273041538109467, "lon": 29.333384950355587, "website": "http://www.suez.edu.eg/"}, {"name": "South Valley University", "country": "Egypt", "lat": 29.01256112445421, "lon": 31.388747288417125, "website": "http://www.svu.edu.eg/"}, {"name": "Tanta University", "country": "Egypt", "lat": 27.936077761182126, "lon": 32.94724540966862, "website": "http://www.tanta.edu.eg/"}, {"name": "Universit\u00e9 Fran\u00e7aise d'\u00c9gypte", "country": "Egypt", "lat": 28.55653353032524, "lon": 28.23879756351099, "website": "http://www.ufe.edu.eg/"}, {"name": "Universit\u00e9 Senghor d'Alexandrie", "country": "Egypt", "lat": 26.56786927445286, "lon": 28.64373493219638, "website": "http://www.usenghor-francophonie.org/"}, {"name": "Zagazig University", "country": "Egypt", "lat": 26.078894127075667, "lon": 27.89476296430714, "website": "http://www.zu.edu.eg/"}, {"name": "CIC - Canadian International College", "country": "Egypt", "lat": 26.67130175253135, "lon": 27.467883227030168, "website": "http://cic-cairo.com/"}, {"name": "Deraya University", "country": "Egypt", "lat": 24.808506890536766, "lon": 32.21099350517794, "website": "https://deraya.edu.eg/"}, {"name": "Badr University in Cairo", "country": "Egypt", "lat": 25.641417869336678, "lon": 32.74446918718631, "website": "https://buc.edu.eg/"}]