[{"name": "IU Internationale Hochschule GmbH", "country": "Germany", "lat": 52.33087906387869, "lon": 13.412488378370416, "website": "https://www.iu-fernstudium.de/"}, {"name": "AKAD Hochschulen f\u00fcr Berufst\u00e4tige, Fachhochschule Leipzig", "country": "Germany", "lat": 51.49283081497193, "lon": 10.314801103841328, "website": "http://www.akad.de/"}, {"name": "Alice-Salomon-Fachhochschule f\u00fcr Sozialarbeit und Sozialp\u00e4dagogik Berlin", "country": "Germany", "lat": 50.27052591921981, "lon": 12.066078878396885, "website": "http://www.asfh-berlin.de/"}, {"name": "Augustana Hochschule Neuendettelsau", "country": "Germany", "lat": 51.564003541192264, "lon": 11.482677098528594, "website": "http://www.augustana.de/"}, {"name": "Kirchliche Hochschule Bethel", "country": "Germany", "lat": 49.41142369698489, "lon": 7.5814628885480415, "website": "http://www.bethel.de/"}, {"name": "BiTS - Business and Information Technology School gGmbH", "country": "Germany", "lat": 49.97637349686594, "lon": 10.622396122573567, "website": "http://www.bits-iserlohn.de/"}, {"name": "Cologne Business School", "country": "Germany", "lat": 50.566734164264496, "lon": 11.484153974293932, "website": "http://www.cbs.de/"}, {"name": "CODE University of Applied Sciences Berlin", "country": "Germany", "lat": 49.3786435570204, "lon": 8.229358343670599, "website": "http://code.berlin/"}, {"name": "Deutsche Hochschule f\u00fcr Verwaltungswissenschaften Speyer", "country": "Germany", "lat": 52.23278526435547, "lon": 8.90054966432682, "website": "http://www.dhv-speyer.de/"}, {"name": "DIPLOMA-Fachhochschule \u00d6lsnitz/Vogtland", "country": "Germany", "lat": 53.09405035112337, "lon": 10.436116897712049, "website": "http://www.diploma.de/"}, {"name": "Deutsche Sporthochschule K\u00f6ln", "country": "Germany", "lat": 52.01862345438351, "lon": 10.138437017418024, "website": "http://www.dshs-koeln.de/"}, {"name": "E.A.P. Europ\u00e4ische Wirtschaftshochschule Berlin", "country": "Germany", "lat": 52.724440124823836, "lon": 10.349948231935503, "website": "http://www.eap.net/"}, {"name": "Europ\u00e4ische Betriebswirtschafts-Akademie", "country": "Germany", "lat": 52.379556949394846, "lon": 9.811661018551975, "website": "http://www.eba-muenchen.de/"}, {"name": "European Business School Schlo\u00df Reichartshausen", "country": "Germany", "lat": 51.540607447731084, "lon": 11.258259353079282, "website": "http://www.ebs.de/"}, {"name": "European College of Liberal Arts", "country": "Germany", "lat": 50.36328871535838, "lon": 10.573266322768033, "website": "http://www.ecla.de/"}, {"name": "Evangelische Fachhochschule Rheinland-Westfalen-Lippe", "country": "Germany", "lat": 50.101193112546234, "lon": 9.752344834787111, "website": "http://www.efh-bochum.de/"}, {"name": "Evangelische Fachhochschule Darmstadt", "country": "Germany", "lat": 52.74417292655038, "lon": 10.857840220028486, "website": "https://www.eh-darmstadt.de/"}, {"name": "Evangelische Fachhochschule Freiburg, Hochschule f\u00fcr Soziale Arbeit, Diakonie und Religionsp\u00e4dagogik", "country": "Germany", "lat": 48.16901910205802, "lon": 10.004007087208903, "website": "http://www.efh-freiburg.de/"}, {"name": "Evangelische Fachhochschule Hannover", "country": "Germany", "lat": 52.96470950916485, "lon": 8.86791402585779, "website": "http://www.efh-hannover.de/"}, {"name": "Evangelische Fachhochschule Ludwigshafen Hochschule f\u00fcr Sozial- und Gesundheitswesen", "country": "Germany", "lat": 50.843304606917755, "lon": 13.22230402803892, "website": "http://www.efhlu.de/"}, {"name": "Evangelische Fachhochschule Reutlingen-Ludwigsburg, Hochschule f\u00fcr Soziale Arbeit, Religionsp\u00e4dagogik und Diakonie", "country": "Germany", "lat": 49.73712579575188, "lon": 8.904891962000507, "website": "http://www.efh-reutlingen-ludwigsburg.de/"}, {"name": "Evangelische Hochschule f\u00fcr Soziale Arbeit Dresden (FH)", "country": "Germany", "lat": 52.07949647703141, "lon": 8.939287519957256, "website": "http://www.ehs-dresden.de/"}, {"name": "European Management School", "country": "Germany", "lat": 52.07565241104274, "lon": 11.993929636926396, "website": "http://www.ems-mainz.de/"}, {"name": "Europ\u00e4ische Fachhochschule", "country": "Germany", "lat": 50.8406794558585, "lon": 11.777269784842417, "website": "http://www.eufh.de/"}, {"name": "Europa-Universit\u00e4t Viadrina Frankfurt (Oder)", "country": "Germany", "lat": 50.24466865081393, "lon": 11.621138148010353, "website": "http://www.euv-frankfurt-o.de/"}, {"name": "Evangelische Fachhochschule Berlin, Fachhochschule f\u00fcr Sozialarbeit und Sozialp\u00e4dagogik", "country": "Germany", "lat": 48.943808966748364, "lon": 9.616120640148772, "website": "http://www.evfh-berlin.de/"}, {"name": "Evangelische Fachhochschule N\u00fcrnberg", "country": "Germany", "lat": 52.920778062351225, "lon": 12.246076086698018, "website": "http://www.evfh-nuernberg.de/"}, {"name": "Fern-Fachhochschule Hamburg", "country": "Germany", "lat": 53.41340717617846, "lon": 10.891143844845063, "website": "http://www.fern-fh.de/"}, {"name": "Fernuniversit\u00e4t Gesamthochschule Hagen", "country": "Germany", "lat": 52.582491742382494, "lon": 7.467628358457315, "website": "http://www.fernuni-hagen.de/"}, {"name": "Fachhochschule Aachen", "country": "Germany", "lat": 49.168845966029366, "lon": 11.957108999931675, "website": "http://www.fh-aachen.de/"}, {"name": "Fachhochschule Aschaffenburg", "country": "Germany", "lat": 51.79955907163301, "lon": 12.116900281656768, "website": "http://www.fh-aschaffenburg.de/"}, {"name": "Technical University of Applied Sciences Augsburg", "country": "Germany", "lat": 50.14942763710866, "lon": 9.429491342983804, "website": "https://www.tha.de/"}, {"name": "Internationale Fachhochschule Bad Honnef", "country": "Germany", "lat": 53.67365808766139, "lon": 10.086607037740091, "website": "http://www.fh-bad-honnef.de/"}, {"name": "Fachhochschule Biberach, Hochschule f\u00fcr Bauwesen und Wirtschaft", "country": "Germany", "lat": 49.908350708545065, "lon": 9.311463074439827, "website": "http://www.fh-biberach.de/"}, {"name": "Fachhochschule Bielefeld", "country": "Germany", "lat": 53.072374543803136, "lon": 13.085441634954847, "website": "http://www.fh-bielefeld.de/"}, {"name": "Fachhochschule Bingen", "country": "Germany", "lat": 49.93257916333989, "lon": 11.142993926885046, "website": "http://www.fh-bingen.de/"}, {"name": "Fachhochschule Bochum", "country": "Germany", "lat": 49.61544915943087, "lon": 7.912500045279383, "website": "http://www.fh-bochum.de/"}, {"name": "Hochschule Bonn-Rhein-Sieg", "country": "Germany", "lat": 50.43419408139885, "lon": 11.368286009653405, "website": "http://www.hochschule-bonn-rhein-sieg.de/"}, {"name": "Fachhochschule Brandenburg", "country": "Germany", "lat": 53.795778232800956, "lon": 12.582149627281371, "website": "http://www.fh-brandenburg.de/"}, {"name": "Technische Hochschule Brandenburg", "country": "Germany", "lat": 49.71856260772685, "lon": 8.758983916067336, "website": "http://www.th-brandenburg.de/"}, {"name": "Technische Hochschule Deggendorf", "country": "Germany", "lat": 50.600431098628135, "lon": 8.790187816523197, "website": "http://www.th-deg.de/"}, {"name": "Fachhochschule Dortmund", "country": "Germany", "lat": 50.61898418606022, "lon": 8.37061436609026, "website": "http://www.fh-dortmund.de/"}, {"name": "Hochschule D\u00fcsseldorf", "country": "Germany", "lat": 53.468615254572924, "lon": 8.40202035911866, "website": "http://www.hs-duesseldorf.de/"}, {"name": "Fachhochschule f\u00fcr die Wirtschaft", "country": "Germany", "lat": 53.164558350823214, "lon": 10.34725734983399, "website": "http://www.fhdw.bib.de/"}, {"name": "Fachhochschule der Wirtschaft", "country": "Germany", "lat": 49.575465145322696, "lon": 10.232447396842709, "website": "http://www.fhdw.de/"}, {"name": "Fachhochschule Eberswalde", "country": "Germany", "lat": 51.591318320683605, "lon": 8.190057352532296, "website": "http://www.fh-eberswalde.de/"}, {"name": "Fachhochschule Erfurt", "country": "Germany", "lat": 48.40542075175722, "lon": 9.548201272098002, "website": "http://www.fh-erfurt.de/"}, {"name": "Fachhochschule Flensburg", "country": "Germany", "lat": 51.75431075609333, "lon": 11.328886821737612, "website": "http://www.fh-flensburg.de/"}, {"name": "Fachhochschule Frankfurt am Main", "country": "Germany", "lat": 51.55630503140109, "lon": 11.95797359864288, "website": "http://www.fh-frankfurt.de/"}, {"name": "Europa Fachhochschule Fresenius", "country": "Germany", "lat": 48.616191860214535, "lon": 8.93980713652648, "website": "http://www.fh-fresenius.de/"}, {"name": "Fachhochschule Furtwangen, Hochschule f\u00fcr Technik und Wirtschaft", "country": "Germany", "lat": 51.30203353319139, "lon": 8.543112603157411, "website": "http://www.fh-furtwangen.de/"}, {"name": "Fachhochschule Gelsenkirchen", "country": "Germany", "lat": 52.42706746931028, "lon": 12.9339262413297, "website": "http://www.fh-gelsenkirchen.de/"}, {"name": "Fachhochschule Gie\u00dfen-Friedberg", "country": "Germany", "lat": 49.77276083896724, "lon": 9.669474323497719, "website": "http://www.fh-giessen.de/"}, {"name": "Fachhochschule Hamburg", "country": "Germany", "lat": 53.323395207396274, "lon": 9.948633894088948, "website": "http://www.fh-hamburg.de/"}, {"name": "Hamburg University of Applied Sciences (HAW Hamburg)", "country": "Germany", "lat": 50.35590200307792, "lon": 7.813881108012163, "website": "https://haw-hamburg.de/"}, {"name": "Fachhochschule Hannover", "country": "Germany", "lat": 51.26703808128558, "lon": 7.489910981194761, "website": "http://www.fh-hannover.de/"}, {"name": "Fachhochschule Heidelberg", "country": "Germany", "lat": 48.651992272389045, "lon": 10.369004662913618, "website": "http://www.fh-heidelberg.de/"}, {"name": "Fachhochschule Heilbronn, Hochschule f\u00fcr Technik und Wirtschaft", "country": "Germany", "lat": 54.09517117177236, "lon": 10.945638672581516, "website": "http://www.fh-heilbronn.de/"}, {"name": "Fachhochschule Hildesheim/Holzminden/G\u00f6ttingen, Hochschule f\u00fcr angewandte Wissenschaft und Kunst", "country": "Germany", "lat": 51.56284466484237, "lon": 10.044692285274095, "website": "http://www.fh-hildesheim.de/"}, {"name": "Fachhochschule Hof", "country": "Germany", "lat": 51.500638068861775, "lon": 12.13927238883291, "website": "http://www.fh-hof.de/"}, {"name": "Technische Hochschule Ingolstadt", "country": "Germany", "lat": 53.760106781956615, "lon": 12.473844339843355, "website": "https://www.thi.de/"}, {"name": "Fachhochschule und Berufskollegs NTA, Prof.Dr. Gr\u00fcbler gemein. GmbH", "country": "Germany", "lat": 49.93428696226464, "lon": 9.203857972030235, "website": "http://www.fh-isny.de/"}, {"name": "Fachhochschule Jena", "country": "Germany", "lat": 49.64114250309862, "lon": 8.726556416233555, "website": "http://www.fh-jena.de/"}, {"name": "Fachhochschule Karlsruhe, Hochschule f\u00fcr Technik", "country": "Germany", "lat": 53.08204596624354, "lon": 12.357847169846448, "website": "http://www.fh-karlsruhe.de/"}, {"name": "Fachhochschule Kempten, Hochschule f\u00fcr Technik und Wirtschaft", "country": "Germany", "lat": 50.741598761830666, "lon": 12.343119717631645, "website": "http://www.fh-Kempten.de/"}, {"name": "Fachhochschule Kiel", "country": "Germany", "lat": 51.16956458463263, "lon": 10.206775787628539, "website": "http://www.fh-kiel.de/"}, {"name": "Fachhochschule Kaiserslautern", "country": "Germany", "lat": 50.418477394735255, "lon": 13.241592029500113, "website": "http://www.fh-kl.de/"}, {"name": "Fachhochschule Koblenz", "country": "Germany", "lat": 50.53572076973813, "lon": 10.27003594437489, "website": "http://www.fh-koblenz.de/"}, {"name": "Technische Hochschule K\u00f6ln", "country": "Germany", "lat": 52.034293539020645, "lon": 10.662407138549845, "website": "https://www.th-koeln.de/"}, {"name": "Fachhochschule Konstanz, Hochschule f\u00fcr Technik, Wirtschaft und Gestaltung", "country": "Germany", "lat": 52.822814560728915, "lon": 11.11472430448168, "website": "http://www.fh-konstanz.de/"}, {"name": "Staatlich anerkannte Fachhochschule f\u00fcr Kunsttherapie", "country": "Germany", "lat": 50.409135239463055, "lon": 11.05192778486581, "website": "http://www.fhkt.de/"}, {"name": "Fachhochschule Landshut, Hochschule f\u00fcr Wirtschaft - Sozialwesen - Technik", "country": "Germany", "lat": 52.03872441050671, "lon": 11.831154158697174, "website": "http://www.fh-landshut.de/"}, {"name": "Fachhochschule Lausitz", "country": "Germany", "lat": 48.95730220035206, "lon": 12.53037078411722, "website": "http://www.fh-lausitz.de/"}, {"name": "Fachhochschule Lippe", "country": "Germany", "lat": 50.56634940552307, "lon": 11.462668130329021, "website": "http://www.fh-lippe.de/"}, {"name": "Fachhochschule Ludwigshafen, Hochschule f\u00fcr Wirtschaft", "country": "Germany", "lat": 52.407678667696985, "lon": 7.630292665345619, "website": "http://www.fh-ludwigshafen.de/"}, {"name": "Fachhochschule L\u00fcbeck", "country": "Germany", "lat": 50.67746034653641, "lon": 13.320393881635118, "website": "http://www.fh-luebeck.de/"}, {"name": "Fachhochschule Mainz", "country": "Germany", "lat": 53.37077020193924, "lon": 10.183198255840601, "website": "http://www.fh-mainz.de/"}, {"name": "Fachhochschule Mannheim, Hochschule f\u00fcr Technik und Gestaltung", "country": "Germany", "lat": 48.721194406311106, "lon": 9.753519890955207, "website": "http://www.fh-mannheim.de/"}, {"name": "Fachhochschule Merseburg", "country": "Germany", "lat": 49.69007103566601, "lon": 7.544362192151895, "website": "http://www.fh-merseburg.de/"}, {"name": "Fachhochschule des Mittelstandes (FHM)", "country": "Germany", "lat": 49.124063061520424, "lon": 8.581392626838706, "website": "http://www.fhm-mittelstand.de/"}, {"name": "Fachhochschule M\u00fcnchen", "country": "Germany", "lat": 49.11921786483872, "lon": 8.183244305462788, "website": "http://www.fh-muenchen.de/"}, {"name": "Hochschule M\u00fcnchen", "country": "Germany", "lat": 48.65243455470007, "lon": 8.106200952743242, "website": "http://www.hm.edu/"}, {"name": "Fachhochschule M\u00fcnster", "country": "Germany", "lat": 51.99525114422288, "lon": 13.123818763572501, "website": "http://www.fh-muenster.de/"}, {"name": "Fachhochschule Neubrandenburg", "country": "Germany", "lat": 52.56002719130433, "lon": 8.175525288073295, "website": "http://www.fh-nb.de/"}, {"name": "Hochschule Neu-Ulm, Hochschule Neu-Ulm University of applied sciences", "country": "Germany", "lat": 51.81741834540336, "lon": 8.470744196008646, "website": "http://www.hs-neu-ulm.de/"}, {"name": "Fachhochschule Niederrhein", "country": "Germany", "lat": 54.018027855621916, "lon": 12.463045576623731, "website": "http://www.fh-niederrhein.de/"}, {"name": "Fachhochschule Nordostniedersachsen", "country": "Germany", "lat": 49.905111329225896, "lon": 10.046340049632297, "website": "http://www.fhnon.de/"}, {"name": "Fachhochschule Nordhausen", "country": "Germany", "lat": 53.96158898583436, "lon": 12.387747027509509, "website": "http://www.fh-nordhausen.de/"}, {"name": "Georg-Simon-Ohm-Fachhochschule N\u00fcrnberg", "country": "Germany", "lat": 53.35544600281692, "lon": 9.41583744188723, "website": "http://www.fh-nuernberg.de/"}, {"name": "Fachhochschule N\u00fcrtingen, Hochschule f\u00fcr Wirtschaft, Landwirtschaft und Landespflege", "country": "Germany", "lat": 50.27001651900387, "lon": 7.769377593279643, "website": "http://www.fh-nuertingen.de/"}, {"name": "Fachhochschule f\u00fcr das \u00f6ffentliche Bibliothekswesen Bonn", "country": "Germany", "lat": 50.04658027099157, "lon": 7.4827168203210075, "website": "http://www.fhoebb.de/"}, {"name": "Fachhochschule Offenburg, Hochschule f\u00fcr Technik und Wirtschaft", "country": "Germany", "lat": 48.525967448039644, "lon": 8.302906370924152, "website": "http://www.fh-offenburg.de/"}, {"name": "Fachhochschule Oldenburg/Ostfriesland/Wilhelmshaven", "country": "Germany", "lat": 51.15720074710487, "lon": 10.804690840956901, "website": "http://www.fh-oow.de/"}, {"name": "Fachhochschule Osnabr\u00fcck", "country": "Germany", "lat": 49.63353401553344, "lon": 10.649617160309049, "website": "http://www.fh-osnabrueck.de/"}, {"name": "Freie Kunst-Studienst\u00e4tte Ottersberg", "country": "Germany", "lat": 52.668308570348444, "lon": 13.009223982926983, "website": "http://www.fh-ottersberg.de/"}, {"name": "Fachhochschule Pforzheim, Hochschule f\u00fcr Gestaltung, Technik und Wirtschaft", "country": "Germany", "lat": 53.085983265537465, "lon": 8.419933077399167, "website": "http://www.fh-pforzheim.de/"}, {"name": "Fachhochschule Potsdam", "country": "Germany", "lat": 49.681041706660075, "lon": 13.346463753284294, "website": "http://www.fh-potsdam.de/"}, {"name": "Fachhochschule Regensburg", "country": "Germany", "lat": 52.10885033390718, "lon": 7.802780515091609, "website": "http://www.fh-regensburg.de/"}, {"name": "Fachhochschule Reutlingen, Hochschule f\u00fcr Technik und Wirtschaft", "country": "Germany", "lat": 49.93865786304196, "lon": 9.264565291506944, "website": "http://www.fh-reutlingen.de/"}, {"name": "Deutsch-Ordens Fachhochschule Riedlingen, Hochschule f\u00fcr Wirtschaft", "country": "Germany", "lat": 48.666166769098524, "lon": 10.388700383497376, "website": "http://www.fh-riedlingen.de/"}, {"name": "Fachhochschule Rosenheim, Hochschule f\u00fcr Technik und Wirtschaft", "country": "Germany", "lat": 51.6087410415967, "lon": 12.371422122342642, "website": "http://www.fh-rosenheim.de/"}, {"name": "Fachhochschule Rottenburg, Hochschule f\u00fcr Forstwirtschaft", "country": "Germany", "lat": 53.42586135580632, "lon": 9.540046517792703, "website": "http://www.fh-rottenburg.de/"}, {"name": "Fachhochschule Schmalkalden", "country": "Germany", "lat": 49.768933879829234, "lon": 9.222240838089306, "website": "http://www.fh-schmalkalden.de/"}, {"name": "Fachhochschule Schw\u00e4bisch Hall, Hochschule f\u00fcr Gestaltung", "country": "Germany", "lat": 50.24852719318632, "lon": 9.494087996811933, "website": "http://www.fh-schwaebischhall.de/"}, {"name": "Fachhochschule Mannheim, Hochschule f\u00fcr Sozialwesen", "country": "Germany", "lat": 48.276422543071, "lon": 11.859748465883847, "website": "http://www.fhs-mannheim.de/"}, {"name": "Evangelische Fachhochschule f\u00fcr Religionsp\u00e4dagogik, und Gemeindediakonie Moritzburg", "country": "Germany", "lat": 49.4982933429408, "lon": 8.051523752772788, "website": "http://www.fhs-moritzburg.de/"}, {"name": "Fachhochschule Stralsund", "country": "Germany", "lat": 51.49897457788832, "lon": 12.651214970720547, "website": "http://www.fh-stralsund.de/"}, {"name": "Deutsche Telekom Fachhochschule Leipzig", "country": "Germany", "lat": 48.32835727006191, "lon": 11.67424811973784, "website": "http://www.fh-telekom-leipzig.de/"}, {"name": "Fachhochschule Trier, Hochschule f\u00fcr Technik, Wirtschaft und Gestaltung", "country": "Germany", "lat": 49.80215223129594, "lon": 8.77689617818697, "website": "http://www.fh-trier.de/"}, {"name": "Fachhochschule Stuttgart, Hochschule f\u00fcr Technik", "country": "Germany", "lat": 53.24727632925303, "lon": 11.047824816158025, "website": "http://www.fht-stuttgart.de/"}, {"name": "Hochschule f\u00fcr Technik und Wirtschaft Berlin", "country": "Germany", "lat": 50.49680110899061, "lon": 11.961275471490836, "website": "https://www.htw-berlin.de/"}, {"name": "Hochschule Ulm, Hochschule f\u00fcr Angewandte Wissenschaft", "country": "Germany", "lat": 50.586985504985456, "lon": 8.383540102916985, "website": "http://www.hs-ulm.de/"}, {"name": "Fachhochschule f\u00fcr Verwaltung und Rechtspflege Berlin", "country": "Germany", "lat": 51.27085755674655, "lon": 11.755674243510073, "website": "http://www.fhvr.berlin.de/"}, {"name": "Fachhochschule f\u00fcr Wirtschaft Berlin", "country": "Germany", "lat": 52.77814019534335, "lon": 12.321144033957095, "website": "http://www.fhw-berlin.de/"}, {"name": "Fachhochschule Wedel", "country": "Germany", "lat": 49.27187285822658, "lon": 10.800534883042138, "website": "http://www.fh-wedel.de/"}, {"name": "Fachhochschule Weihenstephan", "country": "Germany", "lat": 50.79000385671179, "lon": 9.935081830060405, "website": "http://www.fh-weihenstephan.de/"}, {"name": "Fachhochschule Ravensburg-Weingarten", "country": "Germany", "lat": 50.973008183244495, "lon": 10.415620495186971, "website": "http://www.fh-weingarten.de/"}, {"name": "Fachhochschule Westk\u00fcste, Hochschule f\u00fcr Wirtschaft und Technik", "country": "Germany", "lat": 54.08749067691024, "lon": 12.435262861527491, "website": "http://www.fh-westkueste.de/"}, {"name": "Fachhochschule Wiesbaden", "country": "Germany", "lat": 52.29788887961228, "lon": 10.150493307993141, "website": "http://www.fh-wiesbaden.de/"}, {"name": "Ostfalia Hochschule f\u00fcr angewandte Wissenschaften", "country": "Germany", "lat": 48.57580540814716, "lon": 12.978963924389785, "website": "https://www.ostfalia.de/"}, {"name": "Fachhochschule Worms", "country": "Germany", "lat": 50.8759121366032, "lon": 10.164599766885207, "website": "http://www.fh-worms.de/"}, {"name": "Private Fachhochschule f\u00fcr Wirtschaft und Technik Vechta/Diepholz", "country": "Germany", "lat": 48.20800916888514, "lon": 11.822286435272822, "website": "http://www.fhwt.de/"}, {"name": "Fachhochschule W\u00fcrzburg - Schweinfurt", "country": "Germany", "lat": 52.32115515841216, "lon": 12.383863590837038, "website": "http://www.fh-wuerzburg.de/"}, {"name": "Wests\u00e4chsische Hochschule Zwickau (FH)", "country": "Germany", "lat": 54.043446689336434, "lon": 12.466522927669487, "website": "http://www.fh-zwickau.de/"}, {"name": "Fachhochschule f\u00fcr Oekonomie und Management (FOM)", "country": "Germany", "lat": 49.11234038594138, "lon": 8.475310443462554, "website": "http://www.fom.de/"}, {"name": "Freie Universit\u00e4t Berlin", "country": "Germany", "lat": 53.76007535528103, "lon": 8.826453865421067, "website": "http://www.fu-berlin.de/"}, {"name": "Private Hanseuniversit\u00e4t", "country": "Germany", "lat": 53.20059613279413, "lon": 8.129530361106976, "website": "http://www.hanseuni.de/"}, {"name": "Hafencity Universit\u00e4t Hamburg", "country": "Germany", "lat": 53.9394062510435, "lon": 12.321573051025275, "website": "http://www.hcu-hamburg.de/"}, {"name": "Fachhochschule Stuttgart, Hochschule der Medien", "country": "Germany", "lat": 52.204440649992236, "lon": 9.095542937705773, "website": "http://www.hdm-stuttgart.de/"}, {"name": "Hertie School of Governance", "country": "Germany", "lat": 51.88452298532127, "lon": 8.31199313294725, "website": "http://www.hertie-school.org/"}, {"name": "Hochschule f\u00fcr Bankwirtschaft (HfB), Private Fachhochschule der Bankakademie", "country": "Germany", "lat": 53.65516245423489, "lon": 11.668714987422327, "website": "http://www.hfb.de/"}, {"name": "Fachhochschule Schw\u00e4bisch Gm\u00fcnd, Hochschule f\u00fcr Gestaltung", "country": "Germany", "lat": 51.7093435673112, "lon": 12.450335501664487, "website": "http://www.hfg-gmuend.de/"}, {"name": "Hochschule f\u00fcr Philosophie M\u00fcnchen", "country": "Germany", "lat": 52.36997924173339, "lon": 11.441023802264567, "website": "http://www.hfph.mwn.de/"}, {"name": "Hochschule f\u00fcr Politik (HFP)", "country": "Germany", "lat": 52.08232001080764, "lon": 12.835292964375174, "website": "http://www.hfp.mhn.de/"}, {"name": "Handelshochschule Leipzig", "country": "Germany", "lat": 51.375919013774784, "lon": 10.991299126927531, "website": "http://www.hhl.de/"}, {"name": "Hochschule f\u00fcr Internationales Management", "country": "Germany", "lat": 50.30490241313508, "lon": 9.38669126281198, "website": "http://www.himh.de/"}, {"name": "Hochschule f\u00fcr J\u00fcdische Studien Heidelberg", "country": "Germany", "lat": 48.470991600184604, "lon": 10.66422438339207, "website": "http://www.hjs.uni-heidelberg.de/"}, {"name": "Hochschule Albstadt-Sigmaringen", "country": "Germany", "lat": 50.25650696140825, "lon": 10.105924616900992, "website": "http://www.hs-albsig.de/"}, {"name": "Hochschule Anhalt (FH), Hochschule f\u00fcr angewandte Wissenschaften", "country": "Germany", "lat": 53.97394339881204, "lon": 12.870735549387216, "website": "http://www.hs-anhalt.de/"}, {"name": "Hochschule Bremen", "country": "Germany", "lat": 51.61844120466491, "lon": 12.46876990435409, "website": "http://www.hs-bremen.de/"}, {"name": "Hochschule Bremerhaven", "country": "Germany", "lat": 50.0748777310455, "lon": 12.864288280819494, "website": "http://www.hs-bremerhaven.de/"}, {"name": "Hochschule Coburg", "country": "Germany", "lat": 50.37454545512028, "lon": 8.132708328022535, "website": "http://www.hs-coburg.de/"}, {"name": "Hochschule Darmstadt", "country": "Germany", "lat": 52.696476383647166, "lon": 8.762299579056627, "website": "https://www.h-da.de/"}, {"name": "Hochschule Esslingen", "country": "Germany", "lat": 51.545579039133706, "lon": 11.614507935752474, "website": "http://www.hs-esslingen.de/"}, {"name": "Hochschule Fulda", "country": "Germany", "lat": 49.491066094369195, "lon": 10.367897127991784, "website": "http://www.hs-fulda.de/"}, {"name": "Hochschule Harz, Hochschule f\u00fcr angewandte Wissenschaften (FH)", "country": "Germany", "lat": 53.39309942864107, "lon": 12.465590627144538, "website": "http://www.hs-harz.de/"}, {"name": "Hochschule Magdeburg-Stendal (FH)", "country": "Germany", "lat": 50.07674556456465, "lon": 13.133129172195932, "website": "http://www.hs-magdeburg.de/"}, {"name": "Hochschule Wismar, Fachhochschule f\u00fcr Technik, Wirtschaft und Gestaltung", "country": "Germany", "lat": 48.866291112980235, "lon": 8.816414093573751, "website": "http://www.hs-wismar.de/"}, {"name": "Hochschule Zittau/G\u00f6rlitz (FH)", "country": "Germany", "lat": 52.59205413057735, "lon": 13.2647958361867, "website": "http://www.hs-zigr.de/"}, {"name": "Hochschule f\u00fcr Technik und Wirtschaft Dresden (FH)", "country": "Germany", "lat": 48.30956567095258, "lon": 12.587227983991276, "website": "http://www.htw-dresden.de/"}, {"name": "Hochschule f\u00fcr Technik, Wirtschaft und Kultur Leipzig (FH)", "country": "Germany", "lat": 48.32067797453146, "lon": 9.523198980089807, "website": "http://www.htwk-leipzig.de/"}, {"name": "Hochschule Mittweida, University of Applied Sciences", "country": "Germany", "lat": 48.7300538392779, "lon": 13.282512433971048, "website": "http://www.htwm.de/"}, {"name": "Hochschule f\u00fcr Technik und Wirtschaft des Saarlandes", "country": "Germany", "lat": 51.457432245383146, "lon": 12.558011310465343, "website": "http://www.htw-saarland.de/"}, {"name": "Humboldt Universit\u00e4t Berlin", "country": "Germany", "lat": 48.96655889580791, "lon": 7.932370652101053, "website": "http://www.hu-berlin.de/"}, {"name": "HWP - Hamburger Universit\u00e4t f\u00fcr Wirtschaft und Politik", "country": "Germany", "lat": 49.199522369562146, "lon": 11.041687271255828, "website": "http://www.hwp-hamburg.de/"}, {"name": "Internationales Hochschulinstitut Zittau", "country": "Germany", "lat": 49.11115432279916, "lon": 12.46870589813819, "website": "http://www.ihi-zittau.de/"}, {"name": "Internationale Fachhochschule Aalen", "country": "Germany", "lat": 51.97007079270657, "lon": 9.837040984824892, "website": "http://www.international.fh-aalen.de/"}, {"name": "International School of Management ISM Dortmund", "country": "Germany", "lat": 53.31176839104444, "lon": 11.071813352946151, "website": "http://www.ism-dortmund.de/"}, {"name": "International School of New Media, University of L\u00fcbeck", "country": "Germany", "lat": 52.474157386141236, "lon": 10.48778669094913, "website": "http://www.isnm.de/"}, {"name": "International University in Germany", "country": "Germany", "lat": 50.708986346310894, "lon": 10.567921335580522, "website": "http://www.i-u.de/"}, {"name": "Jacobs University Bremen", "country": "Germany", "lat": 53.91365075839806, "lon": 7.597351067448372, "website": "http://www.jacobs-university.de/"}, {"name": "Karlshochschule International University", "country": "Germany", "lat": 51.46859112126585, "lon": 9.350494317161035, "website": "http://www.karlshochschule.de/"}, {"name": "Katholische Fachhochschule Norddeutschland", "country": "Germany", "lat": 53.892899475315545, "lon": 13.343974197953322, "website": "http://www.kath-fh-nord.de/"}, {"name": "Katholische Fachhochschule Berlin (KFB)", "country": "Germany", "lat": 51.96939958848757, "lon": 12.832774256640032, "website": "http://www.kfb-berlin.de/"}, {"name": "Katholische Fachhochschule Freiburg, Hochschule f\u00fcr Sozialwesen, Religionsp\u00e4dagogik und Pflege", "country": "Germany", "lat": 49.468966806341555, "lon": 9.923520909619931, "website": "http://www.kfh-Freiburg.de/"}, {"name": "Katholische Fachhochschule Mainz", "country": "Germany", "lat": 49.69756745300257, "lon": 9.372507872657195, "website": "http://www.kfh-mainz.de/"}, {"name": "Katholische Fachhochschule Nordrhein-Westfalen", "country": "Germany", "lat": 53.20854005965916, "lon": 8.560424443235052, "website": "http://www.kfhnw.de/"}, {"name": "Kunsthochschule Berlin-Weissensee, Hochschule f\u00fcr Gestaltung", "country": "Germany", "lat": 48.618085678702094, "lon": 7.859197855582796, "website": "http://www.kh-berlin.de/"}, {"name": "Katholische Hochschule f\u00fcr Soziale Arbeit Saarbr\u00fccken", "country": "Germany", "lat": 48.63101326327392, "lon": 9.814968960822965, "website": "http://www.khsa.de/"}, {"name": "Katholische Stiftungsfachhochschule M\u00fcnchen", "country": "Germany", "lat": 49.89254968110895, "lon": 8.36164403368798, "website": "http://www.ksfh.de/"}, {"name": "Katholische Universit\u00e4t Eichst\u00e4tt", "country": "Germany", "lat": 52.49818949995171, "lon": 10.006181935214357, "website": "http://www.ku-eichstaett.de/"}, {"name": "Kunstakademie D\u00fcsseldorf.", "country": "Germany", "lat": 52.45544979388428, "lon": 11.60484268209762, "website": "http://www.kunstakademie-duesseldorf.de/"}, {"name": "Merkur Internationale FH Karlsruhe", "country": "Germany", "lat": 52.8332377940948, "lon": 8.623250586237784, "website": "http://www.merkur-fh.org/"}, {"name": "Merz Akademie, Hochschule f\u00fcr Gestaltung Stuttgart", "country": "Germany", "lat": 48.407881018199404, "lon": 8.968512242210794, "website": "http://www.merz-akademie.de/"}, {"name": "M\u00e4rkische Fachhochschule Iserlohn", "country": "Germany", "lat": 53.89183104306232, "lon": 7.734578507102142, "website": "http://www.mfh-iserlohn.de/"}, {"name": "Medizinische Hochschule Hannover", "country": "Germany", "lat": 49.98278123266411, "lon": 9.994966380419978, "website": "http://www.mh-hannover.de/"}, {"name": "Staatliche Hochschule f\u00fcr Musik", "country": "Germany", "lat": 54.01669093482379, "lon": 8.674632806592543, "website": "http://www.mh-trossingen.de/"}, {"name": "Medizinische Universit\u00e4t L\u00fcbeck", "country": "Germany", "lat": 48.37845197440812, "lon": 10.35722474711678, "website": "http://www.mu-luebeck.de/"}, {"name": "Muthesius-Hochschule, Fachhochschule f\u00fcr Kunst und Gestaltung", "country": "Germany", "lat": 50.58806881900511, "lon": 11.97723871226571, "website": "http://www.muthesius.de/"}, {"name": "Nordakademie, Staatlich anerkannte private Fachhochschule mit dualen Studieng\u00e4ngen", "country": "Germany", "lat": 49.80211082978936, "lon": 11.11475245754923, "website": "http://www.nordakademie.de/"}, {"name": "Theologische Fakult\u00e4t Paderborn", "country": "Germany", "lat": 54.065801884068776, "lon": 10.676538993411892, "website": "http://www.paderborn.de/"}, {"name": "Private Fachhochschule G\u00f6ttingen", "country": "Germany", "lat": 53.85005947150626, "lon": 12.399976807308219, "website": "http://www.pfh-goettingen.de/"}, {"name": "P\u00e4dagogische Hochschule Erfurt/M\u00fchlhausen", "country": "Germany", "lat": 53.57989301918603, "lon": 11.260384453590536, "website": "http://www.ph-erfurt.de/"}, {"name": "P\u00e4dagogische Hochschule Freiburg", "country": "Germany", "lat": 48.6579675281573, "lon": 9.338716704584712, "website": "http://www.ph-freiburg.de/"}, {"name": "P\u00e4dagogische Hochschule Schw\u00e4bisch Gm\u00fcnd", "country": "Germany", "lat": 49.47300421726955, "lon": 10.141100691734628, "website": "http://www.ph-gmuend.de/"}, {"name": "P\u00e4dagogische Hochschule Heidelberg", "country": "Germany", "lat": 51.51349411572231, "lon": 12.62947222592576, "website": "http://www.ph-heidelberg.de/"}, {"name": "Philosophisch-Theologische Hochschule SVD Sankt Augustin", "country": "Germany", "lat": 53.94940157846652, "lon": 10.083314459268733, "website": "http://www.philtheol-augustin.de/"}, {"name": "P\u00e4dagogische Hochschule Karlsruhe", "country": "Germany", "lat": 53.311697466747304, "lon": 11.295704498418898, "website": "http://www.ph-karlsruhe.de/"}, {"name": "P\u00e4dagogische Hochschule Ludwigsburg", "country": "Germany", "lat": 53.03011686374764, "lon": 11.350611976603897, "website": "http://www.ph-ludwigsburg.de/"}, {"name": "P\u00e4dagogische Hochschule Weingarten", "country": "Germany", "lat": 50.51135483495582, "lon": 9.492588544964022, "website": "http://www.ph-weingarten.de/"}, {"name": "Popakademie Baden-W\u00fcrttemberg", "country": "Germany", "lat": 50.606581012312745, "lon": 12.95779369611995, "website": "http://www.popakademie.de/"}, {"name": "Private FernFachhochschule Darmstadt", "country": "Germany", "lat": 51.98829320988298, "lon": 8.521663159552377, "website": "http://www.privatfh-da.de/"}, {"name": "Philosophisch-Theologische Hochschule der Salesianer Don Boscos", "country": "Germany", "lat": 50.1771334212777, "lon": 10.975412718898315, "website": "http://www.pth-bb.de/"}, {"name": "Philosophisch-Theologische Hochschule M\u00fcnster", "country": "Germany", "lat": 48.3939010136148, "lon": 12.634699040591364, "website": "http://www.pth-muenster.de/"}, {"name": "Philosophisch-Theologische Hochschule Vallendar der Gesellschaft des Katholischen Apostolates (Pallottiner)", "country": "Germany", "lat": 51.818633374366, "lon": 8.274656667425306, "website": "http://www.pthv.de/"}, {"name": "Evangelische Fachhochschule f\u00fcr Sozialp\u00e4dagogik der \"Diakonenanstalt des Rauhen Hauses\" Hamburg", "country": "Germany", "lat": 51.23255034829016, "lon": 12.095898420145407, "website": "http://www.rauheshaus.de/"}, {"name": "Rheinische Fachhochschule K\u00f6ln", "country": "Germany", "lat": 53.88991496646028, "lon": 10.009487629611922, "website": "http://www.rfh-koeln.de/"}, {"name": "Ruhr-Universit\u00e4t Bochum", "country": "Germany", "lat": 48.73611718029196, "lon": 10.615083542670337, "website": "http://www.ruhr-uni-bochum.de/"}, {"name": "Rheinisch Westf\u00e4lische Technische Hochschule Aachen", "country": "Germany", "lat": 51.91498106964763, "lon": 8.731829049832337, "website": "http://www.rwth-aachen.de/"}, {"name": "Lutherische Theologische Hochschule Oberursel", "country": "Germany", "lat": 52.28357529027919, "lon": 8.619993123837656, "website": "http://www.selk.de/"}, {"name": "Gustav-Siewerth-Akademie", "country": "Germany", "lat": 53.71510372085014, "lon": 7.803564038973174, "website": "http://www.siewerth-akademie.de/"}, {"name": "Schiller International University, Heidelberg", "country": "Germany", "lat": 53.897117779480624, "lon": 12.670512312384165, "website": "http://www.siu-heidelberg.de/"}, {"name": "SRH University of Applied Sciences", "country": "Germany", "lat": 48.316234454523205, "lon": 8.574714671629078, "website": "http://www.srh-berlin.de/"}, {"name": "Philosophisch-Theologische Hochschule Sankt Georgen", "country": "Germany", "lat": 53.732320809347954, "lon": 10.194697890090673, "website": "http://www.st-georgen.uni-frankfurt.de/"}, {"name": "Steinbeis-Hochschule-Berlin", "country": "Germany", "lat": 53.256570096654364, "lon": 8.393548281102305, "website": "http://www.stw.de/"}, {"name": "Technische Fachhochschule Berlin", "country": "Germany", "lat": 51.21422053334612, "lon": 8.881978464009677, "website": "http://www.tfh-berlin.de/"}, {"name": "Technische Fachhochschule Georg Agricola f\u00fcr Rohstoff, Energie und, Umwelt zu Bochum", "country": "Germany", "lat": 48.23319944010427, "lon": 11.383400401517966, "website": "http://www.tfh-bochum.de/"}, {"name": "Technische Fachhochschule Wildau", "country": "Germany", "lat": 51.35019466057691, "lon": 11.754347150598264, "website": "http://www.tfh-wildau.de/"}, {"name": "Theologische Hochschule Friedensau", "country": "Germany", "lat": 53.530361919543324, "lon": 10.20046614191723, "website": "http://www.thh-friedensau.de/"}, {"name": "Tier\u00e4rztliche Hochschule Hannover", "country": "Germany", "lat": 51.38011200453799, "lon": 12.194287764794357, "website": "http://www.tiho-hannover.de/"}, {"name": "Technische Universit\u00e4t Berlin", "country": "Germany", "lat": 53.74586457008755, "lon": 7.762092701910727, "website": "http://www.tu-berlin.de/"}, {"name": "Technische Universit\u00e4t Carolo-Wilhelmina zu Braunschweig", "country": "Germany", "lat": 48.98530616593253, "lon": 8.664237434962917, "website": "https://www.tu-braunschweig.de/"}, {"name": "Technische Universit\u00e4t Chemnitz", "country": "Germany", "lat": 49.4065820993941, "lon": 9.976383887935086, "website": "http://www.tu-chemnitz.de/"}, {"name": "Technische Universit\u00e4t Clausthal", "country": "Germany", "lat": 52.500189193249184, "lon": 8.943014612466802, "website": "http://www.tu-clausthal.de/"}, {"name": "Brandenburgische Technische Universit\u00e4t Cottbus", "country": "Germany", "lat": 50.83947029624581, "lon": 8.796632859241845, "website": "http://www.tu-cottbus.de/"}, {"name": "Technische Universit\u00e4t Darmstadt", "country": "Germany", "lat": 52.555252728358205, "lon": 7.8950343186913186, "website": "https://www.tu-darmstadt.de/"}, {"name": "Technische Universit\u00e4t Dresden", "country": "Germany", "lat": 51.755988169483764, "lon": 12.68802584614561, "website": "http://www.tu-dresden.de/"}, {"name": "Technische Universit\u00e4t Bergakademie Freiberg", "country": "Germany", "lat": 50.605558067726754, "lon": 13.44366631724742, "website": "http://www.tu-freiberg.de/"}, {"name": "Technische Universit\u00e4t Hamburg", "country": "Germany", "lat": 50.775259735152666, "lon": 12.58102804019294, "website": "http://www.tuhh.de/"}, {"name": "Technische Universit\u00e4t Ilmenau", "country": "Germany", "lat": 52.00441849110968, "lon": 11.001044497573485, "website": "http://www.tu-ilmenau.de/"}, {"name": "Technische Universit\u00e4t M\u00fcnchen", "country": "Germany", "lat": 53.337632807044244, "lon": 11.057581644232954, "website": "http://www.tum.de/"}, {"name": "Universit\u00e4t Augsburg", "country": "Germany", "lat": 53.59062692274002, "lon": 10.041983738352329, "website": "http://www.uni-augsburg.de/"}, {"name": "Otto-Friedrich Universit\u00e4t Bamberg", "country": "Germany", "lat": 52.68420578175757, "lon": 12.89788274661503, "website": "http://www.uni-bamberg.de/"}, {"name": "Universit\u00e4t Bayreuth", "country": "Germany", "lat": 52.04668388992393, "lon": 9.312747827610892, "website": "http://www.uni-bayreuth.de/"}, {"name": "Universit\u00e4t Bielefeld", "country": "Germany", "lat": 52.032020998225335, "lon": 11.5196493465682, "website": "http://www.uni-bielefeld.de/"}, {"name": "Rheinische Friedrich-Wilhelms Universit\u00e4t Bonn", "country": "Germany", "lat": 52.63204143947442, "lon": 13.289758857737727, "website": "http://www.uni-bonn.de/"}, {"name": "Universit\u00e4t Bremen", "country": "Germany", "lat": 53.450561113553235, "lon": 9.579197103158183, "website": "http://www.uni-bremen.de/"}, {"name": "Universit\u00e4t der Bundeswehr Hamburg", "country": "Germany", "lat": 48.36233508098625, "lon": 11.256592563482704, "website": "http://www.unibw-hamburg.de/"}, {"name": "Universit\u00e4t der Bundeswehr M\u00fcnchen", "country": "Germany", "lat": 48.543175370257835, "lon": 10.908204178879748, "website": "http://www.unibw-muenchen.de/"}, {"name": "Technische Universit\u00e4t Dortmund", "country": "Germany", "lat": 49.76878300395504, "lon": 12.525416133104724, "website": "http://www.tu-dortmund.de/"}, {"name": "Heinrich-Heine Universit\u00e4t D\u00fcsseldorf", "country": "Germany", "lat": 53.287053202988666, "lon": 13.064002387360311, "website": "http://www.uni-duesseldorf.de/"}, {"name": "Universit\u00e4t Duisburg-Essen", "country": "Germany", "lat": 51.026472817073845, "lon": 10.088123295704722, "website": "http://www.uni-duisburg-essen.de/"}, {"name": "Universit\u00e4t Erfurt", "country": "Germany", "lat": 49.1247732164699, "lon": 10.831517122383888, "website": "http://www.uni-erfurt.de/"}, {"name": "Friedrich-Alexander Universit\u00e4t Erlangen-N\u00fcrnberg", "country": "Germany", "lat": 51.0049372968572, "lon": 9.291677894345183, "website": "https://www.fau.de/"}, {"name": "Universit\u00e4t Flensburg", "country": "Germany", "lat": 53.032848365612224, "lon": 11.002462488142891, "website": "http://www.uni-flensburg.de/"}, {"name": "Johann Wolfgang Goethe Universit\u00e4t Frankfurt am Main", "country": "Germany", "lat": 49.75327316406981, "lon": 10.069616668477298, "website": "http://www.uni-frankfurt.de/"}, {"name": "Albert-Ludwigs-Universit\u00e4t Freiburg", "country": "Germany", "lat": 53.07577682983007, "lon": 9.092644106243272, "website": "http://www.uni-freiburg.de/"}, {"name": "Justus Liebig Universit\u00e4t Gie\u00dfen", "country": "Germany", "lat": 50.73752344, "lon": 10.755512377640628, "website": "http://www.uni-giessen.de/"}, {"name": "Georg-August Universit\u00e4t G\u00f6ttingen", "country": "Germany", "lat": 51.795229382275124, "lon": 10.789149825153803, "website": "http://www.uni-goettingen.de/"}, {"name": "Ernst-Moritz-Arndt Universit\u00e4t Greifswald", "country": "Germany", "lat": 48.688709700510465, "lon": 11.034575777897889, "website": "http://www.uni-greifswald.de/"}, {"name": "Martin-Luther Universit\u00e4t Halle-Wittenberg", "country": "Germany", "lat": 50.20520088169483, "lon": 9.450753902161086, "website": "http://www.uni-halle.de/"}, {"name": "Universit\u00e4t Hamburg", "country": "Germany", "lat": 52.74011147023806, "lon": 12.035835109872185, "website": "http://www.uni-hamburg.de/"}, {"name": "Universit\u00e4t Hannover", "country": "Germany", "lat": 53.73049596962305, "lon": 11.72354078501274, "website": "http://www.uni-hannover.de/"}, {"name": "Ruprecht-Karls-Universit\u00e4t Heidelberg", "country": "Germany", "lat": 50.26604654229948, "lon": 9.61759156167896, "website": "http://www.uni-heidelberg.de/"}, {"name": "Universit\u00e4t Hildesheim", "country": "Germany", "lat": 48.863431210901204, "lon": 8.734021269290082, "website": "http://www.uni-hildesheim.de/"}, {"name": "Universit\u00e4t Hohenheim", "country": "Germany", "lat": 52.29669493326844, "lon": 9.830880164574316, "website": "http://www.uni-hohenheim.de/"}, {"name": "Friedrich-Schiller Universit\u00e4t Jena", "country": "Germany", "lat": 50.52296782385517, "lon": 12.315728704575292, "website": "http://www.uni-jena.de/"}, {"name": "Karlsruher Institut f\u00fcr Technologie", "country": "Germany", "lat": 52.80018321884113, "lon": 12.384596364536247, "website": "http://www.kit.edu/"}, {"name": "Universit\u00e4t Kassel", "country": "Germany", "lat": 50.53782884431065, "lon": 8.158128956449792, "website": "http://www.uni-kassel.de/"}, {"name": "Christian-Albrechts-Universit\u00e4t Kiel", "country": "Germany", "lat": 51.06295372483361, "lon": 8.234299405135133, "website": "http://www.uni-kiel.de/"}, {"name": "Universit\u00e4t Kaiserslautern", "country": "Germany", "lat": 52.754750714336666, "lon": 7.865844838403891, "website": "http://www.uni-kl.de/"}, {"name": "Universit\u00e4t Koblenz-Landau", "country": "Germany", "lat": 49.1099894863273, "lon": 12.856558541458242, "website": "http://www.uni-koblenz-landau.de/"}, {"name": "Universit\u00e4t K\u00f6ln", "country": "Germany", "lat": 48.894617423154024, "lon": 13.202748111585898, "website": "http://www.uni-koeln.de/"}, {"name": "Universit\u00e4t Konstanz", "country": "Germany", "lat": 52.32659661608748, "lon": 12.054871648307937, "website": "http://www.uni-konstanz.de/"}, {"name": "Universit\u00e4t Leipzig", "country": "Germany", "lat": 51.4263444798694, "lon": 10.915932729652628, "website": "http://www.uni-leipzig.de/"}, {"name": "Universit\u00e4t L\u00fcneburg", "country": "Germany", "lat": 53.55533567230504, "lon": 7.793697995828713, "website": "http://www.uni-lueneburg.de/"}, {"name": "Otto-von-Guericke Universit\u00e4t Magdeburg", "country": "Germany", "lat": 50.13046410707376, "lon": 13.309651477808371, "website": "http://www.uni-magdeburg.de/"}, {"name": "Johannes-Gutenberg Universit\u00e4t Mainz", "country": "Germany", "lat": 50.4859456741847, "lon": 12.529728123524738, "website": "http://www.uni-mainz.de/"}, {"name": "Universit\u00e4t Mannheim", "country": "Germany", "lat": 52.65469753944328, "lon": 8.59217241246837, "website": "http://www.uni-mannheim.de/"}, {"name": "Phillips-Universit\u00e4t Marburg", "country": "Germany", "lat": 50.90501328658245, "lon": 8.043190342934043, "website": "http://www.uni-marburg.de/"}, {"name": "Ludwig-Maximilians-Universit\u00e4t M\u00fcnchen", "country": "Germany", "lat": 52.53995231623964, "lon": 11.738154477820727, "website": "http://www.lmu.de/"}, {"name": "Westf\u00e4lische Wilhelms-Universit\u00e4t M\u00fcnster", "country": "Germany", "lat": 48.28596474653279, "lon": 10.295642625991405, "website": "http://www.uni-muenster.de/"}, {"name": "Carl von Ossietzky Universit\u00e4t Oldenburg", "country": "Germany", "lat": 50.732682871603835, "lon": 11.920457803923643, "website": "https://uol.de/"}, {"name": "Universit\u00e4t Osnabr\u00fcck", "country": "Germany", "lat": 50.777145155578275, "lon": 10.677958350541257, "website": "http://www.uni-osnabrueck.de/"}, {"name": "Universit\u00e4t Paderborn", "country": "Germany", "lat": 48.3594854746168, "lon": 8.124989072328002, "website": "http://www.uni-paderborn.de/"}, {"name": "Universit\u00e4t Passau", "country": "Germany", "lat": 50.398577489378475, "lon": 11.21521307527539, "website": "http://www.uni-passau.de/"}, {"name": "Universit\u00e4t Potsdam", "country": "Germany", "lat": 48.542060622659676, "lon": 8.332059300742326, "website": "http://www.uni-potsdam.de/"}, {"name": "Universit\u00e4t Regensburg", "country": "Germany", "lat": 51.9445803774698, "lon": 12.968860419179654, "website": "http://www.uni-regensburg.de/"}, {"name": "Universit\u00e4t Rostock", "country": "Germany", "lat": 54.11846610941189, "lon": 12.280680639478891, "website": "http://www.uni-rostock.de/"}, {"name": "Universit\u00e4t des Saarlandes", "country": "Germany", "lat": 54.10081718766812, "lon": 11.610127226158435, "website": "http://www.uni-saarland.de/"}, {"name": "Universit\u00e4t Siegen", "country": "Germany", "lat": 50.713121841934225, "lon": 10.658849561552154, "website": "http://www.uni-siegen.de/"}, {"name": "Universit\u00e4t Stuttgart", "country": "Germany", "lat": 49.078625103001336, "lon": 9.351594736639552, "website": "http://www.uni-stuttgart.de/"}, {"name": "Universit\u00e4t Trier", "country": "Germany", "lat": 49.168356336684624, "lon": 12.077051819521403, "website": "http://www.uni-trier.de/"}, {"name": "Eberhard-Karls-Universit\u00e4t T\u00fcbingen", "country": "Germany", "lat": 54.02446393515123, "lon": 10.729501763857709, "website": "http://www.uni-tuebingen.de/"}, {"name": "Universit\u00e4t Ulm", "country": "Germany", "lat": 49.76998568490617, "lon": 11.049029319359757, "website": "http://www.uni-ulm.de/"}, {"name": "Hochschule Vechta", "country": "Germany", "lat": 53.39028842417019, "lon": 8.699837348907357, "website": "http://www.uni-vechta.de/"}, {"name": "Bauhaus Universit\u00e4t Weimar", "country": "Germany", "lat": 48.76036675969041, "lon": 10.383829786803286, "website": "http://www.uni-weimar.de/"}, {"name": "Private Universit\u00e4t Witten/Herdecke", "country": "Germany", "lat": 49.417925352964424, "lon": 7.7051213881601734, "website": "http://www.uni-wh.de/"}, {"name": "Bayerische Julius-Maximilians-Universit\u00e4t W\u00fcrzburg", "country": "Germany", "lat": 48.49990003610316, "lon": 13.151131192971945, "website": "http://www.uni-wuerzburg.de/"}, {"name": "Bergische Universit\u00e4t Gesamthochschule Wuppertal", "country": "Germany", "lat": 51.48497060842686, "lon": 8.299613122234069, "website": "http://www.uni-wuppertal.de/"}, {"name": "WHU \u2013 Otto Beisheim School of Management", "country": "Germany", "lat": 48.40627478484228, "lon": 12.50140368256982, "website": "https://www.whu.edu/"}, {"name": "Duale Hochschule Baden-W\u00fcrttemberg", "country": "Germany", "lat": 52.881505081557435, "lon": 11.625920788023178, "website": "http://www.dhbw.de/"}, {"name": "Duale Hochschule Baden-W\u00fcrttemberg Heidenheim", "country": "Germany", "lat": 53.2532203850055, "lon": 7.895519760213944, "website": "http://www.heidenheim.dhbw.de/"}, {"name": "Duale Hochschule Baden-W\u00fcrttemberg Center for Advanced Studies (CAS)", "country": "Germany", "lat": 52.54447767120472, "lon": 10.860001223968528, "website": "http://www.cas.dhbw.de/"}, {"name": "Duale Hochschule Baden-W\u00fcrttemberg L\u00f6rrach", "country": "Germany", "lat": 50.01185750128446, "lon": 9.631096485800473, "website": "http://www.dhbw-loerrach.de/"}, {"name": "Duale Hochschule Baden-W\u00fcrttemberg Mosbach", "country": "Germany", "lat": 48.29273475745206, "lon": 10.885921905357044, "website": "http://www.dhbw-mosbach.de/"}, {"name": "Duale Hochschule Baden-W\u00fcrttemberg Ravensburg", "country": "Germany", "lat": 50.744503513662316, "lon": 8.252871466767717, "website": "http://www.ravensburg.dhbw.de/"}, {"name": "Duale Hochschule Baden-W\u00fcrttemberg Stuttgart", "country": "Germany", "lat": 49.049134891738426, "lon": 10.564247898440302, "website": "http://www.dhbw-stuttgart.de/"}, {"name": "Duale Hochschule Baden-W\u00fcrttemberg Villingen-Schwenningen", "country": "Germany", "lat": 50.69782658014052, "lon": 12.576988652596295, "website": "http://www.dhbw-vs.de/"}, {"name": "Duale Hochschule Baden-W\u00fcrttemberg Heilbronn", "country": "Germany", "lat": 53.56260308126157, "lon": 8.009354563570632, "website": "http://www.heilbronn.dhbw.de/"}, {"name": "Duale Hochschule Baden-W\u00fcrttemberg Karlsruhe", "country": "Germany", "lat": 50.4781307758521, "lon": 8.694019360016899, "website": "http://www.dhbw-karlsruhe.de/"}, {"name": "Duale Hochschule Baden-Wuerttemberg Mannheim", "country": "Germany", "lat": 49.65151765325915, "lon": 12.260453346531193, "website": "http://www.dhbw-mannheim.de/"}, {"name": "Hochschule Hannover", "country": "Germany", "lat": 48.31652633305385, "lon": 12.435572154659809, "website": "https://www.hs-hannover.de/"}, {"name": "Staatliche Studienakademie Bautzen", "country": "Germany", "lat": 50.53551209846361, "lon": 8.327380363926604, "website": "https://www.ba-bautzen.de/"}, {"name": "Technische Hochschule Mittelhessen", "country": "Germany", "lat": 52.046356228353865, "lon": 9.475209123517736, "website": "https://www.thm.de/"}, {"name": "Hochschule f\u00fcr Wirtschaft und Gesellschaft Ludwigshafen", "country": "Germany", "lat": 49.05353949484735, "lon": 8.466777415749283, "website": "https://www.hwg-lu.de/"}, {"name": "Leuphana Universit\u00e4t L\u00fcneburg", "country": "Germany", "lat": 49.3991917999362, "lon": 12.157831776309639, "website": "https://www.leuphana.de/"}, {"name": "Ostbayerische Technische Hochschule Amberg-Weiden", "country": "Germany", "lat": 52.02936418207794, "lon": 8.060220414739707, "website": "https://www.oth-aw.de/"}, {"name": "Musikhochschule L\u00fcbeck", "country": "Germany", "lat": 48.50585006578637, "lon": 10.015025241266386, "website": "https://www.mh-luebeck.de/"}, {"name": "Hochschule f\u00fcr Musik und Theater M\u00fcnchen", "country": "Germany", "lat": 51.002184222922814, "lon": 11.249130659401903, "website": "https://website.musikhochschule-muenchen.de/"}, {"name": "Universit\u00e4t der K\u00fcnste Berlin", "country": "Germany", "lat": 52.11562008551963, "lon": 7.65504941566756, "website": "https://www.udk-berlin.de/"}, {"name": "Hochschule f\u00fcr Musik und Tanz K\u00f6ln", "country": "Germany", "lat": 52.32576676482303, "lon": 9.265779297184364, "website": "https://www.hfmt-koeln.de/"}, {"name": "Hochschule f\u00fcr Musik Carl Maria von Weber", "country": "Germany", "lat": 50.009627941421854, "lon": 8.804677008188015, "website": "https://www.hfmdd.de/"}, {"name": "Hochschule f\u00fcr Musik und Darstellende Kunst Stuttgart", "country": "Germany", "lat": 52.991541662945856, "lon": 10.482669629315833, "website": "https://www.hmdk-stuttgart.de/"}, {"name": "Hochschule f\u00fcr K\u00fcnste Bremen", "country": "Germany", "lat": 51.84246084864628, "lon": 13.140208736566278, "website": "https://www.hfk-bremen.de/"}, {"name": "Hochschule f\u00fcr Musik und Theater \u201eFelix Mendelssohn Bartholdy\u201c Leipzig", "country": "Germany", "lat": 50.36886094159775, "lon": 8.871982379618338, "website": "https://www.hmt-leipzig.de/"}, {"name": "Hochschule f\u00fcr Musik, Theater und Medien Hannover", "country": "Germany", "lat": 54.04567833189134, "lon": 7.669928585332199, "website": "https://www.hmtm-hannover.de/"}, {"name": "Hochschule f\u00fcr Musik Detmold", "country": "Germany", "lat": 53.50730598711805, "lon": 11.481823270441195, "website": "https://www.hfm-detmold.de/"}, {"name": "Deutsche Universit\u00e4t f\u00fcr Verwaltungswissenschaften Speyer", "country": "Germany", "lat": 52.95927507761437, "lon": 12.212750512192404, "website": "https://www.uni-speyer.de/"}, {"name": "Europa-Universit\u00e4t Viadrina", "country": "Germany", "lat": 49.853268332699244, "lon": 8.136163129759238, "website": "https://www.europa-uni.de/"}, {"name": "Frankfurt School of Finance & Management", "country": "Germany", "lat": 48.92228485651594, "lon": 7.585892987610242, "website": "https://www.frankfurt-school.de/"}, {"name": "Hochschule f\u00fcr Fernsehen und Film M\u00fcnchen", "country": "Germany", "lat": 53.65792423725749, "lon": 12.756744454133003, "website": "https://www.hff-muenchen.de/"}, {"name": "IST-Hochschule fur Management", "country": "Germany", "lat": 51.01580247901469, "lon": 10.973052856345642, "website": "https://www.ist-hochschule.de/"}, {"name": "EBS Universit\u00e4t", "country": "Germany", "lat": 51.097077108602456, "lon": 8.279398517291508, "website": "https://www.ebs.edu/"}, {"name": "Hochschule RheinMain", "country": "Germany", "lat": 52.0935717728777, "lon": 8.182453145991724, "website": "https://www.hs-rm.de/"}, {"name": "Rosenheim University of Applied Sciences", "country": "Germany", "lat": 51.245358538051576, "lon": 8.775285455333986, "website": "https://th-rosenheim.de/"}, {"name": "Karl-Schiller-Berufskolleg (KSBK)", "country": "Germany", "lat": 52.89188241036475, "lon": 7.634797600831057, "website": "http://www.ksbk-do.de/"}, {"name": "Westphalian University of Applied Sciences", "country": "Germany", "lat": 49.30599562649367, "lon": 10.879176012088806, "website": "https://www.w-hs.de/"}, {"name": "Technische Hochschule Ulm", "country": "Germany", "lat": 53.49114042293487, "lon": 11.301372810835908, "website": "https://www.thu.de/"}, {"name": "Brandenburg University of Technology Cottbus - Senftenberg", "country": "Germany", "lat": 53.2948608331413, "lon": 9.658053585285595, "website": "https://www.b-tu.de/"}]