[
  {
    "name": "Funda\u00e7\u00e3o Herm\u00ednio Ometto",
    "country": "Brazil",
    "lat": 50.51432809778592,
    "lon": 10.573725669612696,
    "website": "https://www.fho.edu.br/"
  },
  {
    "name": "Hellenic College of Noah",
    "country": "Greece",
    "lat": 50.72952043781331,
    "lon": 9.947754101980518,
    "website": "https://noah.edu.gr/"
  },
  {
    "name": "Antonio Nari\u00f1o University",
    "country": "Colombia",
    "lat": 50.733134013243465,
    "lon": 9.732107970418935,
    "website": "https://uan.edu.co/"
  },
  {
    "name": "Engineering Institute of Technology",
    "country": "Australia",
    "lat": 52.143358627571,
    "lon": 10.05960365140075,
    "website": "https://www.eit.edu.au/"
  },
  {
    "name": "Universitas Nusa Putra",
    "country": "Indonesia",
    "lat": 51.87281103579496,
    "lon": 9.696639332755808,
    "website": "https://nusaputra.ac.id/"
  },
  {
    "name": "Regent University College of Science and Technology",
    "country": "Ghana",
    "lat": 51.01637089895791,
    "lon": 10.016297821819915,
    "website": "https://regent.edu.gh/"
  },
  {
    "name": "Wroclaw Akademia Biznesu",
    "country": "Poland",
    "lat": 51.55127860069986,
    "lon": 10.160592355274378,
    "website": "https://wab.edu.pl/"
  },
  {
    "name": "Atharva College of Engineering",
    "country": "India",
    "lat": 52.192318871575054,
    "lon": 10.738643430946166,
    "website": "https://atharvacoe.ac.in/"
  },
  {
    "name": "Toronto Baptist Seminary and Bible College",
    "country": "Canada",
    "lat": 51.18543965429739,
    "lon": 9.751848173556514,
    "website": "https://tbs.edu/"
  },
  {
    "name": "Universidade Comunit\u00e1ria da Regi\u00e3o de Chapec\u00f3 - Unochapec\u00f3",
    "country": "Brazil",
    "lat": 52.45705501245409,
    "lon": 9.768963297142188,
    "website": "https://unochapeco.edu.br/"
  },
  {
    "name": "West Herts College",
    "country": "United Kingdom",
    "lat": 52.076956411182266,
    "lon": 10.723470230675106,
    "website": "https://westherts.ac.uk/"
  },
  {
    "name": "Bhagwan Parshuram Institute of Technology",
    "country": "India",
    "lat": 51.850339683319135,
    "lon": 9.17056437779021,
    "website": "http://bpitindia.ac.in/"
  },
  {
    "name": "National Institute of Applied Sciences of Toulouse",
    "country": "France",
    "lat": 51.95723866312861,
    "lon": 10.386216402543887,
    "website": "https://insa-toulouse.fr/"
  },
  {
    "name": "Bugema University",
    "country": "Uganda",
    "lat": 51.59241981087599,
    "lon": 10.807623490806826,
    "website": "https://bugemauniv.ac.ug/"
  },
  {
    "name": "Mohamed bin Zayed University of Artificial Intelligence (MBZUAI)",
    "country": "United Arab Emirates",
    "lat": 51.97601458450624,
    "lon": 10.759122041375385,
    "website": "https://mbzuai.ac.ae/"
  },
  {
    "name": "Centro Universit\u00e1rio de Bras\u00edlia, UNICEUB",
    "country": "Brazil",
    "lat": 51.44650604573158,
    "lon": 9.316387801913818,
    "website": "https://www.uniceub.br/"
  },
  {
    "name": "Kharkiv National University",
    "country": "Ukraine",
    "lat": 51.19533694491093,
    "lon": 10.812770335228585,
    "website": "https://karazin.ua/"
  },
  {
    "name": "Universidad T\u00e9cnica Federico Santa Mar\u00eda",
    "country": "Chile",
    "lat": 50.623437551222864,
    "lon": 9.263670220273786,
    "website": "https://usm.cl/"
  },
  {
    "name": "I\u00c9SEG School of Management",
    "country": "France",
    "lat": 51.77742704563156,
    "lon": 10.486873261337838,
    "website": "https://ieseg.fr/"
  },
  {
    "name": "Sun Yat-Sen University",
    "country": "China",
    "lat": 52.20627393108385,
    "lon": 10.334577123590458,
    "website": "https://sysu.edu.cn/"
  },
  {
    "name": "Royal Holloway University of London",
    "country": "United Kingdom",
    "lat": 51.57987656485113,
    "lon": 10.42608062435339,
    "website": "https://rhul.ac.uk/"
  },
  {
    "name": "Hunan University",
    "country": "China",
    "lat": 51.98190318123644,
    "lon": 10.025366725248151,
    "website": "https://www.hnu.edu.cn/"
  },
  {
    "name": "University of Portsmouth",
    "country": "United Kingdom",
    "lat": 50.65797237479916,
    "lon": 10.634543383430866,
    "website": "http://www.port.ac.uk/"
  },
  {
    "name": "Central Sup\u00e9lec",
    "country": "France",
    "lat": 52.25112886629971,
    "lon": 10.74094923976862,
    "website": "https://www.centralesupelec.fr/"
  },
  {
    "name": "Acad\u00e9mie de Paris",
    "country": "France",
    "lat": 50.64597351693992,
    "lon": 10.76796802887019,
    "website": "https://www.ac-paris.fr/"
  },
  {
    "name": "Acad\u00e9mie d'Aix-Marseille",
    "country": "France",
    "lat": 51.08715879901324,
    "lon": 10.292587193412482,
    "website": "https://www.ac-aix-marseille.fr/"
  },
  {
    "name": "Acad\u00e9mie de Cr\u00e9teil",
    "country": "France",
    "lat": 51.40010631746835,
    "lon": 10.811182808591285,
    "website": "https://www.ac-creteil.fr/"
  },
  {
    "name": "Marywood University",
    "country": "United States",
    "lat": 51.43018129254127,
    "lon": 10.380910229444368,
    "website": "http://www.marywood.edu/"
  },
  {
    "name": "University of Petroleum and Energy Studies",
    "country": "India",
    "lat": 51.7224683861879,
    "lon": 9.719199544519295,
    "website": "https://www.upes.ac.in/"
  },
  {
    "name": "Ashoka University",
    "country": "India",
    "lat": 52.41600012202294,
    "lon": 9.645718223111848,
    "website": "https://www.ashoka.edu.in/"
  },
  {
    "name": "Indian Institute of Information Technology Sri City",
    "country": "India",
    "lat": 51.67894619734343,
    "lon": 9.944198612710924,
    "website": "https://www.iiits.ac.in/"
  },
  {
    "name": "C\u00e9gep de Saint-J\u00e9r\u00f4me",
    "country": "Canada",
    "lat": 51.8214169944202,
    "lon": 9.359824281270246,
    "website": "https://www.cstj.qc.ca/"
  },
  {
    "name": "Lindenwood University",
    "country": "United States",
    "lat": 52.26845313303716,
    "lon": 9.24496263731565,
    "website": "http://www.lindenwood.edu/"
  },
  {
    "name": "DAV Institute of Engineering & Technology",
    "country": "India",
    "lat": 50.67625995782538,
    "lon": 10.39142067165106,
    "website": "http://www.davietjal.org/"
  },
  {
    "name": "Lovely Professional University",
    "country": "India",
    "lat": 52.25485301996148,
    "lon": 9.262532003220864,
    "website": "http://www.lpu.in/"
  },
  {
    "name": "Sullivan University",
    "country": "United States",
    "lat": 51.93561148861903,
    "lon": 10.276030272106984,
    "website": "https://sullivan.edu/"
  },
  {
    "name": "Florida State College at Jacksonville",
    "country": "United States",
    "lat": 52.19903265321037,
    "lon": 10.986118835784328,
    "website": "https://www.fscj.edu/"
  },
  {
    "name": "Xavier University",
    "country": "United States",
    "lat": 52.10040644790915,
    "lon": 9.505248728797438,
    "website": "https://www.xavier.edu/"
  },
  {
    "name": "Tusculum College",
    "country": "United States",
    "lat": 51.451298019468965,
    "lon": 10.62386903160672,
    "website": "https://home.tusculum.edu/"
  },
  {
    "name": "Claremont School of Theology",
    "country": "United States",
    "lat": 52.135035929346074,
    "lon": 10.762165138634106,
    "website": "https://cst.edu/"
  },
  {
    "name": "Somaiya Vidyavihar",
    "country": "India",
    "lat": 51.03879674384236,
    "lon": 9.853429773005095,
    "website": "https://somaiya.edu/"
  },
  {
    "name": "Columbia College (SC)",
    "country": "United States",
    "lat": 51.42895434891602,
    "lon": 9.037046531735571,
    "website": "https://www.columbiasc.edu/"
  },
  {
    "name": "Chabot-Las Positas Community College District",
    "country": "United States",
    "lat": 51.327778749940116,
    "lon": 10.475503847933133,
    "website": "http://www.clpccd.edu/"
  },
  {
    "name": "Keller Graduate School of Management",
    "country": "United States",
    "lat": 51.75379060166565,
    "lon": 10.912078804102064,
    "website": "https://www.keller.edu/"
  },
  {
    "name": "Monroe College",
    "country": "United States",
    "lat": 51.49582718417012,
    "lon": 10.972295411377614,
    "website": "https://monroecollege.edu/"
  },
  {
    "name": "San Mateo County Community College District",
    "country": "United States",
    "lat": 52.29905245437869,
    "lon": 9.08072976901523,
    "website": "https://smccd.edu/"
  },
  {
    "name": "Los Rios Community College District",
    "country": "United States",
    "lat": 51.00067092765514,
    "lon": 9.543711404921384,
    "website": "http://losrios.edu/"
  },
  {
    "name": "DigiPen Institute of Technology",
    "country": "United States",
    "lat": 51.10029428227904,
    "lon": 10.931813519238112,
    "website": "https://www.digipen.edu/"
  },
  {
    "name": "University of Pittsburgh Medical Center",
    "country": "United States",
    "lat": 50.72634528006659,
    "lon": 9.657696521621743,
    "website": "https://www.upmc.com/"
  },
  {
    "name": "Claremont Graduate University",
    "country": "United States",
    "lat": 51.16019963598228,
    "lon": 9.88549499355783,
    "website": "https://www.cgu.edu/"
  },
  {
    "name": "The University of Texas at Rio Grande Valley",
    "country": "United States",
    "lat": 52.28148417924026,
    "lon": 10.708832685245996,
    "website": "https://www.utrgv.edu/"
  },
  {
    "name": "College of Mount Saint Vincent",
    "country": "United States",
    "lat": 52.01331985491537,
    "lon": 9.833347247272856,
    "website": "https://mountsaintvincent.edu/"
  },
  {
    "name": "University of Arkansas System eVersity",
    "country": "United States",
    "lat": 51.59911380767643,
    "lon": 10.049013344334204,
    "website": "https://www.uasys.edu/"
  },
  {
    "name": "ECPI University",
    "country": "United States",
    "lat": 52.12726823703659,
    "lon": 9.280601985165337,
    "website": "https://www.ecpi.edu/"
  },
  {
    "name": "University of Mary Washington",
    "country": "United States",
    "lat": 52.0633208959558,
    "lon": 9.889154385732315,
    "website": "https://www.umw.edu/"
  },
  {
    "name": "Baldwin Wallace University",
    "country": "United States",
    "lat": 52.30362121358146,
    "lon": 10.585577922151003,
    "website": "https://www.bw.edu/"
  },
  {
    "name": "California State University Channel Islands",
    "country": "United States",
    "lat": 52.247841076076725,
    "lon": 10.524319493969077,
    "website": "https://www.csuci.edu/"
  },
  {
    "name": "Brandman University",
    "country": "United States",
    "lat": 50.57527303548912,
    "lon": 9.326275391666275,
    "website": "https://www.brandman.edu/"
  },
  {
    "name": "United States Coast Guard Academy",
    "country": "United States",
    "lat": 51.512565670540766,
    "lon": 10.48479621466529,
    "website": "http://www.uscga.edu/"
  },
  {
    "name": "Athens State University",
    "country": "United States",
    "lat": 52.17443006720161,
    "lon": 9.139717083790709,
    "website": "http://www.athens.edu/"
  },
  {
    "name": "The Scripps Research Institute",
    "country": "United States",
    "lat": 52.33041382235958,
    "lon": 10.055273738626171,
    "website": "https://scripps.edu/"
  },
  {
    "name": "Eastern Florida State College",
    "country": "United States",
    "lat": 50.91095223929867,
    "lon": 9.114478063280993,
    "website": "http://www.easternflorida.edu/"
  },
  {
    "name": "Western New England University",
    "country": "United States",
    "lat": 52.261711677878495,
    "lon": 10.869190407082806,
    "website": "http://www1.wne.edu/"
  },
  {
    "name": "King University",
    "country": "United States",
    "lat": 50.86782925405616,
    "lon": 10.21582273098022,
    "website": "https://king.edu/"
  },
  {
    "name": "Georgia Gwinnett College",
    "country": "United States",
    "lat": 50.771198762433826,
    "lon": 10.856514404498254,
    "website": "https://ggc.edu/"
  },
  {
    "name": "Trident University",
    "country": "United States",
    "lat": 52.3954900223881,
    "lon": 10.214307873546286,
    "website": "https://www.trident.edu/"
  },
  {
    "name": "Alliant International University",
    "country": "United States",
    "lat": 51.644218794156,
    "lon": 10.431108185340745,
    "website": "https://www.alliant.edu/"
  },
  {
    "name": "Mississippi Valley State University",
    "country": "United States",
    "lat": 50.704149715258225,
    "lon": 10.939921905325406,
    "website": "https://mvsu.edu/"
  },
  {
    "name": "Roosevelt University",
    "country": "United States",
    "lat": 50.571181747649334,
    "lon": 9.534598583698308,
    "website": "https://www.roosevelt.edu/"
  },
  {
    "name": "ITT Technical Institute",
    "country": "United States",
    "lat": 51.23385010302941,
    "lon": 9.38122680751569,
    "website": "http://itt-tech.info/"
  },
  {
    "name": "Illinois Eastern Community Colleges",
    "country": "United States",
    "lat": 51.410368886860844,
    "lon": 9.369151331288121,
    "website": "https://iecc.edu/"
  },
  {
    "name": "Park University",
    "country": "United States",
    "lat": 52.43700199652069,
    "lon": 10.314144063916924,
    "website": "https://park.edu/"
  },
  {
    "name": "Icahn School of Medicine at Mount Sinai",
    "country": "United States",
    "lat": 52.367583160070254,
    "lon": 9.319752250560825,
    "website": "http://icahn.mssm.edu/"
  },
  {
    "name": "Utah Valley University",
    "country": "United States",
    "lat": 52.06448491850287,
    "lon": 9.942142756636928,
    "website": "https://uvu.edu/"
  },
  {
    "name": "Wisconsin Lutheran College",
    "country": "United States",
    "lat": 51.11851974666379,
    "lon": 10.322734534537027,
    "website": "http://www.wlc.edu/"
  },
  {
    "name": "Riverside Community College District",
    "country": "United States",
    "lat": 52.48182962142045,
    "lon": 10.791793235350209,
    "website": "http://www.rccd.edu/"
  },
  {
    "name": "Wake Forest Baptist Health",
    "country": "United States",
    "lat": 51.14593877984811,
    "lon": 9.983448354685727,
    "website": "http://www.wakehealth.edu/"
  },
  {
    "name": "University of Massachusetts Boston",
    "country": "United States",
    "lat": 50.69373991490585,
    "lon": 10.47812409300098,
    "website": "https://www.umb.edu/"
  },
  {
    "name": "Florida Polytechnic University",
    "country": "United States",
    "lat": 52.382106303466315,
    "lon": 9.049690154927484,
    "website": "https://floridapoly.edu/"
  },
  {
    "name": "Wagner College",
    "country": "United States",
    "lat": 51.37183931766588,
    "lon": 10.744457338281988,
    "website": "https://wagner.edu/"
  },
  {
    "name": "Wilmington University",
    "country": "United States",
    "lat": 50.75093625497007,
    "lon": 10.948960839861163,
    "website": "https://www.wilmu.edu/"
  },
  {
    "name": "International Technological University",
    "country": "United States",
    "lat": 52.22564056792757,
    "lon": 10.984968901453419,
    "website": "https://itu.edu/"
  },
  {
    "name": "Young Harris College",
    "country": "United States",
    "lat": 51.559874015737215,
    "lon": 10.859834467674037,
    "website": "https://www.yhc.edu/"
  },
  {
    "name": "University of Findlay",
    "country": "United States",
    "lat": 51.98047822014566,
    "lon": 10.163531386895347,
    "website": "https://www.findlay.edu/"
  },
  {
    "name": "Philadelphia College of Osteopathic Medicine",
    "country": "United States",
    "lat": 50.729546105525735,
    "lon": 9.074392770427819,
    "website": "https://www.pcom.edu/"
  },
  {
    "name": "Yosemite Community College District",
    "country": "United States",
    "lat": 52.18215797024848,
    "lon": 9.616906138522921,
    "website": "https://www.yosemite.edu/"
  },
  {
    "name": "Coastal Alabama Community College",
    "country": "United States",
    "lat": 51.32002363476409,
    "lon": 9.594725523612397,
    "website": "http://www.coastalalabama.edu/"
  },
  {
    "name": "Purdue University Northwest",
    "country": "United States",
    "lat": 51.17797279707938,
    "lon": 9.01610241990228,
    "website": "https://www.pnw.edu/"
  },
  {
    "name": "Columbia Basin College",
    "country": "United States",
    "lat": 52.250192163022575,
    "lon": 10.049149054882877,
    "website": "http://www.columbiabasin.edu/"
  },
  {
    "name": "Seattle Colleges",
    "country": "United States",
    "lat": 52.2165775568761,
    "lon": 9.874707108706193,
    "website": "https://www.seattlecolleges.edu/"
  },
  {
    "name": "Lipscomb University",
    "country": "United States",
    "lat": 52.41710013907414,
    "lon": 9.386115753661915,
    "website": "https://www.lipscomb.edu/"
  },
  {
    "name": "Tiffin University",
    "country": "United States",
    "lat": 50.96139750459322,
    "lon": 10.415319763262286,
    "website": "http://www.tiffin.edu/"
  },
  {
    "name": "NorthCap University",
    "country": "India",
    "lat": 50.90952818260068,
    "lon": 9.396467601063007,
    "website": "http://www.ncuindia.edu/"
  },
  {
    "name": "Troy University",
    "country": "United States",
    "lat": 52.4882021074802,
    "lon": 9.014276512984345,
    "website": "https://troy.edu/"
  },
  {
    "name": "42 US",
    "country": "United States",
    "lat": 50.83118845248972,
    "lon": 10.331735249174637,
    "website": "http://www.42.us.org/"
  },
  {
    "name": "California Baptist University",
    "country": "United States",
    "lat": 51.10948277791258,
    "lon": 9.783974652149546,
    "website": "http://www.calbaptist.edu/"
  },
  {
    "name": "Stevenson University",
    "country": "United States",
    "lat": 52.00720331313744,
    "lon": 10.6734881135232,
    "website": "http://www.stevenson.edu/"
  },
  {
    "name": "Marine Biological Laboratory",
    "country": "United States",
    "lat": 52.17804603880047,
    "lon": 9.409187326109853,
    "website": "http://www.mbl.edu/"
  },
  {
    "name": "Maryville University",
    "country": "United States",
    "lat": 51.553606092083655,
    "lon": 10.006041745389084,
    "website": "http://www.maryville.edu/"
  },
  {
    "name": "The Art Institutes",
    "country": "United States",
    "lat": 50.61563399925456,
    "lon": 10.904522495233786,
    "website": "http://www.aii.edu/"
  },
  {
    "name": "University of Mississippi Medical Center",
    "country": "United States",
    "lat": 52.299538646103514,
    "lon": 10.40967564332836,
    "website": "http://www.umc.edu/"
  },
  {
    "name": "University of Central Oklahoma",
    "country": "United States",
    "lat": 50.537359587927284,
    "lon": 10.380019855686697,
    "website": "http://www.uco.edu/"
  },
  {
    "name": "Hallmark University",
    "country": "United States",
    "lat": 51.396614115092284,
    "lon": 9.84568105334314,
    "website": "http://www.hallmarkuniversity.edu/"
  },
  {
    "name": "Keiser University",
    "country": "United States",
    "lat": 50.92868369462138,
    "lon": 10.335535162517989,
    "website": "http://www.keiseruniversity.edu/"
  },
  {
    "name": "St. Johns River State College",
    "country": "United States",
    "lat": 52.089777286511655,
    "lon": 10.555077986432746,
    "website": "http://www.sjrstate.edu/"
  },
  {
    "name": "Indian River State College",
    "country": "United States",
    "lat": 52.45135837847087,
    "lon": 10.15783927419605,
    "website": "http://www.irsc.edu/"
  },
  {
    "name": "Barnard College",
    "country": "United States",
    "lat": 51.667648514095845,
    "lon": 9.724898702438393,
    "website": "http://www.barnard.edu/"
  },
  {
    "name": "California Southern University",
    "country": "United States",
    "lat": 52.44383973950217,
    "lon": 9.005700374111509,
    "website": "http://www.calsouthern.edu/"
  },
  {
    "name": "University of La Verne",
    "country": "United States",
    "lat": 52.12245356406457,
    "lon": 9.667419952703176,
    "website": "http://www.laverne.edu/"
  },
  {
    "name": "Washington & Jefferson College",
    "country": "United States",
    "lat": 51.51134222372562,
    "lon": 9.58356524507193,
    "website": "http://www.washjeff.edu/"
  },
  {
    "name": "University of the People",
    "country": "United States",
    "lat": 51.29269017696533,
    "lon": 9.072038840139827,
    "website": "http://www.uopeople.edu/"
  },
  {
    "name": "Touro College",
    "country": "United States",
    "lat": 52.00121154091065,
    "lon": 10.555430748319019,
    "website": "http://www.touro.edu/"
  },
  {
    "name": "New Jersey City University",
    "country": "United States",
    "lat": 52.07662292229445,
    "lon": 10.074884768958226,
    "website": "http://www.njcu.edu/"
  },
  {
    "name": "Lander University",
    "country": "United States",
    "lat": 51.3569578864981,
    "lon": 10.241762113769544,
    "website": "http://www.lander.edu/"
  },
  {
    "name": "SUNY Maritime College",
    "country": "United States",
    "lat": 51.70213887566716,
    "lon": 9.22944477498655,
    "website": "http://www.sunymaritime.edu/"
  },
  {
    "name": "Lesley University",
    "country": "United States",
    "lat": 51.649641288215605,
    "lon": 10.913181783981063,
    "website": "http://www.lesley.edu/"
  },
  {
    "name": "Laurus College",
    "country": "United States",
    "lat": 51.900766372891304,
    "lon": 9.587470195722677,
    "website": "http://www.lauruscollege.edu/"
  },
  {
    "name": "National Park College",
    "country": "United States",
    "lat": 50.618226984858495,
    "lon": 9.757393913493686,
    "website": "http://www.np.edu/"
  },
  {
    "name": "Oklahoma Christian University",
    "country": "United States",
    "lat": 52.09374690087104,
    "lon": 10.985147886667363,
    "website": "http://www.oc.edu/"
  },
  {
    "name": "San Diego Christian College",
    "country": "United States",
    "lat": 52.25670190400219,
    "lon": 10.164040683907238,
    "website": "http://www.sdcc.edu/"
  },
  {
    "name": "SANS Technology Institute",
    "country": "United States",
    "lat": 52.10630683920137,
    "lon": 9.352132245387272,
    "website": "http://www.sans.edu/"
  },
  {
    "name": "Pasco-Hernando State College",
    "country": "United States",
    "lat": 52.159918364785426,
    "lon": 9.26879045926696,
    "website": "http://www.phsc.edu/"
  },
  {
    "name": "New College of Florida",
    "country": "United States",
    "lat": 51.24705700142799,
    "lon": 10.953001090775025,
    "website": "http://www.ncf.edu/"
  },
  {
    "name": "Grand Canyon University",
    "country": "United States",
    "lat": 51.362711789451,
    "lon": 9.970872466376091,
    "website": "http://www.gcu.edu/"
  },
  {
    "name": "Cold Spring Harbor Laboratory",
    "country": "United States",
    "lat": 52.05897977264507,
    "lon": 10.414001920010342,
    "website": "http://www.cshl.edu/"
  },
  {
    "name": "Albany State University",
    "country": "United States",
    "lat": 51.53224532580699,
    "lon": 10.535110986112617,
    "website": "http://www.asurams.edu/"
  },
  {
    "name": "Lasell College",
    "country": "United States",
    "lat": 50.65831111041769,
    "lon": 10.252025505449202,
    "website": "http://www.lasell.edu/"
  },
  {
    "name": "Contra Costa Community College District",
    "country": "United States",
    "lat": 52.39320954721256,
    "lon": 9.647152204636567,
    "website": "http://www.4cd.edu/"
  },
  {
    "name": "Mount St. Mary's University",
    "country": "United States",
    "lat": 50.73464533503555,
    "lon": 9.399714623326757,
    "website": "http://www.msmary.edu/"
  },
  {
    "name": "Robert Morris University Illinois",
    "country": "United States",
    "lat": 51.05766182487786,
    "lon": 9.216448845639299,
    "website": "http://www.robertmorris.edu/"
  },
  {
    "name": "Northwest Florida State College",
    "country": "United States",
    "lat": 51.415270454637465,
    "lon": 9.036889446589047,
    "website": "http://www.nwfsc.edu/"
  },
  {
    "name": "West Virginia Wesleyan College",
    "country": "United States",
    "lat": 51.312144114276464,
    "lon": 10.450204461327715,
    "website": "http://www.wvwc.edu/"
  },
  {
    "name": "Utica College",
    "country": "United States",
    "lat": 50.912553030727594,
    "lon": 9.98067999085593,
    "website": "http://www.utica.edu/"
  },
  {
    "name": "Career College of Northern Nevada",
    "country": "United States",
    "lat": 52.46214547761885,
    "lon": 9.373976695441701,
    "website": "http://www.ccnn.edu/"
  },
  {
    "name": "College of Southern Nevada",
    "country": "United States",
    "lat": 50.77132811683844,
    "lon": 10.183394891503024,
    "website": "https://www.csn.edu/"
  },
  {
    "name": "University of North Georgia",
    "country": "United States",
    "lat": 51.038728355487976,
    "lon": 9.034410830439,
    "website": "http://www.ung.edu/"
  },
  {
    "name": "The Principia",
    "country": "United States",
    "lat": 52.19387598211677,
    "lon": 9.764078319239125,
    "website": "http://www.principia.edu/"
  },
  {
    "name": "Lynn University",
    "country": "United States",
    "lat": 50.998311106224,
    "lon": 9.136792496593245,
    "website": "http://www.lynn.edu/"
  },
  {
    "name": "Colorado Community College System",
    "country": "United States",
    "lat": 51.335425926522475,
    "lon": 9.702512643414591,
    "website": "http://www.cccs.edu/"
  },
  {
    "name": "Valencia College",
    "country": "United States",
    "lat": 51.755104497553525,
    "lon": 10.059753714114574,
    "website": "http://www.valenciacollege.edu/"
  },
  {
    "name": "St. Petersburg College",
    "country": "United States",
    "lat": 51.37223378214655,
    "lon": 9.0628078328387,
    "website": "http://www.spcollege.edu/"
  },
  {
    "name": "Globe University & Minnesota School of Business",
    "country": "United States",
    "lat": 52.00637706429302,
    "lon": 9.954470141589923,
    "website": "http://www.msbcollege.edu/"
  },
  {
    "name": "Everest College",
    "country": "United States",
    "lat": 51.37222532865994,
    "lon": 10.985020834171056,
    "website": "http://www.everest.edu/"
  },
  {
    "name": "Southwest Research Institute",
    "country": "United States",
    "lat": 52.10983376307808,
    "lon": 9.312836998422483,
    "website": "http://www.swri.edu/"
  },
  {
    "name": "American Public University System",
    "country": "United States",
    "lat": 51.42559310698553,
    "lon": 9.686325683730637,
    "website": "http://www.apus.edu/"
  },
  {
    "name": "Full Sail University",
    "country": "United States",
    "lat": 51.42334969579389,
    "lon": 9.456593313441457,
    "website": "http://www.fullsail.edu/"
  },
  {
    "name": "YTI Career Institute",
    "country": "United States",
    "lat": 52.42135410110675,
    "lon": 10.677218601493673,
    "website": "http://www.yti.edu/"
  },
  {
    "name": "Defense Language Institute Foreign Language Center",
    "country": "United States",
    "lat": 52.405036487568125,
    "lon": 9.165804078244031,
    "website": "http://www.dliflc.edu/"
  },
  {
    "name": "Columbus State University",
    "country": "United States",
    "lat": 50.67225585288877,
    "lon": 10.501610946087245,
    "website": "http://www.columbusstate.edu/"
  },
  {
    "name": "Morehead State University",
    "country": "United States",
    "lat": 51.664766327564955,
    "lon": 10.174524108561553,
    "website": "http://www.moreheadstate.edu/"
  },
  {
    "name": "Colorado State University - Global Campus",
    "country": "United States",
    "lat": 52.428206725329076,
    "lon": 9.070846880703419,
    "website": "http://www.csuglobal.edu/"
  },
  {
    "name": "North Dakota University System",
    "country": "United States",
    "lat": 52.00736108569921,
    "lon": 9.688038559743767,
    "website": "http://www.ndus.edu/"
  },
  {
    "name": "University of Houston-Downtown",
    "country": "United States",
    "lat": 51.14504479713037,
    "lon": 9.03376789002986,
    "website": "http://www.uhd.edu/"
  },
  {
    "name": "Stratford University",
    "country": "United States",
    "lat": 51.5924074566874,
    "lon": 10.891461792139653,
    "website": "http://www.stratford.edu/"
  },
  {
    "name": "California Polytechnic State University, Pomona",
    "country": "United States",
    "lat": 52.30779040880104,
    "lon": 10.52552829297579,
    "website": "http://www.cpp.edu/"
  },
  {
    "name": "Baker College",
    "country": "United States",
    "lat": 51.502491013786695,
    "lon": 9.96535951950959,
    "website": "http://www.baker.edu/"
  },
  {
    "name": "The College of New Jersey",
    "country": "United States",
    "lat": 51.65253464736109,
    "lon": 9.835111876116654,
    "website": "http://www.tcnj.edu/"
  },
  {
    "name": "Abilene Christian University",
    "country": "United States",
    "lat": 51.53873601001102,
    "lon": 10.956592770206658,
    "website": "http://www.acu.edu/"
  },
  {
    "name": "Adelphi University",
    "country": "United States",
    "lat": 50.708805171711,
    "lon": 9.424263675200132,
    "website": "http://www.adelphi.edu/"
  },
  {
    "name": "Agnes Scott College",
    "country": "United States",
    "lat": 51.144834169545,
    "lon": 10.884450477242995,
    "website": "http://www.agnesscott.edu/"
  },
  {
    "name": "Aiken Technical College",
    "country": "United States",
    "lat": 52.29618555886066,
    "lon": 9.05243000430473,
    "website": "http://www.atc.edu/"
  },
  {
    "name": "Air Force Institute of Technology",
    "country": "United States",
    "lat": 52.27969535645345,
    "lon": 9.087770284265725,
    "website": "http://www.afit.edu/"
  },
  {
    "name": "Alabama A&M University",
    "country": "United States",
    "lat": 51.769384900920464,
    "lon": 10.019052071724627,
    "website": "http://www.aamu.edu/"
  },
  {
    "name": "Alabama State University",
    "country": "United States",
    "lat": 51.23337437040964,
    "lon": 10.428088130843156,
    "website": "http://www.alasu.edu/"
  },
  {
    "name": "Alamo Colleges",
    "country": "United States",
    "lat": 51.08547403319558,
    "lon": 10.210150101392994,
    "website": "http://www.alamo.edu/"
  },
  {
    "name": "Albertson College of Idaho",
    "country": "United States",
    "lat": 51.645519253626574,
    "lon": 10.666570698924678,
    "website": "http://www.acofi.edu/"
  },
  {
    "name": "Albion College",
    "country": "United States",
    "lat": 51.60953331702662,
    "lon": 9.374964928064696,
    "website": "http://www.albion.edu/"
  },
  {
    "name": "Alfred University",
    "country": "United States",
    "lat": 52.363745827748986,
    "lon": 9.971409042502785,
    "website": "http://www.alfred.edu/"
  },
  {
    "name": "Allegheny College",
    "country": "United States",
    "lat": 50.91749974784573,
    "lon": 9.88907507652643,
    "website": "http://www.alleg.edu/"
  },
  {
    "name": "Allentown College of Saint Francis de Sales",
    "country": "United States",
    "lat": 51.718095189987324,
    "lon": 10.581293259455627,
    "website": "http://www.allencol.edu/"
  },
  {
    "name": "Alma College",
    "country": "United States",
    "lat": 51.13100239383452,
    "lon": 9.458953795214219,
    "website": "http://www.alma.edu/"
  },
  {
    "name": "Alverno College",
    "country": "United States",
    "lat": 52.237591034032356,
    "lon": 10.078718132864797,
    "website": "http://www.alverno.edu/"
  },
  {
    "name": "Ambassador University",
    "country": "United States",
    "lat": 52.07213696599908,
    "lon": 9.217009230164923,
    "website": "http://www.ambassador.edu/"
  },
  {
    "name": "American Coastline University",
    "country": "United States",
    "lat": 52.03820536568064,
    "lon": 10.6909835463317,
    "website": "http://www.amercoastuniv.edu/"
  },
  {
    "name": "American International College",
    "country": "United States",
    "lat": 51.03302787456532,
    "lon": 9.663546249455763,
    "website": "http://www.aic.edu/"
  },
  {
    "name": "American University",
    "country": "United States",
    "lat": 50.85195881783714,
    "lon": 10.272635441488884,
    "website": "http://www.american.edu/"
  },
  {
    "name": "Amherst College",
    "country": "United States",
    "lat": 51.82651137475783,
    "lon": 10.086993104647185,
    "website": "http://www.amherst.edu/"
  },
  {
    "name": "Andrews University",
    "country": "United States",
    "lat": 51.03779656098332,
    "lon": 9.401773603165251,
    "website": "http://www.andrews.edu/"
  },
  {
    "name": "Angelo State University",
    "country": "United States",
    "lat": 51.718226532901674,
    "lon": 9.952456195757968,
    "website": "http://www.angelo.edu/"
  },
  {
    "name": "Anne Arundel Community College",
    "country": "United States",
    "lat": 51.576945093390556,
    "lon": 10.32216169636467,
    "website": "http://www.aacc.edu/"
  },
  {
    "name": "Antioch New England",
    "country": "United States",
    "lat": 51.52029738284862,
    "lon": 9.651556288900235,
    "website": "http://www.antiochne.edu/"
  },
  {
    "name": "Antioch University",
    "country": "United States",
    "lat": 51.87163545027115,
    "lon": 9.710812418878385,
    "website": "http://www.antioch.edu/"
  },
  {
    "name": "Antioch University - Los Angeles",
    "country": "United States",
    "lat": 51.25980099181048,
    "lon": 9.325538711487482,
    "website": "http://www.antiochla.edu/"
  },
  {
    "name": "Antioch University - Seattle",
    "country": "United States",
    "lat": 51.83272368117388,
    "lon": 9.778210862459217,
    "website": "http://www.seattleantioch.edu/"
  },
  {
    "name": "Appalachian State University",
    "country": "United States",
    "lat": 52.080771655422375,
    "lon": 10.543431947309584,
    "website": "http://www.appstate.edu/"
  },
  {
    "name": "Aquinas College",
    "country": "United States",
    "lat": 50.95282003714966,
    "lon": 9.015551140903975,
    "website": "http://www.aquinas.edu/"
  },
  {
    "name": "Arcadia College",
    "country": "United States",
    "lat": 50.703965526990174,
    "lon": 9.53876467844722,
    "website": "http://www.arcadia.edu/"
  },
  {
    "name": "Arizona State University",
    "country": "United States",
    "lat": 51.4939498684753,
    "lon": 9.97749463211271,
    "website": "http://www.asu.edu/"
  },
  {
    "name": "Arizona Western College",
    "country": "United States",
    "lat": 51.99830282793645,
    "lon": 10.297957129048749,
    "website": "http://www.azwestern.edu/"
  },
  {
    "name": "Arkansas State University",
    "country": "United States",
    "lat": 52.456052956512174,
    "lon": 10.227887619633076,
    "website": "http://www.astate.edu/"
  },
  {
    "name": "Arkansas Tech University",
    "country": "United States",
    "lat": 51.108651686819016,
    "lon": 9.225035013552667,
    "website": "http://www.atu.edu/"
  },
  {
    "name": "Armstrong State College",
    "country": "United States",
    "lat": 51.571030734844804,
    "lon": 9.464744285085352,
    "website": "http://www.armstrong.edu/"
  },
  {
    "name": "Ashland University",
    "country": "United States",
    "lat": 50.99088262752378,
    "lon": 10.060757070136187,
    "website": "http://www.ashland.edu/"
  },
  {
    "name": "Assumption College",
    "country": "United States",
    "lat": 51.77849312396366,
    "lon": 10.404409253397837,
    "website": "http://www.assumption.edu/"
  },
  {
    "name": "Auburn University",
    "country": "United States",
    "lat": 51.464172492167705,
    "lon": 10.979274434487674,
    "website": "http://www.auburn.edu/"
  },
  {
    "name": "Auburn University at Montgomery",
    "country": "United States",
    "lat": 52.29383375821604,
    "lon": 9.189540658779237,
    "website": "http://www.aum.edu/"
  },
  {
    "name": "Augsburg College",
    "country": "United States",
    "lat": 52.02276514733073,
    "lon": 9.150410150425065,
    "website": "http://www.augsburg.edu/"
  },
  {
    "name": "Augustana College (IL)",
    "country": "United States",
    "lat": 51.30033485847815,
    "lon": 10.084504108340074,
    "website": "http://www.augustana.edu/"
  },
  {
    "name": "Augustana College (SD)",
    "country": "United States",
    "lat": 51.49955793302856,
    "lon": 9.779845300040204,
    "website": "http://www.augie.edu/"
  },
  {
    "name": "Augusta University",
    "country": "United States",
    "lat": 51.957562219386844,
    "lon": 10.151600609775345,
    "website": "http://www.augusta.edu/"
  },
  {
    "name": "Aurora University",
    "country": "United States",
    "lat": 51.71687546402271,
    "lon": 10.762420162507057,
    "website": "http://www.aurora.edu/"
  },
  {
    "name": "Austin College",
    "country": "United States",
    "lat": 51.06323387168418,
    "lon": 10.877287339888571,
    "website": "http://www.austincollege.edu/"
  },
  {
    "name": "Austin Community College",
    "country": "United States",
    "lat": 51.85637191117178,
    "lon": 10.163598927365264,
    "website": "http://www.austincc.edu/"
  },
  {
    "name": "Austin Peay State University",
    "country": "United States",
    "lat": 50.64770868864993,
    "lon": 10.928100296363395,
    "website": "http://www.apsu.edu/"
  },
  {
    "name": "Averett College",
    "country": "United States",
    "lat": 50.848586660401175,
    "lon": 9.890326063799618,
    "website": "http://www.averett.edu/"
  },
  {
    "name": "Avila College",
    "country": "United States",
    "lat": 52.318763851443734,
    "lon": 9.075459904340121,
    "website": "http://www.avila.edu/"
  },
  {
    "name": "Azusa Pacific University",
    "country": "United States",
    "lat": 51.97005872536425,
    "lon": 9.917573767264278,
    "website": "http://www.apu.edu/"
  },
  {
    "name": "Babson College",
    "country": "United States",
    "lat": 52.2310520228867,
    "lon": 9.63821255993107,
    "website": "http://www.babson.edu/"
  },
  {
    "name": "Baker University",
    "country": "United States",
    "lat": 50.93397237375814,
    "lon": 10.501799290894631,
    "website": "http://www.bakeru.edu/"
  },
  {
    "name": "Ball State University",
    "country": "United States",
    "lat": 51.953143016289005,
    "lon": 10.412957605084445,
    "website": "http://www.bsu.edu/"
  },
  {
    "name": "Baptist Bible College",
    "country": "United States",
    "lat": 51.206189430388996,
    "lon": 9.80418578297989,
    "website": "http://www.bbc.edu/"
  },
  {
    "name": "Bard College",
    "country": "United States",
    "lat": 50.83280979363944,
    "lon": 9.044773496329114,
    "website": "http://www.bard.edu/"
  },
  {
    "name": "Barry University",
    "country": "United States",
    "lat": 51.59918631649147,
    "lon": 10.678471932089131,
    "website": "http://www.barry.edu/"
  },
  {
    "name": "Bastyr University",
    "country": "United States",
    "lat": 52.42253232427668,
    "lon": 10.311982056038811,
    "website": "http://www.bastyr.edu/"
  },
  {
    "name": "Bates College",
    "country": "United States",
    "lat": 51.418083390304545,
    "lon": 9.348366245356777,
    "website": "http://www.bates.edu/"
  },
  {
    "name": "Baylor College of Medicine",
    "country": "United States",
    "lat": 52.33604879948482,
    "lon": 10.414250167917643,
    "website": "http://www.bcm.edu/"
  },
  {
    "name": "Baylor University",
    "country": "United States",
    "lat": 51.07107247391678,
    "lon": 10.659341550911087,
    "website": "http://www.baylor.edu/"
  },
  {
    "name": "Bellevue University",
    "country": "United States",
    "lat": 50.746123743093825,
    "lon": 10.536164332029143,
    "website": "http://www.bellevue.edu/"
  },
  {
    "name": "Belmont University",
    "country": "United States",
    "lat": 50.515207545437335,
    "lon": 10.377961976557243,
    "website": "http://www.belmont.edu/"
  },
  {
    "name": "Beloit College",
    "country": "United States",
    "lat": 51.51428368046194,
    "lon": 10.107250795936892,
    "website": "http://www.beloit.edu/"
  },
  {
    "name": "Bemidji State University",
    "country": "United States",
    "lat": 51.69847953681853,
    "lon": 10.149865363778321,
    "website": "http://www.bemidjistate.edu/"
  },
  {
    "name": "Benedictine College",
    "country": "United States",
    "lat": 51.5786841979907,
    "lon": 10.511810070046831,
    "website": "http://www.benedictine.edu/"
  },
  {
    "name": "Bennington College",
    "country": "United States",
    "lat": 51.64934284930577,
    "lon": 10.454414592472505,
    "website": "http://www.bennington.edu/"
  },
  {
    "name": "Bentley University",
    "country": "United States",
    "lat": 51.855371544886914,
    "lon": 10.79515104740328,
    "website": "http://www.bentley.edu/"
  },
  {
    "name": "Berea College",
    "country": "United States",
    "lat": 52.48461587898235,
    "lon": 10.640988388382393,
    "website": "http://www.berea.edu/"
  },
  {
    "name": "Berklee College of Music",
    "country": "United States",
    "lat": 51.80521669198016,
    "lon": 9.292059750741155,
    "website": "http://www.berklee.edu/"
  },
  {
    "name": "Bethany College",
    "country": "United States",
    "lat": 52.30950725654952,
    "lon": 9.003400261870594,
    "website": "http://www.bethanywv.edu/"
  },
  {
    "name": "Bethel College (KS)",
    "country": "United States",
    "lat": 52.177265738985916,
    "lon": 10.746559152097651,
    "website": "http://www.bethelks.edu/"
  },
  {
    "name": "Bethel University",
    "country": "United States",
    "lat": 51.92024371725289,
    "lon": 10.215850492819875,
    "website": "http://www.bethel.edu/"
  },
  {
    "name": "Biola University",
    "country": "United States",
    "lat": 50.833832821027904,
    "lon": 10.331615267223661,
    "website": "http://www.biola.edu/"
  },
  {
    "name": "Birmingham-Southern College",
    "country": "United States",
    "lat": 52.31544307042218,
    "lon": 9.719563556790925,
    "website": "http://www.bsc.edu/"
  },
  {
    "name": "Black Hills State University",
    "country": "United States",
    "lat": 51.291346484185915,
    "lon": 10.424323630237796,
    "website": "http://www.bhsu.edu/"
  },
  {
    "name": "Bloomsburg University of Pennsylvania",
    "country": "United States",
    "lat": 52.048919033642235,
    "lon": 10.041406245275994,
    "website": "http://www.bloomu.edu/"
  },
  {
    "name": "Bluffton College",
    "country": "United States",
    "lat": 51.57762388968652,
    "lon": 10.527044036186158,
    "website": "http://www.bluffton.edu/"
  },
  {
    "name": "Bob Jones University",
    "country": "United States",
    "lat": 50.786057345782545,
    "lon": 10.340094875286086,
    "website": "http://www.bju.edu/"
  },
  {
    "name": "Boise State University",
    "country": "United States",
    "lat": 50.723255704304265,
    "lon": 9.731920873096351,
    "website": "http://www.boisestate.edu/"
  },
  {
    "name": "Boston College",
    "country": "United States",
    "lat": 50.924009100198255,
    "lon": 9.628876674112096,
    "website": "http://www.bc.edu/"
  },
  {
    "name": "Boston Graduate School of Psychoanalysis",
    "country": "United States",
    "lat": 50.78504959928997,
    "lon": 10.505306683987955,
    "website": "http://www.bgsp.edu/"
  },
  {
    "name": "Boston University",
    "country": "United States",
    "lat": 51.451470548001474,
    "lon": 9.458051497573287,
    "website": "http://www.bu.edu/"
  },
  {
    "name": "Bowdoin College",
    "country": "United States",
    "lat": 51.698338716571385,
    "lon": 9.610151070959068,
    "website": "http://www.bowdoin.edu/"
  },
  {
    "name": "Bowie State University",
    "country": "United States",
    "lat": 52.26158496590987,
    "lon": 9.23670388220373,
    "website": "http://www.bowiestate.edu/"
  },
  {
    "name": "Bowling Green State University",
    "country": "United States",
    "lat": 52.1070622978196,
    "lon": 10.824783231996582,
    "website": "http://www.bgsu.edu/"
  },
  {
    "name": "Bradley University",
    "country": "United States",
    "lat": 51.64962980947386,
    "lon": 10.720804732246245,
    "website": "http://www.bradley.edu/"
  },
  {
    "name": "Brandeis University",
    "country": "United States",
    "lat": 52.38276116940618,
    "lon": 9.187445261763983,
    "website": "http://www.brandeis.edu/"
  },
  {
    "name": "Brenau University",
    "country": "United States",
    "lat": 50.83755521592017,
    "lon": 9.668576219367433,
    "website": "http://www.brenau.edu/"
  },
  {
    "name": "Briar Cliff College",
    "country": "United States",
    "lat": 52.17829114952004,
    "lon": 9.587096635278428,
    "website": "http://www.briar-cliff.edu/"
  },
  {
    "name": "Bridgewater College",
    "country": "United States",
    "lat": 52.398309449122515,
    "lon": 10.99849740904614,
    "website": "http://www.bridgewater.edu/"
  },
  {
    "name": "Brigham Young University",
    "country": "United States",
    "lat": 51.2393534596726,
    "lon": 10.734152796627736,
    "website": "http://www.byu.edu/"
  },
  {
    "name": "Brigham Young University - Idaho",
    "country": "United States",
    "lat": 51.558361813572546,
    "lon": 9.159640383675704,
    "website": "http://www.byui.edu/"
  },
  {
    "name": "Brigham Young University Hawaii",
    "country": "United States",
    "lat": 51.82222127591607,
    "lon": 10.905522206239398,
    "website": "http://www.byuh.edu/"
  },
  {
    "name": "Broward College",
    "country": "United States",
    "lat": 50.54824681364682,
    "lon": 9.942403962107013,
    "website": "http://www.broward.edu/"
  },
  {
    "name": "Brown University",
    "country": "United States",
    "lat": 50.87563542906357,
    "lon": 9.455286091339357,
    "website": "http://www.brown.edu/"
  },
  {
    "name": "Bryant University",
    "country": "United States",
    "lat": 51.30182580128797,
    "lon": 9.483101811635727,
    "website": "http://www.bryant.edu/"
  },
  {
    "name": "Bryn Mawr College",
    "country": "United States",
    "lat": 52.299464867503325,
    "lon": 9.048254728246693,
    "website": "http://www.brynmawr.edu/"
  },
  {
    "name": "Bucknell University",
    "country": "United States",
    "lat": 51.67564644375908,
    "lon": 9.511626490679511,
    "website": "http://www.bucknell.edu/"
  },
  {
    "name": "Buena Vista University",
    "country": "United States",
    "lat": 51.33549834174789,
    "lon": 9.998306873974693,
    "website": "http://www.bvu.edu/"
  },
  {
    "name": "Butler University",
    "country": "United States",
    "lat": 51.476725750749715,
    "lon": 9.697836846482723,
    "website": "http://www.butler.edu/"
  },
  {
    "name": "California Coast University",
    "country": "United States",
    "lat": 51.713743919519054,
    "lon": 10.235047516734067,
    "website": "http://www.calcoast.edu/"
  },
  {
    "name": "California Institute of Technology",
    "country": "United States",
    "lat": 52.16647638252361,
    "lon": 9.256635542626817,
    "website": "http://www.caltech.edu/"
  },
  {
    "name": "California Lutheran University",
    "country": "United States",
    "lat": 50.52989477333781,
    "lon": 9.744159778091932,
    "website": "http://www.callutheran.edu/"
  },
  {
    "name": "California Maritime Academy",
    "country": "United States",
    "lat": 52.01209497860318,
    "lon": 9.640674163922155,
    "website": "http://www.csum.edu/"
  },
  {
    "name": "California National University",
    "country": "United States",
    "lat": 51.527245570981854,
    "lon": 9.23223754563613,
    "website": "http://www.cnuas.edu/"
  },
  {
    "name": "California Polytechnic State University, San Luis Obispo",
    "country": "United States",
    "lat": 51.1088856110478,
    "lon": 9.10471004418459,
    "website": "http://www.calpoly.edu/"
  },
  {
    "name": "California State University, Bakersfield",
    "country": "United States",
    "lat": 51.70562359916525,
    "lon": 10.43388404579059,
    "website": "http://www.csub.edu/"
  },
  {
    "name": "California State University, Chico",
    "country": "United States",
    "lat": 52.271915177952295,
    "lon": 9.787942618224157,
    "website": "http://www.csuchico.edu/"
  },
  {
    "name": "California State University, Dominguez Hills",
    "country": "United States",
    "lat": 51.17977295962034,
    "lon": 10.341759212245972,
    "website": "http://www.csudh.edu/"
  },
  {
    "name": "California State University, Fresno",
    "country": "United States",
    "lat": 51.75857566981087,
    "lon": 9.246748598051218,
    "website": "http://www.csufresno.edu/"
  },
  {
    "name": "California State University, Fullerton",
    "country": "United States",
    "lat": 51.92330624891766,
    "lon": 10.012255053789808,
    "website": "http://www.fullerton.edu/"
  },
  {
    "name": "California State University, Hayward",
    "country": "United States",
    "lat": 51.76907661498582,
    "lon": 10.812735493831108,
    "website": "http://www.csuhayward.edu/"
  },
  {
    "name": "California State University, Long Beach",
    "country": "United States",
    "lat": 51.75485286497271,
    "lon": 10.96711948001482,
    "website": "http://www.csulb.edu/"
  },
  {
    "name": "California State University, Los Angeles",
    "country": "United States",
    "lat": 52.41860190783525,
    "lon": 10.36536160429419,
    "website": "http://www.calstatela.edu/"
  },
  {
    "name": "California State University, Monterey Bay",
    "country": "United States",
    "lat": 50.652268382207126,
    "lon": 10.55092930624222,
    "website": "http://www.csumb.edu/"
  },
  {
    "name": "California State University, Northridge",
    "country": "United States",
    "lat": 50.88100797154048,
    "lon": 9.242774189282235,
    "website": "http://www.csun.edu/"
  },
  {
    "name": "California State University, Sacramento",
    "country": "United States",
    "lat": 52.298356571071885,
    "lon": 9.384503843727119,
    "website": "http://www.csus.edu/"
  },
  {
    "name": "California State University, San Bernardino",
    "country": "United States",
    "lat": 52.10917364029218,
    "lon": 9.941493829743207,
    "website": "http://www.csusb.edu/"
  },
  {
    "name": "California State University, San Marcos",
    "country": "United States",
    "lat": 50.64039488577005,
    "lon": 10.518633684842403,
    "website": "http://www.csusm.edu/"
  },
  {
    "name": "California State University, Stanislaus",
    "country": "United States",
    "lat": 50.950416407087225,
    "lon": 9.7791823937447,
    "website": "http://www.csustan.edu/"
  },
  {
    "name": "California State University System",
    "country": "United States",
    "lat": 50.88520726632276,
    "lon": 10.758750327869363,
    "website": "http://www.calstate.edu/"
  },
  {
    "name": "California University of Pennsylvania",
    "country": "United States",
    "lat": 50.99973557714407,
    "lon": 9.056338355851688,
    "website": "http://www.cup.edu/"
  },
  {
    "name": "Calvin College",
    "country": "United States",
    "lat": 52.237167058256546,
    "lon": 9.056963269378008,
    "website": "http://www.calvin.edu/"
  },
  {
    "name": "Cameron University",
    "country": "United States",
    "lat": 51.93173791112177,
    "lon": 9.845062166783304,
    "website": "http://www.cameron.edu/"
  },
  {
    "name": "Campbellsville College",
    "country": "United States",
    "lat": 51.87478108713139,
    "lon": 10.878517863890108,
    "website": "http://www.campbellsville.edu/"
  },
  {
    "name": "Campbell University",
    "country": "United States",
    "lat": 51.06356776648551,
    "lon": 10.796677619311714,
    "website": "http://www.campbell.edu/"
  },
  {
    "name": "Canisius College",
    "country": "United States",
    "lat": 50.63088118564533,
    "lon": 9.46979408773017,
    "website": "http://www.canisius.edu/"
  },
  {
    "name": "Capella University",
    "country": "United States",
    "lat": 51.4654899706372,
    "lon": 10.824886715582442,
    "website": "http://www.capella.edu/"
  },
  {
    "name": "Capitol Technology University",
    "country": "United States",
    "lat": 52.06056148345163,
    "lon": 10.15218077799842,
    "website": "http://www.captechu.edu/"
  },
  {
    "name": "Carleton College",
    "country": "United States",
    "lat": 52.121983896476216,
    "lon": 10.623207955957703,
    "website": "http://www.carleton.edu/"
  },
  {
    "name": "Carlow College",
    "country": "United States",
    "lat": 51.49131819256392,
    "lon": 10.168318529057453,
    "website": "http://www.carlow.edu/"
  },
  {
    "name": "Carnegie Mellon University",
    "country": "United States",
    "lat": 51.683357115801776,
    "lon": 9.863741811002374,
    "website": "http://www.cmu.edu/"
  },
  {
    "name": "Carroll College",
    "country": "United States",
    "lat": 51.96524765171926,
    "lon": 9.395638976941713,
    "website": "http://www.carroll.edu/"
  },
  {
    "name": "Carroll University",
    "country": "United States",
    "lat": 51.70074283646645,
    "lon": 10.30044854928919,
    "website": "http://www.carrollu.edu/"
  },
  {
    "name": "Carson-Newman College",
    "country": "United States",
    "lat": 51.00671733940081,
    "lon": 9.18669470403271,
    "website": "http://www.cn.edu/"
  },
  {
    "name": "Carthage College",
    "country": "United States",
    "lat": 51.916896986657214,
    "lon": 9.947785826260272,
    "website": "http://www.carthage.edu/"
  },
  {
    "name": "Case Western Reserve University",
    "country": "United States",
    "lat": 51.07268719215605,
    "lon": 10.610264335617588,
    "website": "http://www.case.edu/"
  },
  {
    "name": "Castleton State University",
    "country": "United States",
    "lat": 51.91794913702672,
    "lon": 9.545332294378618,
    "website": "http://www.castleton.edu/"
  },
  {
    "name": "Catholic University of America",
    "country": "United States",
    "lat": 50.97096241225174,
    "lon": 10.366020644636716,
    "website": "http://www.cua.edu/"
  },
  {
    "name": "Cedarville College",
    "country": "United States",
    "lat": 51.61016798724144,
    "lon": 10.791936582861362,
    "website": "http://www.cedarville.edu/"
  },
  {
    "name": "Centenary College of Louisiana",
    "country": "United States",
    "lat": 51.30794558969682,
    "lon": 9.216177302461594,
    "website": "http://www.centenary.edu/"
  },
  {
    "name": "Central College",
    "country": "United States",
    "lat": 50.66372105741885,
    "lon": 9.48106300125504,
    "website": "http://www.central.edu/"
  },
  {
    "name": "Central Connecticut State University",
    "country": "United States",
    "lat": 52.27502735090888,
    "lon": 10.825117473298766,
    "website": "http://www.ccsu.edu/"
  },
  {
    "name": "Central Methodist College",
    "country": "United States",
    "lat": 51.19892549421797,
    "lon": 9.019073536367985,
    "website": "http://www.cmc.edu/"
  },
  {
    "name": "Central Michigan University",
    "country": "United States",
    "lat": 52.34660011462346,
    "lon": 9.530607015450414,
    "website": "http://www.cmich.edu/"
  },
  {
    "name": "Central Washington University",
    "country": "United States",
    "lat": 52.300745069196736,
    "lon": 10.929857809978737,
    "website": "http://www.cwu.edu/"
  },
  {
    "name": "Centre College",
    "country": "United States",
    "lat": 52.20683827302802,
    "lon": 9.866903001290819,
    "website": "http://www.centre.edu/"
  },
  {
    "name": "Chadron State College",
    "country": "United States",
    "lat": 51.633927610740244,
    "lon": 9.482650415490857,
    "website": "http://www.csc.edu/"
  },
  {
    "name": "Champlain College",
    "country": "United States",
    "lat": 51.14236044754649,
    "lon": 10.14864716419734,
    "website": "http://www.champlain.edu/"
  },
  {
    "name": "Chapman University",
    "country": "United States",
    "lat": 51.36000849818245,
    "lon": 10.567407133436962,
    "website": "http://www.chapman.edu/"
  },
  {
    "name": "Chatham College",
    "country": "United States",
    "lat": 51.68990720656554,
    "lon": 10.438418498069504,
    "website": "http://www.chatham.edu/"
  },
  {
    "name": "Chesapeake College",
    "country": "United States",
    "lat": 50.86910093173963,
    "lon": 9.285022323620359,
    "website": "http://www.chesapeake.edu/"
  },
  {
    "name": "Cheyney University",
    "country": "United States",
    "lat": 52.18894338929719,
    "lon": 9.514469494678236,
    "website": "http://www.cheyney.edu/"
  },
  {
    "name": "Chicago School of Professional Psychology",
    "country": "United States",
    "lat": 50.76984324636564,
    "lon": 9.10524469622086,
    "website": "http://www.csopp.edu/"
  },
  {
    "name": "Christian Brothers University",
    "country": "United States",
    "lat": 51.91049983104251,
    "lon": 10.307055613959406,
    "website": "http://www.cbu.edu/"
  },
  {
    "name": "Christian Theological Seminary",
    "country": "United States",
    "lat": 51.62313636253725,
    "lon": 9.516699512133094,
    "website": "http://www.cts.edu/"
  },
  {
    "name": "Christopher Newport University",
    "country": "United States",
    "lat": 50.71713292384835,
    "lon": 10.411044175154782,
    "website": "http://www.cnu.edu/"
  },
  {
    "name": "City University",
    "country": "United States",
    "lat": 51.07653454297565,
    "lon": 9.962690805100841,
    "website": "http://www.cityu.edu/"
  },
  {
    "name": "City University of New York",
    "country": "United States",
    "lat": 51.53816139550336,
    "lon": 10.359514058408251,
    "website": "http://www.cuny.edu/"
  },
  {
    "name": "Claremont Graduate School",
    "country": "United States",
    "lat": 51.45054252871069,
    "lon": 10.056730894676312,
    "website": "http://www.cgs.edu/"
  },
  {
    "name": "Claremont McKenna College",
    "country": "United States",
    "lat": 51.55408169523054,
    "lon": 9.306812913660782,
    "website": "http://www.cmc.edu/"
  },
  {
    "name": "Clarion University of Pennsylvania",
    "country": "United States",
    "lat": 51.372260860180454,
    "lon": 10.53803710766739,
    "website": "http://www.clarion.edu/"
  },
  {
    "name": "Clarke College",
    "country": "United States",
    "lat": 50.6965058191374,
    "lon": 9.886264571143881,
    "website": "http://www.clarke.edu/"
  },
  {
    "name": "Clarkson University",
    "country": "United States",
    "lat": 52.44617797590954,
    "lon": 9.248285675717781,
    "website": "http://www.clarkson.edu/"
  },
  {
    "name": "Clark University",
    "country": "United States",
    "lat": 52.41155319992302,
    "lon": 9.955596970417243,
    "website": "http://www.clarku.edu/"
  },
  {
    "name": "Clayton State College",
    "country": "United States",
    "lat": 52.04390082144125,
    "lon": 10.640034906680405,
    "website": "http://www.clayton.edu/"
  },
  {
    "name": "Clemson University",
    "country": "United States",
    "lat": 52.47300114609952,
    "lon": 10.465740797128834,
    "website": "http://www.clemson.edu/"
  },
  {
    "name": "Cleveland State University",
    "country": "United States",
    "lat": 51.8461839092454,
    "lon": 10.560696647328367,
    "website": "http://www.csuohio.edu/"
  },
  {
    "name": "Clinch Valley College",
    "country": "United States",
    "lat": 50.954662617279645,
    "lon": 10.327550744257865,
    "website": "http://www.clinch.edu/"
  },
  {
    "name": "Coastal Carolina University",
    "country": "United States",
    "lat": 52.407638869935546,
    "lon": 10.565387352284336,
    "website": "http://www.coastal.edu/"
  },
  {
    "name": "Coast Colleges",
    "country": "United States",
    "lat": 51.396169150350055,
    "lon": 9.446286317595082,
    "website": "http://www.cccd.edu/"
  },
  {
    "name": "Coe College",
    "country": "United States",
    "lat": 51.49637467864551,
    "lon": 10.823450762132977,
    "website": "http://www.coe.edu/"
  },
  {
    "name": "Coker College",
    "country": "United States",
    "lat": 51.01340214344891,
    "lon": 10.75759649225035,
    "website": "http://www.coker.edu/"
  },
  {
    "name": "Colby College",
    "country": "United States",
    "lat": 51.379753563893644,
    "lon": 9.199645679672528,
    "website": "http://www.colby.edu/"
  },
  {
    "name": "Colgate University",
    "country": "United States",
    "lat": 50.550582556831074,
    "lon": 10.554676697948588,
    "website": "http://www.colgate.edu/"
  },
  {
    "name": "College of Charleston",
    "country": "United States",
    "lat": 52.40913362354116,
    "lon": 10.439014065563264,
    "website": "http://www.cofc.edu/"
  },
  {
    "name": "College of Eastern Utah",
    "country": "United States",
    "lat": 51.546171951383755,
    "lon": 10.663948743898624,
    "website": "http://www.ceu.edu/"
  },
  {
    "name": "College of New Rochelle",
    "country": "United States",
    "lat": 51.89845911326252,
    "lon": 10.03895441788063,
    "website": "http://www.cnr.edu/"
  },
  {
    "name": "College of Saint Benedict",
    "country": "United States",
    "lat": 51.025536528396216,
    "lon": 10.055358780330799,
    "website": "http://www.csbsju.edu/"
  },
  {
    "name": "College of Saint Catherine",
    "country": "United States",
    "lat": 52.21255935888674,
    "lon": 9.546164929637223,
    "website": "http://www.stkate.edu/"
  },
  {
    "name": "College of Saint Rose",
    "country": "United States",
    "lat": 51.73345560654482,
    "lon": 10.175861334598197,
    "website": "http://www.strose.edu/"
  },
  {
    "name": "College of St. Francis",
    "country": "United States",
    "lat": 52.13440079482319,
    "lon": 9.794064672423595,
    "website": "http://www.stfrancis.edu/"
  },
  {
    "name": "College of St. Scholastica",
    "country": "United States",
    "lat": 51.34995648751764,
    "lon": 9.843091015590673,
    "website": "http://www.css.edu/"
  },
  {
    "name": "College of the Atlantic",
    "country": "United States",
    "lat": 50.72351956024767,
    "lon": 9.992997642768678,
    "website": "http://www.coa.edu/"
  },
  {
    "name": "College of the Holy Cross",
    "country": "United States",
    "lat": 50.93330760638474,
    "lon": 9.059655900678168,
    "website": "http://www.holycross.edu/"
  },
  {
    "name": "College of William and Mary",
    "country": "United States",
    "lat": 51.65668008892257,
    "lon": 10.36344851519447,
    "website": "http://www.wm.edu/"
  },
  {
    "name": "College of Wooster",
    "country": "United States",
    "lat": 52.26547927350546,
    "lon": 10.69136193356749,
    "website": "http://www.wooster.edu/"
  },
  {
    "name": "Colorado Christian University",
    "country": "United States",
    "lat": 51.99288928745094,
    "lon": 10.761791107334053,
    "website": "http://www.ccu.edu/"
  },
  {
    "name": "Colorado College",
    "country": "United States",
    "lat": 52.302106215137826,
    "lon": 9.428325210153524,
    "website": "http://www.coloradocollege.edu/"
  },
  {
    "name": "Colorado Mesa University",
    "country": "United States",
    "lat": 52.385489452677525,
    "lon": 9.245961598596923,
    "website": "http://www.coloradomesa.edu/"
  },
  {
    "name": "Colorado School of Mines",
    "country": "United States",
    "lat": 50.785404381281786,
    "lon": 9.994336451413908,
    "website": "http://www.mines.edu/"
  },
  {
    "name": "Colorado State University",
    "country": "United States",
    "lat": 51.12083800055575,
    "lon": 9.487904784134896,
    "website": "http://www.colostate.edu/"
  },
  {
    "name": "Colorado Technical University",
    "country": "United States",
    "lat": 51.41297607914184,
    "lon": 10.88857504951497,
    "website": "http://www.coloradotech.edu/"
  },
  {
    "name": "University of Colorado Anschutz Medical Campus",
    "country": "United States",
    "lat": 50.8015638809803,
    "lon": 10.223893695230743,
    "website": "https://www.cuanschutz.edu/"
  },
  {
    "name": "Columbia College Chicago",
    "country": "United States",
    "lat": 51.87974090544371,
    "lon": 9.33593961905556,
    "website": "http://www.colum.edu/"
  },
  {
    "name": "Columbia Southern University",
    "country": "United States",
    "lat": 50.67001306057609,
    "lon": 9.316383106547509,
    "website": "http://www.colsouth.edu/"
  },
  {
    "name": "Columbia Union College",
    "country": "United States",
    "lat": 51.86868266868441,
    "lon": 10.71349930058776,
    "website": "http://www.cuc.edu/"
  },
  {
    "name": "Columbia University",
    "country": "United States",
    "lat": 51.38906175516021,
    "lon": 9.187396968951504,
    "website": "http://www.columbia.edu/"
  },
  {
    "name": "Community College of Baltimore County",
    "country": "United States",
    "lat": 51.50578328608918,
    "lon": 9.049747775862395,
    "website": "http://www.ccbcmd.edu/"
  },
  {
    "name": "Concordia College - Ann Arbor",
    "country": "United States",
    "lat": 52.15441206134268,
    "lon": 10.534580193906212,
    "website": "http://www.ccaa.edu/"
  },
  {
    "name": "Concordia College - Moorhead",
    "country": "United States",
    "lat": 51.57068839595239,
    "lon": 10.183975593285776,
    "website": "http://www.cord.edu/"
  },
  {
    "name": "Concordia College - Seward",
    "country": "United States",
    "lat": 50.54098387516127,
    "lon": 10.262495802739284,
    "website": "http://www.ccsn.edu/"
  },
  {
    "name": "Concordia College - St. Paul",
    "country": "United States",
    "lat": 51.321891988702816,
    "lon": 9.85662439222784,
    "website": "http://www.csp.edu/"
  },
  {
    "name": "Connecticut College",
    "country": "United States",
    "lat": 51.00838177226258,
    "lon": 10.071529064967738,
    "website": "http://www.conncoll.edu/"
  },
  {
    "name": "Connecticut State University System",
    "country": "United States",
    "lat": 52.28964589990512,
    "lon": 10.713594424975751,
    "website": "http://www.ct.edu/"
  },
  {
    "name": "Cooper Union for the Advancement of Science and Art",
    "country": "United States",
    "lat": 51.26019413364902,
    "lon": 9.999906375852134,
    "website": "http://www.cooper.edu/"
  },
  {
    "name": "Coppin State University",
    "country": "United States",
    "lat": 52.04382073983526,
    "lon": 10.969664497079608,
    "website": "http://www.coppin.edu/"
  },
  {
    "name": "Allen College",
    "country": "United States",
    "lat": 51.13663377648158,
    "lon": 9.78112126809134,
    "website": "https://www.allencollege.edu/"
  },
  {
    "name": "Cornell College",
    "country": "United States",
    "lat": 51.349407486704315,
    "lon": 10.943913141407275,
    "website": "http://www.cornell-iowa.edu/"
  },
  {
    "name": "Cornell University",
    "country": "United States",
    "lat": 52.33917470994876,
    "lon": 10.148707479601216,
    "website": "http://www.cornell.edu/"
  },
  {
    "name": "Corning Community College",
    "country": "United States",
    "lat": 50.71385682027179,
    "lon": 10.065508901161442,
    "website": "http://www.corning-cc.edu/"
  },
  {
    "name": "Creighton University",
    "country": "United States",
    "lat": 52.01747659268008,
    "lon": 9.364086498376594,
    "website": "http://www.creighton.edu/"
  },
  {
    "name": "Curry College",
    "country": "United States",
    "lat": 51.90532303358298,
    "lon": 9.793470627599335,
    "website": "http://www.curry.edu/"
  },
  {
    "name": "Daemen College",
    "country": "United States",
    "lat": 50.66373544810485,
    "lon": 9.970617076991324,
    "website": "http://www.daemen.edu/"
  },
  {
    "name": "Dakota State University",
    "country": "United States",
    "lat": 51.25710160676232,
    "lon": 10.622148658022901,
    "website": "http://www.dsu.edu/"
  },
  {
    "name": "Dakota Wesleyan University",
    "country": "United States",
    "lat": 51.474019489106446,
    "lon": 10.200934076975518,
    "website": "http://www.dwu.edu/"
  },
  {
    "name": "Dallas Baptist University",
    "country": "United States",
    "lat": 50.64525348290312,
    "lon": 10.9206823738268,
    "website": "http://www.dbu.edu/"
  },
  {
    "name": "Dallas County Community College",
    "country": "United States",
    "lat": 51.625520784846216,
    "lon": 10.195903126035587,
    "website": "http://www.dcccd.edu/"
  },
  {
    "name": "Dana College",
    "country": "United States",
    "lat": 50.515975570639554,
    "lon": 9.112291262062953,
    "website": "http://www.dana.edu/"
  },
  {
    "name": "Daniel Webster College",
    "country": "United States",
    "lat": 52.08962535827751,
    "lon": 10.366578458548585,
    "website": "http://www.dwc.edu/"
  },
  {
    "name": "Dartmouth College",
    "country": "United States",
    "lat": 52.27468278808448,
    "lon": 10.80485278448736,
    "website": "http://www.dartmouth.edu/"
  },
  {
    "name": "Davenport University",
    "country": "United States",
    "lat": 52.441241404932434,
    "lon": 9.08566108574169,
    "website": "http://www.davenport.edu/"
  },
  {
    "name": "Davidson College",
    "country": "United States",
    "lat": 52.19067699307377,
    "lon": 9.19536307534986,
    "website": "http://www.davidson.edu/"
  },
  {
    "name": "Davis & Elkins College",
    "country": "United States",
    "lat": 51.0443686900436,
    "lon": 9.632948040535062,
    "website": "http://www.dne.wvnet.edu/"
  },
  {
    "name": "Daytona State College",
    "country": "United States",
    "lat": 52.1630864407237,
    "lon": 9.645706940903564,
    "website": "http://www.daytonastate.edu/"
  },
  {
    "name": "Delaware State University",
    "country": "United States",
    "lat": 51.92100443015827,
    "lon": 9.577118240797624,
    "website": "http://www.desu.edu/"
  },
  {
    "name": "Delta State University",
    "country": "United States",
    "lat": 51.07488533479923,
    "lon": 10.678828770617177,
    "website": "http://www.deltastate.edu/"
  },
  {
    "name": "Denison University",
    "country": "United States",
    "lat": 51.643661907190584,
    "lon": 9.790902794490274,
    "website": "http://www.denison.edu/"
  },
  {
    "name": "DePaul University",
    "country": "United States",
    "lat": 51.91793411360055,
    "lon": 10.817361242928445,
    "website": "http://www.depaul.edu/"
  },
  {
    "name": "DePauw University",
    "country": "United States",
    "lat": 51.346989088553805,
    "lon": 10.165409494410738,
    "website": "http://www.depauw.edu/"
  },
  {
    "name": "DeVry Institute of Technology",
    "country": "United States",
    "lat": 50.54827602508535,
    "lon": 10.41635558426385,
    "website": "http://www.devry.edu/"
  },
  {
    "name": "Dharamsinh Desai University",
    "country": "India",
    "lat": 51.43362951245459,
    "lon": 10.14033599680223,
    "website": "http://www.ddu.ac.in/"
  },
  {
    "name": "Dickinson College",
    "country": "United States",
    "lat": 50.687819411485656,
    "lon": 10.622915101658606,
    "website": "http://www.dickinson.edu/"
  },
  {
    "name": "Dickinson State University",
    "country": "United States",
    "lat": 52.25252640555632,
    "lon": 10.704462498586736,
    "website": "http://www.dickinsonstate.edu/"
  },
  {
    "name": "Dillard University",
    "country": "United States",
    "lat": 51.65788733492325,
    "lon": 10.562028775365981,
    "website": "http://www.dillard.edu/"
  },
  {
    "name": "Dominican College",
    "country": "United States",
    "lat": 52.29716664959102,
    "lon": 9.658339909023805,
    "website": "http://www.dominican.edu/"
  },
  {
    "name": "Dordt College",
    "country": "United States",
    "lat": 51.701398980040544,
    "lon": 10.393634446266407,
    "website": "http://www.dordt.edu/"
  },
  {
    "name": "Dowling College",
    "country": "United States",
    "lat": 51.41357070138788,
    "lon": 9.912971194276862,
    "website": "http://www.dowling.edu/"
  },
  {
    "name": "Drake University",
    "country": "United States",
    "lat": 51.78385597211647,
    "lon": 10.055615421815938,
    "website": "http://www.drake.edu/"
  },
  {
    "name": "Drew University",
    "country": "United States",
    "lat": 50.76533801728055,
    "lon": 9.753938207338376,
    "website": "http://www.drew.edu/"
  },
  {
    "name": "Drexel University",
    "country": "United States",
    "lat": 50.514268425220536,
    "lon": 10.443373562253392,
    "website": "http://www.drexel.edu/"
  },
  {
    "name": "Drury College",
    "country": "United States",
    "lat": 51.42603875647495,
    "lon": 10.973267759221368,
    "website": "http://www.drury.edu/"
  },
  {
    "name": "Duquesne University",
    "country": "United States",
    "lat": 52.2680853176087,
    "lon": 9.912852118205256,
    "website": "http://www.duq.edu/"
  },
  {
    "name": "Earlham College",
    "country": "United States",
    "lat": 51.37877916500368,
    "lon": 10.547785288068667,
    "website": "http://www.earlham.edu/"
  },
  {
    "name": "East Carolina University",
    "country": "United States",
    "lat": 51.05434521728538,
    "lon": 9.511839054681339,
    "website": "http://www.ecu.edu/"
  },
  {
    "name": "East Central University",
    "country": "United States",
    "lat": 52.09765326495857,
    "lon": 9.079864637412523,
    "website": "http://www.ecok.edu/"
  },
  {
    "name": "Eastern Connecticut State University",
    "country": "United States",
    "lat": 52.27594459337122,
    "lon": 10.188871619602953,
    "website": "http://www.easternct.edu/"
  },
  {
    "name": "Eastern Illinois University",
    "country": "United States",
    "lat": 52.26383459807067,
    "lon": 10.356954014300198,
    "website": "http://www.eiu.edu/"
  },
  {
    "name": "Eastern Kentucky University",
    "country": "United States",
    "lat": 51.27055020010756,
    "lon": 10.244061614369038,
    "website": "http://www.eku.edu/"
  },
  {
    "name": "Eastern Mennonite University",
    "country": "United States",
    "lat": 51.22583779792063,
    "lon": 9.598906787443635,
    "website": "http://www.emu.edu/"
  },
  {
    "name": "Eastern Michigan University",
    "country": "United States",
    "lat": 50.89152830057519,
    "lon": 10.49326371333953,
    "website": "http://www.emich.edu/"
  },
  {
    "name": "Eastern New Mexico University",
    "country": "United States",
    "lat": 52.019803247319075,
    "lon": 9.434338726882602,
    "website": "http://www.enmu.edu/"
  },
  {
    "name": "Eastern Oregon State College",
    "country": "United States",
    "lat": 52.211100256545635,
    "lon": 10.802010276592217,
    "website": "http://www.eou.edu/"
  },
  {
    "name": "Eastern Washington University",
    "country": "United States",
    "lat": 51.91894044023146,
    "lon": 9.213655028880595,
    "website": "http://www.ewu.edu/"
  },
  {
    "name": "East Stroudsburg State University of Pennsylvania",
    "country": "United States",
    "lat": 50.73827074295399,
    "lon": 9.538271067077586,
    "website": "http://www.esu.edu/"
  },
  {
    "name": "East Tennessee State University",
    "country": "United States",
    "lat": 52.1117486432006,
    "lon": 10.701326903264247,
    "website": "http://www.etsu.edu/"
  },
  {
    "name": "Edgewood College",
    "country": "United States",
    "lat": 52.10257610474155,
    "lon": 10.59082386332331,
    "website": "http://www.edgewood.edu/"
  },
  {
    "name": "Edinboro University of Pennsylvania",
    "country": "United States",
    "lat": 52.02084018901469,
    "lon": 9.432284120683251,
    "website": "http://www.edinboro.edu/"
  },
  {
    "name": "Elizabeth City State University",
    "country": "United States",
    "lat": 51.311183075960194,
    "lon": 10.19082586274675,
    "website": "http://www.ecsu.edu/"
  },
  {
    "name": "Elizabethtown College",
    "country": "United States",
    "lat": 51.31924745291825,
    "lon": 10.414573224070363,
    "website": "http://www.etown.edu/"
  },
  {
    "name": "Elmhurst College",
    "country": "United States",
    "lat": 52.2617601008201,
    "lon": 9.689014050304124,
    "website": "http://www.elmhurst.edu/"
  },
  {
    "name": "Elon College",
    "country": "United States",
    "lat": 51.401282137163555,
    "lon": 9.476325805465963,
    "website": "http://www.elon.edu/"
  },
  {
    "name": "Embry-Riddle Aeronautical University",
    "country": "United States",
    "lat": 51.41509508627843,
    "lon": 10.931015912567236,
    "website": "http://www.erau.edu/"
  },
  {
    "name": "Emerson College",
    "country": "United States",
    "lat": 50.79089877638482,
    "lon": 10.395165550963805,
    "website": "http://www.emerson.edu/"
  },
  {
    "name": "Emmanuel College",
    "country": "United States",
    "lat": 51.61585394962063,
    "lon": 9.8971587756122,
    "website": "http://www.emmanuel.edu/"
  },
  {
    "name": "Emory University",
    "country": "United States",
    "lat": 50.56590016181362,
    "lon": 10.35297245293491,
    "website": "http://www.emory.edu/"
  },
  {
    "name": "Emory & Henry College",
    "country": "United States",
    "lat": 52.03084130155979,
    "lon": 10.498648322877886,
    "website": "https://www.ehc.edu/"
  },
  {
    "name": "Emporia State University",
    "country": "United States",
    "lat": 52.45967577648685,
    "lon": 10.284803520830776,
    "website": "http://www.emporia.edu/"
  },
  {
    "name": "Erie Community College",
    "country": "United States",
    "lat": 51.79620430136648,
    "lon": 9.746540215698579,
    "website": "http://www.ecc.edu/"
  },
  {
    "name": "Lake Erie College of Osteopathic Medicine",
    "country": "United States",
    "lat": 50.711509526069136,
    "lon": 9.102982354754467,
    "website": "https://lecom.edu/"
  },
  {
    "name": "East Texas Baptist University",
    "country": "United States",
    "lat": 52.49376983118932,
    "lon": 10.039300734848384,
    "website": "https://www.etbu.edu/"
  },
  {
    "name": "Evergreen State College",
    "country": "United States",
    "lat": 52.427866965747185,
    "lon": 9.516633089704442,
    "website": "http://www.evergreen.edu/"
  },
  {
    "name": "Fairleigh Dickinson University",
    "country": "United States",
    "lat": 52.21567647043968,
    "lon": 10.42937291822531,
    "website": "http://www.fdu.edu/"
  },
  {
    "name": "Fairmont State College",
    "country": "United States",
    "lat": 51.84705944051086,
    "lon": 10.152092604462558,
    "website": "http://www.fairmontstate.edu/"
  },
  {
    "name": "Fayetteville State University",
    "country": "United States",
    "lat": 50.79628725870064,
    "lon": 10.535020028019494,
    "website": "http://www.uncfsu.edu/"
  },
  {
    "name": "Ferris State University",
    "country": "United States",
    "lat": 52.05027012342408,
    "lon": 9.318725946764065,
    "website": "http://www.ferris.edu/"
  },
  {
    "name": "Fielding Institute",
    "country": "United States",
    "lat": 52.36967770819451,
    "lon": 10.381994199039486,
    "website": "http://www.fielding.edu/"
  },
  {
    "name": "Fisk University",
    "country": "United States",
    "lat": 51.806863727844714,
    "lon": 10.421776975936105,
    "website": "http://www.fisk.edu/"
  },
  {
    "name": "Fitchburg State College",
    "country": "United States",
    "lat": 51.71400658343347,
    "lon": 10.821334832574426,
    "website": "http://www.fsc.edu/"
  },
  {
    "name": "Florida Agricultural and Mechanical University",
    "country": "United States",
    "lat": 51.833134352791134,
    "lon": 9.90419915425688,
    "website": "http://www.famu.edu/"
  },
  {
    "name": "Florida Atlantic University",
    "country": "United States",
    "lat": 51.78625659471466,
    "lon": 9.695748164761866,
    "website": "http://www.fau.edu/"
  },
  {
    "name": "Florida Gulf Coast University",
    "country": "United States",
    "lat": 51.15203304746914,
    "lon": 9.448532421003215,
    "website": "http://www.fgcu.edu/"
  },
  {
    "name": "Florida Institute of Technology",
    "country": "United States",
    "lat": 51.985498976580566,
    "lon": 10.528769544929279,
    "website": "http://www.fit.edu/"
  },
  {
    "name": "Florida International University",
    "country": "United States",
    "lat": 52.068669523098315,
    "lon": 10.654002552711468,
    "website": "http://www.fiu.edu/"
  },
  {
    "name": "Florida State University",
    "country": "United States",
    "lat": 52.309865553201455,
    "lon": 10.650586052929965,
    "website": "http://www.fsu.edu/"
  },
  {
    "name": "Fontbonne College",
    "country": "United States",
    "lat": 51.61531828520332,
    "lon": 10.893961720269052,
    "website": "http://www.fontbonne.edu/"
  },
  {
    "name": "Fordham University",
    "country": "United States",
    "lat": 52.10793094889666,
    "lon": 10.521751630619896,
    "website": "http://www.fordham.edu/"
  },
  {
    "name": "Fort Hays State University",
    "country": "United States",
    "lat": 52.35428380443623,
    "lon": 9.135087105702645,
    "website": "http://www.fhsu.edu/"
  },
  {
    "name": "Fort Lewis College",
    "country": "United States",
    "lat": 51.57390260740535,
    "lon": 10.768565503386228,
    "website": "http://www.fortlewis.edu/"
  },
  {
    "name": "Fountainhead College of Technology",
    "country": "United States",
    "lat": 52.066195713909075,
    "lon": 9.428795357161182,
    "website": "http://fountainheadcollege.edu/"
  },
  {
    "name": "Franklin and Marshall College",
    "country": "United States",
    "lat": 50.61859165977254,
    "lon": 10.604363482964994,
    "website": "http://www.fandm.edu/"
  },
  {
    "name": "Franklin Pierce Law Center",
    "country": "United States",
    "lat": 51.9705030902941,
    "lon": 9.109478957660171,
    "website": "http://www.fplc.edu/"
  },
  {
    "name": "Franklin University",
    "country": "United States",
    "lat": 52.21315508390752,
    "lon": 10.446455602356272,
    "website": "http://www.franklin.edu/"
  },
  {
    "name": "Frederick Community College",
    "country": "United States",
    "lat": 50.832873926855335,
    "lon": 9.942245273358566,
    "website": "http://www.frederick.edu/"
  },
  {
    "name": "Fresno Pacific University",
    "country": "United States",
    "lat": 52.212741573707994,
    "lon": 9.395862981973272,
    "website": "http://www.fresno.edu/"
  },
  {
    "name": "Friends University",
    "country": "United States",
    "lat": 50.80289164597675,
    "lon": 10.213021427887565,
    "website": "http://www.friends.edu/"
  },
  {
    "name": "Frostburg State University",
    "country": "United States",
    "lat": 51.001433650668545,
    "lon": 9.871209873668757,
    "website": "http://www.frostburg.edu/"
  },
  {
    "name": "Fuller Theological Seminary",
    "country": "United States",
    "lat": 51.482902678687054,
    "lon": 10.223884068114229,
    "website": "http://www.fuller.edu/"
  },
  {
    "name": "Furman University",
    "country": "United States",
    "lat": 50.75671460559948,
    "lon": 9.677653242573818,
    "website": "http://www.furman.edu/"
  },
  {
    "name": "Futureworks",
    "country": "United Kingdom",
    "lat": 51.30331354570033,
    "lon": 10.128142784235722,
    "website": "https://futureworks.ac.uk/"
  },
  {
    "name": "Gallaudet University",
    "country": "United States",
    "lat": 52.00755999599635,
    "lon": 9.504543464606783,
    "website": "http://www.gallaudet.edu/"
  },
  {
    "name": "Gannon University",
    "country": "United States",
    "lat": 50.81532760867945,
    "lon": 10.81480134236511,
    "website": "http://www.gannon.edu/"
  },
  {
    "name": "Geneva College",
    "country": "United States",
    "lat": 52.08009064167398,
    "lon": 9.532176679623815,
    "website": "http://www.geneva.edu/"
  },
  {
    "name": "George Fox College",
    "country": "United States",
    "lat": 51.48685778658832,
    "lon": 10.347183299146472,
    "website": "http://www.gfc.edu/"
  },
  {
    "name": "George Mason University",
    "country": "United States",
    "lat": 52.3085824475918,
    "lon": 10.673689124127058,
    "website": "http://www.gmu.edu/"
  },
  {
    "name": "Georgetown University",
    "country": "United States",
    "lat": 50.5305896124926,
    "lon": 10.418772800849734,
    "website": "http://www.georgetown.edu/"
  },
  {
    "name": "George Washington University",
    "country": "United States",
    "lat": 51.17952735380342,
    "lon": 9.251878329367894,
    "website": "http://www.gwu.edu/"
  },
  {
    "name": "Georgia College",
    "country": "United States",
    "lat": 50.864708288590016,
    "lon": 9.969082147382254,
    "website": "http://www.gcsu.edu/"
  },
  {
    "name": "Georgia Institute of Technology",
    "country": "United States",
    "lat": 51.78147564300241,
    "lon": 9.452341291522593,
    "website": "http://www.gatech.edu/"
  },
  {
    "name": "Georgian Court University",
    "country": "United States",
    "lat": 52.454946599526366,
    "lon": 9.338521371456173,
    "website": "http://www.georgian.edu/"
  },
  {
    "name": "Georgia Southern University",
    "country": "United States",
    "lat": 51.701433538715975,
    "lon": 10.23214674672034,
    "website": "http://www.georgiasouthern.edu/"
  },
  {
    "name": "Georgia Southwestern State University",
    "country": "United States",
    "lat": 50.84958477608964,
    "lon": 9.455518587125791,
    "website": "http://gsw.edu/"
  },
  {
    "name": "Georgia State University",
    "country": "United States",
    "lat": 51.676204858174096,
    "lon": 10.521928942073096,
    "website": "http://www.gsu.edu/"
  },
  {
    "name": "Gettysburg College",
    "country": "United States",
    "lat": 51.213101264583834,
    "lon": 9.45812486133294,
    "website": "http://www.gettysburg.edu/"
  },
  {
    "name": "GMI Engineering and Management Institute",
    "country": "United States",
    "lat": 50.805314011231054,
    "lon": 10.310954829816557,
    "website": "http://www.gmi.edu/"
  },
  {
    "name": "Golden Gate University",
    "country": "United States",
    "lat": 52.310462590439045,
    "lon": 9.402009936999459,
    "website": "http://www.ggu.edu/"
  },
  {
    "name": "Goldey-Beacom College",
    "country": "United States",
    "lat": 51.57625541352838,
    "lon": 10.081918914931709,
    "website": "http://www.gbc.edu/"
  },
  {
    "name": "Gonzaga University",
    "country": "United States",
    "lat": 51.13359031195406,
    "lon": 9.452549185507833,
    "website": "http://www.gonzaga.edu/"
  },
  {
    "name": "Goshen College",
    "country": "United States",
    "lat": 51.762463761658935,
    "lon": 9.386809328947548,
    "website": "http://www.goshen.edu/"
  },
  {
    "name": "Goucher College",
    "country": "United States",
    "lat": 52.290316206899575,
    "lon": 9.761597288045644,
    "website": "http://www.goucher.edu/"
  },
  {
    "name": "Governors State University",
    "country": "United States",
    "lat": 52.06983713448386,
    "lon": 10.669739318110354,
    "website": "http://www.govst.edu/"
  },
  {
    "name": "Grace College",
    "country": "United States",
    "lat": 50.560050901354046,
    "lon": 9.890417215426185,
    "website": "http://www.grace.edu/"
  },
  {
    "name": "Graceland College",
    "country": "United States",
    "lat": 51.260347897225,
    "lon": 9.0926606674133,
    "website": "http://www.graceland.edu/"
  },
  {
    "name": "Grand Valley State University",
    "country": "United States",
    "lat": 52.17845918352424,
    "lon": 9.427944114064177,
    "website": "http://www.gvsu.edu/"
  },
  {
    "name": "Greenleaf University",
    "country": "United States",
    "lat": 50.763545598004356,
    "lon": 10.807260518568109,
    "website": "http://www.greenleaf.edu/"
  },
  {
    "name": "Grinnell College",
    "country": "United States",
    "lat": 51.78313274637431,
    "lon": 9.878105833409771,
    "website": "http://www.grinnell.edu/"
  },
  {
    "name": "Guilford College",
    "country": "United States",
    "lat": 51.15781292869302,
    "lon": 10.780830925790971,
    "website": "http://www.guilford.edu/"
  },
  {
    "name": "Gustavus Adolphus College",
    "country": "United States",
    "lat": 51.383220568234734,
    "lon": 9.361942253702537,
    "website": "https://www.gac.edu/"
  },
  {
    "name": "Hagerstown Community College",
    "country": "United States",
    "lat": 52.17453881419263,
    "lon": 10.445350916012542,
    "website": "http://www.hagerstowncc.edu/"
  },
  {
    "name": "Hamilton College",
    "country": "United States",
    "lat": 50.86504514501298,
    "lon": 10.336477964440478,
    "website": "http://www.hamilton.edu/"
  },
  {
    "name": "Hamline University",
    "country": "United States",
    "lat": 50.7431253757895,
    "lon": 10.742785193790859,
    "website": "http://www.hamline.edu/"
  },
  {
    "name": "Hampden-Sydney College",
    "country": "United States",
    "lat": 52.31631432396118,
    "lon": 9.502343563755465,
    "website": "http://www.hsc.edu/"
  },
  {
    "name": "Hampshire College",
    "country": "United States",
    "lat": 52.106549178881785,
    "lon": 10.459804814398638,
    "website": "http://www.hampshire.edu/"
  },
  {
    "name": "Hampton University",
    "country": "United States",
    "lat": 50.874732755188404,
    "lon": 9.546125406167382,
    "website": "http://www.hamptonu.edu/"
  },
  {
    "name": "Hanover College",
    "country": "United States",
    "lat": 51.99518701853137,
    "lon": 9.833540342055258,
    "website": "http://www.hanover.edu/"
  },
  {
    "name": "Harding University",
    "country": "United States",
    "lat": 51.2388521720554,
    "lon": 10.351368729770238,
    "website": "http://www.harding.edu/"
  },
  {
    "name": "Harford Community College",
    "country": "United States",
    "lat": 51.496440120306126,
    "lon": 10.806609097912467,
    "website": "http://www.harford.edu/"
  },
  {
    "name": "Hartwick College",
    "country": "United States",
    "lat": 52.268342566247476,
    "lon": 10.309483654986147,
    "website": "http://www.hartwick.edu/"
  },
  {
    "name": "Harvard University",
    "country": "United States",
    "lat": 50.89315981266245,
    "lon": 10.84828361463082,
    "website": "http://www.harvard.edu/"
  },
  {
    "name": "Harvey Mudd College",
    "country": "United States",
    "lat": 50.53137492363836,
    "lon": 9.990327831971022,
    "website": "http://www.hmc.edu/"
  },
  {
    "name": "Haskell Indian Nations University",
    "country": "United States",
    "lat": 51.52476447438015,
    "lon": 10.518857538918475,
    "website": "http://www.haskell.edu/"
  },
  {
    "name": "Hastings College",
    "country": "United States",
    "lat": 50.948497541669404,
    "lon": 10.725232972473506,
    "website": "http://www.hastings.edu/"
  },
  {
    "name": "Haverford College in Pennsylvania",
    "country": "United States",
    "lat": 51.967069457894446,
    "lon": 10.326815286886184,
    "website": "http://www.haverford.edu/"
  },
  {
    "name": "Hawaii Pacific University",
    "country": "United States",
    "lat": 51.69481455933215,
    "lon": 10.013349157763106,
    "website": "http://www.hpu.edu/"
  },
  {
    "name": "Heidelberg College",
    "country": "United States",
    "lat": 51.763058013619066,
    "lon": 10.155541745325817,
    "website": "http://www.heidelberg.edu/"
  },
  {
    "name": "Hendrix College",
    "country": "United States",
    "lat": 52.024114305346885,
    "lon": 9.539873281271674,
    "website": "http://www.hendrix.edu/"
  },
  {
    "name": "Hesston College",
    "country": "United States",
    "lat": 50.66094636058746,
    "lon": 9.124739142701497,
    "website": "http://www.hesston.edu/"
  },
  {
    "name": "High Point University",
    "country": "United States",
    "lat": 52.46022612994947,
    "lon": 9.067020608522634,
    "website": "http://www.highpoint.edu/"
  },
  {
    "name": "Hillsdale College",
    "country": "United States",
    "lat": 51.19229971417244,
    "lon": 9.432165577068334,
    "website": "http://www.hillsdale.edu/"
  },
  {
    "name": "Hiram College",
    "country": "United States",
    "lat": 51.33014226575519,
    "lon": 10.946838372919789,
    "website": "http://www.hiram.edu/"
  },
  {
    "name": "Hobart and William Smith Colleges",
    "country": "United States",
    "lat": 50.641718781816714,
    "lon": 10.729247557830629,
    "website": "http://www.hws.edu/"
  },
  {
    "name": "Hofstra University",
    "country": "United States",
    "lat": 51.277230162239064,
    "lon": 10.498998041178043,
    "website": "http://www.hofstra.edu/"
  },
  {
    "name": "Hollins College",
    "country": "United States",
    "lat": 51.093166082095685,
    "lon": 9.081905508084965,
    "website": "http://www.hollins.edu/"
  },
  {
    "name": "Hood College",
    "country": "United States",
    "lat": 51.07441439090292,
    "lon": 10.363051697953164,
    "website": "http://www.hood.edu/"
  },
  {
    "name": "Hope College",
    "country": "United States",
    "lat": 50.60190976266186,
    "lon": 9.792427337625483,
    "website": "http://www.hope.edu/"
  },
  {
    "name": "Howard Community College",
    "country": "United States",
    "lat": 51.4544220116745,
    "lon": 9.894154167604576,
    "website": "http://www.howardcc.edu/"
  },
  {
    "name": "Howard University",
    "country": "United States",
    "lat": 50.60413001931046,
    "lon": 10.104248807283042,
    "website": "http://www.howard.edu/"
  },
  {
    "name": "Humboldt State University",
    "country": "United States",
    "lat": 51.64228604703856,
    "lon": 10.174430138740295,
    "website": "http://www.humboldt.edu/"
  },
  {
    "name": "Huntingdon College",
    "country": "United States",
    "lat": 50.61659601880161,
    "lon": 9.851571403189757,
    "website": "http://www.huntingdon.edu/"
  },
  {
    "name": "Huntington University",
    "country": "United States",
    "lat": 52.43710266043102,
    "lon": 10.895613119964052,
    "website": "http://www.huntington.edu/"
  },
  {
    "name": "ICI University",
    "country": "United States",
    "lat": 50.73364803173564,
    "lon": 9.591028089162927,
    "website": "http://www.ici.edu/"
  },
  {
    "name": "Idaho State University",
    "country": "United States",
    "lat": 50.78010844891297,
    "lon": 10.250337425809995,
    "website": "http://www.isu.edu/"
  },
  {
    "name": "Illinois Benedictine College",
    "country": "United States",
    "lat": 52.0110281567876,
    "lon": 10.554746973537192,
    "website": "http://www.ibc.edu/"
  },
  {
    "name": "Illinois Institute of Technology",
    "country": "United States",
    "lat": 50.67550723331904,
    "lon": 9.129299934005115,
    "website": "http://www.iit.edu/"
  },
  {
    "name": "Illinois State University",
    "country": "United States",
    "lat": 50.5512266980021,
    "lon": 9.410516044194331,
    "website": "http://www.illinoisstate.edu/"
  },
  {
    "name": "Indiana Institute of Technology",
    "country": "United States",
    "lat": 52.33670732619249,
    "lon": 9.070138456989518,
    "website": "http://www.indianatech.edu/"
  },
  {
    "name": "Indiana State University",
    "country": "United States",
    "lat": 50.86684906874235,
    "lon": 10.243600228411676,
    "website": "http://www.indstate.edu/"
  },
  {
    "name": "Indiana University",
    "country": "United States",
    "lat": 51.05976232493269,
    "lon": 10.849073968770877,
    "website": "http://www.iu.edu/"
  },
  {
    "name": "Indiana University - Bloomington",
    "country": "United States",
    "lat": 51.200603153691176,
    "lon": 9.467622372664948,
    "website": "https://bloomington.iu.edu/"
  },
  {
    "name": "Indiana University at South Bend",
    "country": "United States",
    "lat": 51.40478450173974,
    "lon": 10.146793058342546,
    "website": "http://www.iusb.edu/"
  },
  {
    "name": "Indiana University of Pennsylvania",
    "country": "United States",
    "lat": 51.070958227674645,
    "lon": 9.564383424821006,
    "website": "http://www.iup.edu/"
  },
  {
    "name": "Indiana University/Purdue University at Columbus",
    "country": "United States",
    "lat": 52.30560014061308,
    "lon": 10.292574563867486,
    "website": "http://www.iupuc.edu/"
  },
  {
    "name": "Indiana University/Purdue University at Fort Wayne",
    "country": "United States",
    "lat": 51.65008478105999,
    "lon": 9.682024976042637,
    "website": "http://www.ipfw.edu/"
  },
  {
    "name": "Indiana University/Purdue University at Indianapolis",
    "country": "United States",
    "lat": 51.44976414398839,
    "lon": 10.962664398851553,
    "website": "http://www.iupui.edu/"
  },
  {
    "name": "Indiana University Southeast",
    "country": "United States",
    "lat": 51.670982296872545,
    "lon": 9.700236863066777,
    "website": "http://www.ius.edu/"
  },
  {
    "name": "Indiana Wesleyan University, Marion",
    "country": "United States",
    "lat": 52.47619412713774,
    "lon": 10.378127543731239,
    "website": "http://www.indwes.edu/"
  },
  {
    "name": "Institute for Advanced Study",
    "country": "United States",
    "lat": 52.05419570467528,
    "lon": 10.642507489243993,
    "website": "http://www.ias.edu/"
  },
  {
    "name": "Institute for World Politics",
    "country": "United States",
    "lat": 51.17609865029381,
    "lon": 10.312041497322912,
    "website": "http://www.iwp.edu/"
  },
  {
    "name": "Iona College",
    "country": "United States",
    "lat": 51.858339045998996,
    "lon": 9.56919906339589,
    "website": "http://www.iona.edu/"
  },
  {
    "name": "Iowa State University",
    "country": "United States",
    "lat": 50.9954963502904,
    "lon": 10.99689822677366,
    "website": "http://www.iastate.edu/"
  },
  {
    "name": "Irvine Valley College",
    "country": "United States",
    "lat": 50.97893770770302,
    "lon": 9.180282273157356,
    "website": "http://www.ivc.edu/"
  },
  {
    "name": "Ithaca College",
    "country": "United States",
    "lat": 51.267152554808774,
    "lon": 9.305072185723684,
    "website": "http://www.ithaca.edu/"
  },
  {
    "name": "Jackson State University",
    "country": "United States",
    "lat": 50.71705286814776,
    "lon": 10.596815903037491,
    "website": "http://www.jsums.edu/"
  },
  {
    "name": "Jacksonville State University",
    "country": "United States",
    "lat": 52.395121133047425,
    "lon": 9.224790388462852,
    "website": "http://www.jsu.edu/"
  },
  {
    "name": "Jacksonville University",
    "country": "United States",
    "lat": 51.56768177631877,
    "lon": 9.53406231548584,
    "website": "http://www.ju.edu/"
  },
  {
    "name": "James Madison University",
    "country": "United States",
    "lat": 51.242179202955285,
    "lon": 9.9883598809714,
    "website": "http://www.jmu.edu/"
  },
  {
    "name": "John Brown University",
    "country": "United States",
    "lat": 51.00391529552006,
    "lon": 10.375687514670238,
    "website": "http://www.jbu.edu/"
  },
  {
    "name": "John F. Kennedy University",
    "country": "United States",
    "lat": 52.099944683910635,
    "lon": 10.332753182441058,
    "website": "http://www.jfku.edu/"
  },
  {
    "name": "Johns Hopkins University",
    "country": "United States",
    "lat": 51.663927997732046,
    "lon": 9.110385672199822,
    "website": "http://www.jhu.edu/"
  },
  {
    "name": "Johns Hopkins University Applied Physics Laboratory",
    "country": "United States",
    "lat": 50.82481501424552,
    "lon": 10.345518728784384,
    "website": "http://www.jhuapl.edu/"
  },
  {
    "name": "Johnson & Wales University",
    "country": "United States",
    "lat": 50.728262086972755,
    "lon": 10.830486921405333,
    "website": "http://www.jwu.edu/"
  },
  {
    "name": "Johnson Bible College",
    "country": "United States",
    "lat": 50.931470501951196,
    "lon": 9.172145548785348,
    "website": "http://www.jbc.edu/"
  },