[
  {
    "name": "IU Internationale Hochschule GmbH",
    "country": "Germany",
    "lat": 51.8325948808106,
    "lon": 10.656057235168745,
    "website": "https://www.iu-fernstudium.de/"
  },
  {
    "name": "AKAD Hochschulen f\u00fcr Berufst\u00e4tige, Fachhochschule Leipzig",
    "country": "Germany",
    "lat": 51.64979087758423,
    "lon": 10.592967499781711,
    "website": "http://www.akad.de/"
  },
  {
    "name": "Alice-Salomon-Fachhochschule f\u00fcr Sozialarbeit und Sozialp\u00e4dagogik Berlin",
    "country": "Germany",
    "lat": 51.890514097334226,
    "lon": 10.59818755894776,
    "website": "http://www.asfh-berlin.de/"
  },
  {
    "name": "Augustana Hochschule Neuendettelsau",
    "country": "Germany",
    "lat": 52.017695305845585,
    "lon": 10.069186238788042,
    "website": "http://www.augustana.de/"
  },
  {
    "name": "Kirchliche Hochschule Bethel",
    "country": "Germany",
    "lat": 52.05166086947555,
    "lon": 9.787231574928041,
    "website": "http://www.bethel.de/"
  },
  {
    "name": "BiTS - Business and Information Technology School gGmbH",
    "country": "Germany",
    "lat": 51.795329202248425,
    "lon": 10.904862872476237,
    "website": "http://www.bits-iserlohn.de/"
  },
  {
    "name": "Cologne Business School",
    "country": "Germany",
    "lat": 51.77048146889766,
    "lon": 9.79426655081905,
    "website": "http://www.cbs.de/"
  },
  {
    "name": "CODE University of Applied Sciences Berlin",
    "country": "Germany",
    "lat": 51.49853244144449,
    "lon": 11.206150549858918,
    "website": "http://code.berlin/"
  },
  {
    "name": "Deutsche Hochschule f\u00fcr Verwaltungswissenschaften Speyer",
    "country": "Germany",
    "lat": 51.4390434714089,
    "lon": 11.057576172704097,
    "website": "http://www.dhv-speyer.de/"
  },
  {
    "name": "DIPLOMA-Fachhochschule \u00d6lsnitz/Vogtland",
    "country": "Germany",
    "lat": 51.955273303925956,
    "lon": 10.435591552890767,
    "website": "http://www.diploma.de/"
  },
  {
    "name": "Deutsche Sporthochschule K\u00f6ln",
    "country": "Germany",
    "lat": 51.341187616127684,
    "lon": 10.364593202684913,
    "website": "http://www.dshs-koeln.de/"
  },
  {
    "name": "E.A.P. Europ\u00e4ische Wirtschaftshochschule Berlin",
    "country": "Germany",
    "lat": 51.763297876128505,
    "lon": 10.719951475798444,
    "website": "http://www.eap.net/"
  },
  {
    "name": "Europ\u00e4ische Betriebswirtschafts-Akademie",
    "country": "Germany",
    "lat": 51.20853207495878,
    "lon": 10.19457059192898,
    "website": "http://www.eba-muenchen.de/"
  },
  {
    "name": "European Business School Schlo\u00df Reichartshausen",
    "country": "Germany",
    "lat": 51.00711193588633,
    "lon": 9.840623597223825,
    "website": "http://www.ebs.de/"
  },
  {
    "name": "European College of Liberal Arts",
    "country": "Germany",
    "lat": 51.3414584181259,
    "lon": 11.198014238241297,
    "website": "http://www.ecla.de/"
  },
  {
    "name": "Evangelische Fachhochschule Rheinland-Westfalen-Lippe",
    "country": "Germany",
    "lat": 52.25560102210204,
    "lon": 10.726187043222115,
    "website": "http://www.efh-bochum.de/"
  },
  {
    "name": "Evangelische Fachhochschule Darmstadt",
    "country": "Germany",
    "lat": 50.60584806979589,
    "lon": 10.294430300981439,
    "website": "https://www.eh-darmstadt.de/"
  },
  {
    "name": "Evangelische Fachhochschule Freiburg, Hochschule f\u00fcr Soziale Arbeit, Diakonie und Religionsp\u00e4dagogik",
    "country": "Germany",
    "lat": 50.651262941466996,
    "lon": 10.67958840713545,
    "website": "http://www.efh-freiburg.de/"
  },
  {
    "name": "Evangelische Fachhochschule Hannover",
    "country": "Germany",
    "lat": 50.66212512136518,
    "lon": 11.456161700953876,
    "website": "http://www.efh-hannover.de/"
  },
  {
    "name": "Evangelische Fachhochschule Ludwigshafen Hochschule f\u00fcr Sozial- und Gesundheitswesen",
    "country": "Germany",
    "lat": 50.82107956780523,
    "lon": 9.709657476105573,
    "website": "http://www.efhlu.de/"
  },
  {
    "name": "Evangelische Fachhochschule Reutlingen-Ludwigsburg, Hochschule f\u00fcr Soziale Arbeit, Religionsp\u00e4dagogik und Diakonie",
    "country": "Germany",
    "lat": 50.91949121397969,
    "lon": 10.494715314340072,
    "website": "http://www.efh-reutlingen-ludwigsburg.de/"
  },
  {
    "name": "Evangelische Hochschule f\u00fcr Soziale Arbeit Dresden (FH)",
    "country": "Germany",
    "lat": 52.34485084754562,
    "lon": 10.295298900537711,
    "website": "http://www.ehs-dresden.de/"
  },
  {
    "name": "European Management School",
    "country": "Germany",
    "lat": 50.56945509610645,
    "lon": 11.351321982490013,
    "website": "http://www.ems-mainz.de/"
  },
  {
    "name": "Europ\u00e4ische Fachhochschule",
    "country": "Germany",
    "lat": 52.242736597380045,
    "lon": 11.029497248594536,
    "website": "http://www.eufh.de/"
  },
  {
    "name": "Europa-Universit\u00e4t Viadrina Frankfurt (Oder)",
    "country": "Germany",
    "lat": 51.38555057766281,
    "lon": 9.533100425179143,
    "website": "http://www.euv-frankfurt-o.de/"
  },
  {
    "name": "Evangelische Fachhochschule Berlin, Fachhochschule f\u00fcr Sozialarbeit und Sozialp\u00e4dagogik",
    "country": "Germany",
    "lat": 51.6610686812862,
    "lon": 11.370500895545046,
    "website": "http://www.evfh-berlin.de/"
  },
  {
    "name": "Evangelische Fachhochschule N\u00fcrnberg",
    "country": "Germany",
    "lat": 51.18531872729632,
    "lon": 11.038818701700619,
    "website": "http://www.evfh-nuernberg.de/"
  },
  {
    "name": "Fern-Fachhochschule Hamburg",
    "country": "Germany",
    "lat": 50.76823912255868,
    "lon": 10.12535132280426,
    "website": "http://www.fern-fh.de/"
  },
  {
    "name": "Fernuniversit\u00e4t Gesamthochschule Hagen",
    "country": "Germany",
    "lat": 51.61043773415601,
    "lon": 9.779062998043912,
    "website": "http://www.fernuni-hagen.de/"
  },
  {
    "name": "Fachhochschule Aachen",
    "country": "Germany",
    "lat": 52.369591287280315,
    "lon": 10.629032801184332,
    "website": "http://www.fh-aachen.de/"
  },
  {
    "name": "Fachhochschule Aschaffenburg",
    "country": "Germany",
    "lat": 52.271097947639994,
    "lon": 10.372062727743476,
    "website": "http://www.fh-aschaffenburg.de/"
  },
  {
    "name": "Technical University of Applied Sciences Augsburg",
    "country": "Germany",
    "lat": 50.83075265001247,
    "lon": 11.01088114765768,
    "website": "https://www.tha.de/"
  },
  {
    "name": "Internationale Fachhochschule Bad Honnef",
    "country": "Germany",
    "lat": 51.341952968272125,
    "lon": 10.521357359496857,
    "website": "http://www.fh-bad-honnef.de/"
  },
  {
    "name": "Fachhochschule Biberach, Hochschule f\u00fcr Bauwesen und Wirtschaft",
    "country": "Germany",
    "lat": 51.89649595845721,
    "lon": 11.263063290630576,
    "website": "http://www.fh-biberach.de/"
  },
  {
    "name": "Fachhochschule Bielefeld",
    "country": "Germany",
    "lat": 51.66750190458744,
    "lon": 10.123498251622918,
    "website": "http://www.fh-bielefeld.de/"
  },
  {
    "name": "Fachhochschule Bingen",
    "country": "Germany",
    "lat": 51.9216274070417,
    "lon": 10.545767286876709,
    "website": "http://www.fh-bingen.de/"
  },
  {
    "name": "Fachhochschule Bochum",
    "country": "Germany",
    "lat": 52.175349828557124,
    "lon": 10.4400874874264,
    "website": "http://www.fh-bochum.de/"
  },
  {
    "name": "Hochschule Bonn-Rhein-Sieg",
    "country": "Germany",
    "lat": 51.12847473197607,
    "lon": 9.573640281537791,
    "website": "http://www.hochschule-bonn-rhein-sieg.de/"
  },
  {
    "name": "Fachhochschule Brandenburg",
    "country": "Germany",
    "lat": 50.53076412960499,
    "lon": 10.548275708062823,
    "website": "http://www.fh-brandenburg.de/"
  },
  {
    "name": "Technische Hochschule Brandenburg",
    "country": "Germany",
    "lat": 51.524727961365556,
    "lon": 10.193049426785983,
    "website": "http://www.th-brandenburg.de/"
  },
  {
    "name": "Technische Hochschule Deggendorf",
    "country": "Germany",
    "lat": 50.50759862465578,
    "lon": 9.821217826101908,
    "website": "http://www.th-deg.de/"
  },
  {
    "name": "Fachhochschule Dortmund",
    "country": "Germany",
    "lat": 52.1469571089586,
    "lon": 11.174522508492569,
    "website": "http://www.fh-dortmund.de/"
  },
  {
    "name": "Hochschule D\u00fcsseldorf",
    "country": "Germany",
    "lat": 51.742407263974066,
    "lon": 10.207437540155885,
    "website": "http://www.hs-duesseldorf.de/"
  },
  {
    "name": "Fachhochschule f\u00fcr die Wirtschaft",
    "country": "Germany",
    "lat": 50.64361190813423,
    "lon": 9.710229618606908,
    "website": "http://www.fhdw.bib.de/"
  },
  {
    "name": "Fachhochschule der Wirtschaft",
    "country": "Germany",
    "lat": 51.84928765637962,
    "lon": 10.187524942082316,
    "website": "http://www.fhdw.de/"
  },
  {
    "name": "Fachhochschule Eberswalde",
    "country": "Germany",
    "lat": 51.185264031185646,
    "lon": 10.353714913947945,
    "website": "http://www.fh-eberswalde.de/"
  },
  {
    "name": "Fachhochschule Erfurt",
    "country": "Germany",
    "lat": 50.939607771751405,
    "lon": 9.664438400145489,
    "website": "http://www.fh-erfurt.de/"
  },
  {
    "name": "Fachhochschule Flensburg",
    "country": "Germany",
    "lat": 51.50288458950936,
    "lon": 10.390119616029084,
    "website": "http://www.fh-flensburg.de/"
  },
  {
    "name": "Fachhochschule Frankfurt am Main",
    "country": "Germany",
    "lat": 52.0440432324029,
    "lon": 10.811671011314765,
    "website": "http://www.fh-frankfurt.de/"
  },
  {
    "name": "Europa Fachhochschule Fresenius",
    "country": "Germany",
    "lat": 51.98697838708255,
    "lon": 9.509617015173648,
    "website": "http://www.fh-fresenius.de/"
  },
  {
    "name": "Fachhochschule Furtwangen, Hochschule f\u00fcr Technik und Wirtschaft",
    "country": "Germany",
    "lat": 51.27099483402076,
    "lon": 10.317784441782146,
    "website": "http://www.fh-furtwangen.de/"
  },
  {
    "name": "Fachhochschule Gelsenkirchen",
    "country": "Germany",
    "lat": 52.472921258220666,
    "lon": 9.636658835188483,
    "website": "http://www.fh-gelsenkirchen.de/"
  },
  {
    "name": "Fachhochschule Gie\u00dfen-Friedberg",
    "country": "Germany",
    "lat": 52.350981557821996,
    "lon": 10.992519864037215,
    "website": "http://www.fh-giessen.de/"
  },
  {
    "name": "Fachhochschule Hamburg",
    "country": "Germany",
    "lat": 51.61204763015564,
    "lon": 9.667764816861943,
    "website": "http://www.fh-hamburg.de/"
  },
  {
    "name": "Hamburg University of Applied Sciences (HAW Hamburg)",
    "country": "Germany",
    "lat": 51.81608253199915,
    "lon": 10.23533838575116,
    "website": "https://haw-hamburg.de/"
  },
  {
    "name": "Fachhochschule Hannover",
    "country": "Germany",
    "lat": 52.17225676073487,
    "lon": 10.111942448400619,
    "website": "http://www.fh-hannover.de/"
  },
  {
    "name": "Fachhochschule Heidelberg",
    "country": "Germany",
    "lat": 52.4392856988083,
    "lon": 10.81450624196297,
    "website": "http://www.fh-heidelberg.de/"
  },
  {
    "name": "Fachhochschule Heilbronn, Hochschule f\u00fcr Technik und Wirtschaft",
    "country": "Germany",
    "lat": 51.434031527129555,
    "lon": 11.35044182342295,
    "website": "http://www.fh-heilbronn.de/"
  },
  {
    "name": "Fachhochschule Hildesheim/Holzminden/G\u00f6ttingen, Hochschule f\u00fcr angewandte Wissenschaft und Kunst",
    "country": "Germany",
    "lat": 51.34156661466759,
    "lon": 10.041406882873375,
    "website": "http://www.fh-hildesheim.de/"
  },
  {
    "name": "Fachhochschule Hof",
    "country": "Germany",
    "lat": 51.31318851029642,
    "lon": 10.975585278892417,
    "website": "http://www.fh-hof.de/"
  },
  {
    "name": "Technische Hochschule Ingolstadt",
    "country": "Germany",
    "lat": 51.672330514732444,
    "lon": 10.663281902037252,
    "website": "https://www.thi.de/"
  },
  {
    "name": "Fachhochschule und Berufskollegs NTA, Prof.Dr. Gr\u00fcbler gemein. GmbH",
    "country": "Germany",
    "lat": 51.93087512857699,
    "lon": 11.391378078110575,
    "website": "http://www.fh-isny.de/"
  },
  {
    "name": "Fachhochschule Jena",
    "country": "Germany",
    "lat": 51.89747380030165,
    "lon": 11.198753495951506,
    "website": "http://www.fh-jena.de/"
  },
  {
    "name": "Fachhochschule Karlsruhe, Hochschule f\u00fcr Technik",
    "country": "Germany",
    "lat": 50.503656197800716,
    "lon": 11.48679858000545,
    "website": "http://www.fh-karlsruhe.de/"
  },
  {
    "name": "Fachhochschule Kempten, Hochschule f\u00fcr Technik und Wirtschaft",
    "country": "Germany",
    "lat": 52.06994753026301,
    "lon": 11.449892521144864,
    "website": "http://www.fh-Kempten.de/"
  },
  {
    "name": "Fachhochschule Kiel",
    "country": "Germany",
    "lat": 50.51507547824829,
    "lon": 10.020757894810695,
    "website": "http://www.fh-kiel.de/"
  },
  {
    "name": "Fachhochschule Kaiserslautern",
    "country": "Germany",
    "lat": 52.08148057563652,
    "lon": 10.015950318913477,
    "website": "http://www.fh-kl.de/"
  },
  {
    "name": "Fachhochschule Koblenz",
    "country": "Germany",
    "lat": 51.688402505639054,
    "lon": 10.94216022647313,
    "website": "http://www.fh-koblenz.de/"
  },
  {
    "name": "Technische Hochschule K\u00f6ln",
    "country": "Germany",
    "lat": 52.02705460102695,
    "lon": 11.044572251370106,
    "website": "https://www.th-koeln.de/"
  },
  {
    "name": "Fachhochschule Konstanz, Hochschule f\u00fcr Technik, Wirtschaft und Gestaltung",
    "country": "Germany",
    "lat": 51.14491668120665,
    "lon": 9.66315123797852,
    "website": "http://www.fh-konstanz.de/"
  },
  {
    "name": "Staatlich anerkannte Fachhochschule f\u00fcr Kunsttherapie",
    "country": "Germany",
    "lat": 50.911024027239684,
    "lon": 10.97465657746531,
    "website": "http://www.fhkt.de/"
  },
  {
    "name": "Fachhochschule Landshut, Hochschule f\u00fcr Wirtschaft - Sozialwesen - Technik",
    "country": "Germany",
    "lat": 51.290349870623935,
    "lon": 10.40083700142935,
    "website": "http://www.fh-landshut.de/"
  },
  {
    "name": "Fachhochschule Lausitz",
    "country": "Germany",
    "lat": 51.81051874196506,
    "lon": 9.795916990624342,
    "website": "http://www.fh-lausitz.de/"
  },
  {
    "name": "Fachhochschule Lippe",
    "country": "Germany",
    "lat": 51.33811840989435,
    "lon": 10.582998640520225,
    "website": "http://www.fh-lippe.de/"
  },
  {
    "name": "Fachhochschule Ludwigshafen, Hochschule f\u00fcr Wirtschaft",
    "country": "Germany",
    "lat": 50.8616369744947,
    "lon": 11.172909413227565,
    "website": "http://www.fh-ludwigshafen.de/"
  },
  {
    "name": "Fachhochschule L\u00fcbeck",
    "country": "Germany",
    "lat": 52.205251541935674,
    "lon": 9.972242175660533,
    "website": "http://www.fh-luebeck.de/"
  },
  {
    "name": "Fachhochschule Mainz",
    "country": "Germany",
    "lat": 50.91789509947792,
    "lon": 11.228134864541303,
    "website": "http://www.fh-mainz.de/"
  },
  {
    "name": "Fachhochschule Mannheim, Hochschule f\u00fcr Technik und Gestaltung",
    "country": "Germany",
    "lat": 50.75174193650501,
    "lon": 10.989743428460864,
    "website": "http://www.fh-mannheim.de/"
  },
  {
    "name": "Fachhochschule Merseburg",
    "country": "Germany",
    "lat": 50.97344898705398,
    "lon": 10.531645301037798,
    "website": "http://www.fh-merseburg.de/"
  },
  {
    "name": "Fachhochschule des Mittelstandes (FHM)",
    "country": "Germany",
    "lat": 51.494675151856306,
    "lon": 10.55229949900669,
    "website": "http://www.fhm-mittelstand.de/"
  },
  {
    "name": "Fachhochschule M\u00fcnchen",
    "country": "Germany",
    "lat": 50.729980920587636,
    "lon": 10.62377161667328,
    "website": "http://www.fh-muenchen.de/"
  },
  {
    "name": "Hochschule M\u00fcnchen",
    "country": "Germany",
    "lat": 51.303561409720515,
    "lon": 11.086011737303743,
    "website": "http://www.hm.edu/"
  },
  {
    "name": "Fachhochschule M\u00fcnster",
    "country": "Germany",
    "lat": 51.068327310198185,
    "lon": 10.982661679030983,
    "website": "http://www.fh-muenster.de/"
  },
  {
    "name": "Fachhochschule Neubrandenburg",
    "country": "Germany",
    "lat": 52.43764435248567,
    "lon": 9.666786333020292,
    "website": "http://www.fh-nb.de/"
  },
  {
    "name": "Hochschule Neu-Ulm, Hochschule Neu-Ulm University of applied sciences",
    "country": "Germany",
    "lat": 51.033177202543875,
    "lon": 10.997438532125638,
    "website": "http://www.hs-neu-ulm.de/"
  },
  {
    "name": "Fachhochschule Niederrhein",
    "country": "Germany",
    "lat": 50.90468645981938,
    "lon": 10.891040038078007,
    "website": "http://www.fh-niederrhein.de/"
  },
  {
    "name": "Fachhochschule Nordostniedersachsen",
    "country": "Germany",
    "lat": 52.25391376307165,
    "lon": 10.821397562514017,
    "website": "http://www.fhnon.de/"
  },
  {
    "name": "Fachhochschule Nordhausen",
    "country": "Germany",
    "lat": 51.989788128062685,
    "lon": 10.414259684110096,
    "website": "http://www.fh-nordhausen.de/"
  },
  {
    "name": "Georg-Simon-Ohm-Fachhochschule N\u00fcrnberg",
    "country": "Germany",
    "lat": 52.27496552844214,
    "lon": 9.874578830226902,
    "website": "http://www.fh-nuernberg.de/"
  },
  {
    "name": "Fachhochschule N\u00fcrtingen, Hochschule f\u00fcr Wirtschaft, Landwirtschaft und Landespflege",
    "country": "Germany",
    "lat": 52.396708063448635,
    "lon": 10.112837078190772,
    "website": "http://www.fh-nuertingen.de/"
  },
  {
    "name": "Fachhochschule f\u00fcr das \u00f6ffentliche Bibliothekswesen Bonn",
    "country": "Germany",
    "lat": 51.39611945611675,
    "lon": 10.387781160827704,
    "website": "http://www.fhoebb.de/"
  },
  {
    "name": "Fachhochschule Offenburg, Hochschule f\u00fcr Technik und Wirtschaft",
    "country": "Germany",
    "lat": 51.25175444740452,
    "lon": 10.695178984076415,
    "website": "http://www.fh-offenburg.de/"
  },
  {
    "name": "Fachhochschule Oldenburg/Ostfriesland/Wilhelmshaven",
    "country": "Germany",
    "lat": 52.46150451674055,
    "lon": 10.051871139424755,
    "website": "http://www.fh-oow.de/"
  },
  {
    "name": "Fachhochschule Osnabr\u00fcck",
    "country": "Germany",
    "lat": 51.803931456910775,
    "lon": 10.64950369135903,
    "website": "http://www.fh-osnabrueck.de/"
  },
  {
    "name": "Freie Kunst-Studienst\u00e4tte Ottersberg",
    "country": "Germany",
    "lat": 50.994448051616835,
    "lon": 11.286651588692834,
    "website": "http://www.fh-ottersberg.de/"
  },
  {
    "name": "Fachhochschule Pforzheim, Hochschule f\u00fcr Gestaltung, Technik und Wirtschaft",
    "country": "Germany",
    "lat": 51.95809405784019,
    "lon": 10.76016304664267,
    "website": "http://www.fh-pforzheim.de/"
  },
  {
    "name": "Fachhochschule Potsdam",
    "country": "Germany",
    "lat": 52.22845536777761,
    "lon": 11.304332058946976,
    "website": "http://www.fh-potsdam.de/"
  },
  {
    "name": "Fachhochschule Regensburg",
    "country": "Germany",
    "lat": 50.81049675700614,
    "lon": 11.078813481964204,
    "website": "http://www.fh-regensburg.de/"
  },
  {
    "name": "Fachhochschule Reutlingen, Hochschule f\u00fcr Technik und Wirtschaft",
    "country": "Germany",
    "lat": 51.67717619299357,
    "lon": 11.366319999140021,
    "website": "http://www.fh-reutlingen.de/"
  },
  {
    "name": "Deutsch-Ordens Fachhochschule Riedlingen, Hochschule f\u00fcr Wirtschaft",
    "country": "Germany",
    "lat": 50.98848985341787,
    "lon": 11.028520705525523,
    "website": "http://www.fh-riedlingen.de/"
  },
  {
    "name": "Fachhochschule Rosenheim, Hochschule f\u00fcr Technik und Wirtschaft",
    "country": "Germany",
    "lat": 52.355560913965526,
    "lon": 9.994381533810145,
    "website": "http://www.fh-rosenheim.de/"
  },
  {
    "name": "Fachhochschule Rottenburg, Hochschule f\u00fcr Forstwirtschaft",
    "country": "Germany",
    "lat": 52.49192853168423,
    "lon": 11.332673927015337,
    "website": "http://www.fh-rottenburg.de/"
  },
  {
    "name": "Fachhochschule Schmalkalden",
    "country": "Germany",
    "lat": 50.72227412638506,
    "lon": 11.277907667280417,
    "website": "http://www.fh-schmalkalden.de/"
  },
  {
    "name": "Fachhochschule Schw\u00e4bisch Hall, Hochschule f\u00fcr Gestaltung",
    "country": "Germany",
    "lat": 51.22107806691081,
    "lon": 10.467534977436886,
    "website": "http://www.fh-schwaebischhall.de/"
  },
  {
    "name": "Fachhochschule Mannheim, Hochschule f\u00fcr Sozialwesen",
    "country": "Germany",
    "lat": 52.19922184466119,
    "lon": 10.794120176844343,
    "website": "http://www.fhs-mannheim.de/"
  },
  {
    "name": "Evangelische Fachhochschule f\u00fcr Religionsp\u00e4dagogik, und Gemeindediakonie Moritzburg",
    "country": "Germany",
    "lat": 51.018023254230705,
    "lon": 10.022164717566298,
    "website": "http://www.fhs-moritzburg.de/"
  },
  {
    "name": "Fachhochschule Stralsund",
    "country": "Germany",
    "lat": 50.732330458812534,
    "lon": 10.088234346790934,
    "website": "http://www.fh-stralsund.de/"
  },
  {
    "name": "Deutsche Telekom Fachhochschule Leipzig",
    "country": "Germany",
    "lat": 52.426881819037966,
    "lon": 11.09864956052044,
    "website": "http://www.fh-telekom-leipzig.de/"
  },
  {
    "name": "Fachhochschule Trier, Hochschule f\u00fcr Technik, Wirtschaft und Gestaltung",
    "country": "Germany",
    "lat": 52.12449399464289,
    "lon": 10.059817857749263,
    "website": "http://www.fh-trier.de/"
  },
  {
    "name": "Fachhochschule Stuttgart, Hochschule f\u00fcr Technik",
    "country": "Germany",
    "lat": 52.42770505518502,
    "lon": 10.367990839879425,
    "website": "http://www.fht-stuttgart.de/"
  },
  {
    "name": "Hochschule f\u00fcr Technik und Wirtschaft Berlin",
    "country": "Germany",
    "lat": 51.497194664678744,
    "lon": 9.879739502905386,
    "website": "https://www.htw-berlin.de/"
  },
  {
    "name": "Hochschule Ulm, Hochschule f\u00fcr Angewandte Wissenschaft",
    "country": "Germany",
    "lat": 52.133827464423675,
    "lon": 10.528614931955444,
    "website": "http://www.hs-ulm.de/"
  },
  {
    "name": "Fachhochschule f\u00fcr Verwaltung und Rechtspflege Berlin",
    "country": "Germany",
    "lat": 50.775943156389616,
    "lon": 11.012076029926757,
    "website": "http://www.fhvr.berlin.de/"
  },
  {
    "name": "Fachhochschule f\u00fcr Wirtschaft Berlin",
    "country": "Germany",
    "lat": 50.77254294443613,
    "lon": 10.205568260829741,
    "website": "http://www.fhw-berlin.de/"
  },
  {
    "name": "Fachhochschule Wedel",
    "country": "Germany",
    "lat": 51.450597400743916,
    "lon": 10.640489091605907,
    "website": "http://www.fh-wedel.de/"
  },
  {
    "name": "Fachhochschule Weihenstephan",
    "country": "Germany",
    "lat": 50.64537264370307,
    "lon": 11.294683723881066,
    "website": "http://www.fh-weihenstephan.de/"
  },
  {
    "name": "Fachhochschule Ravensburg-Weingarten",
    "country": "Germany",
    "lat": 51.39001122467046,
    "lon": 9.770398205566199,
    "website": "http://www.fh-weingarten.de/"
  },
  {
    "name": "Fachhochschule Westk\u00fcste, Hochschule f\u00fcr Wirtschaft und Technik",
    "country": "Germany",
    "lat": 51.51508317506705,
    "lon": 10.713796284727016,
    "website": "http://www.fh-westkueste.de/"
  },
  {
    "name": "Fachhochschule Wiesbaden",
    "country": "Germany",
    "lat": 51.94535234790827,
    "lon": 10.193305493911076,
    "website": "http://www.fh-wiesbaden.de/"
  },
  {
    "name": "Ostfalia Hochschule f\u00fcr angewandte Wissenschaften",
    "country": "Germany",
    "lat": 51.610667948283094,
    "lon": 10.282212665135244,
    "website": "https://www.ostfalia.de/"
  },
  {
    "name": "Fachhochschule Worms",
    "country": "Germany",
    "lat": 51.46151778697683,
    "lon": 10.853050012100658,
    "website": "http://www.fh-worms.de/"
  },
  {
    "name": "Private Fachhochschule f\u00fcr Wirtschaft und Technik Vechta/Diepholz",
    "country": "Germany",
    "lat": 51.28343385437616,
    "lon": 10.575195598158134,
    "website": "http://www.fhwt.de/"
  },
  {
    "name": "Fachhochschule W\u00fcrzburg - Schweinfurt",
    "country": "Germany",
    "lat": 52.17819158499737,
    "lon": 10.452910235903444,
    "website": "http://www.fh-wuerzburg.de/"
  },
  {
    "name": "Wests\u00e4chsische Hochschule Zwickau (FH)",
    "country": "Germany",
    "lat": 52.49656516238206,
    "lon": 11.119237627532364,
    "website": "http://www.fh-zwickau.de/"
  },
  {
    "name": "Fachhochschule f\u00fcr Oekonomie und Management (FOM)",
    "country": "Germany",
    "lat": 50.674701813913295,
    "lon": 10.136366601626836,
    "website": "http://www.fom.de/"
  },
  {
    "name": "Freie Universit\u00e4t Berlin",
    "country": "Germany",
    "lat": 51.00669351643788,
    "lon": 10.047309784403254,
    "website": "http://www.fu-berlin.de/"
  },
  {
    "name": "Private Hanseuniversit\u00e4t",
    "country": "Germany",
    "lat": 50.652980652986216,
    "lon": 10.331446240432417,
    "website": "http://www.hanseuni.de/"
  },
  {
    "name": "Hafencity Universit\u00e4t Hamburg",
    "country": "Germany",
    "lat": 50.74149942269235,
    "lon": 10.137795177652723,
    "website": "http://www.hcu-hamburg.de/"
  },
  {
    "name": "Fachhochschule Stuttgart, Hochschule der Medien",
    "country": "Germany",
    "lat": 50.656144556503556,
    "lon": 10.847433282033307,
    "website": "http://www.hdm-stuttgart.de/"
  },
  {
    "name": "Hertie School of Governance",
    "country": "Germany",
    "lat": 51.85303157118957,
    "lon": 9.512220553246575,
    "website": "http://www.hertie-school.org/"
  },
  {
    "name": "Hochschule f\u00fcr Bankwirtschaft (HfB), Private Fachhochschule der Bankakademie",
    "country": "Germany",
    "lat": 51.270173927723754,
    "lon": 9.745530832693621,
    "website": "http://www.hfb.de/"
  },
  {
    "name": "Fachhochschule Schw\u00e4bisch Gm\u00fcnd, Hochschule f\u00fcr Gestaltung",
    "country": "Germany",
    "lat": 52.36315210585383,
    "lon": 10.747839531427779,
    "website": "http://www.hfg-gmuend.de/"
  },
  {
    "name": "Hochschule f\u00fcr Philosophie M\u00fcnchen",
    "country": "Germany",
    "lat": 51.88507620968438,
    "lon": 11.021457673952078,
    "website": "http://www.hfph.mwn.de/"
  },
  {
    "name": "Hochschule f\u00fcr Politik (HFP)",
    "country": "Germany",
    "lat": 51.74232709761619,
    "lon": 10.038808818573619,
    "website": "http://www.hfp.mhn.de/"
  },
  {
    "name": "Handelshochschule Leipzig",
    "country": "Germany",
    "lat": 51.7504762937103,
    "lon": 10.771540480830023,
    "website": "http://www.hhl.de/"
  },
  {
    "name": "Hochschule f\u00fcr Internationales Management",
    "country": "Germany",
    "lat": 51.42286106579181,
    "lon": 10.86774657662597,
    "website": "http://www.himh.de/"
  },
  {
    "name": "Hochschule f\u00fcr J\u00fcdische Studien Heidelberg",
    "country": "Germany",
    "lat": 50.911261261499476,
    "lon": 11.434540934056942,
    "website": "http://www.hjs.uni-heidelberg.de/"
  },
  {
    "name": "Hochschule Albstadt-Sigmaringen",
    "country": "Germany",
    "lat": 50.91864534038725,
    "lon": 10.074499866683508,
    "website": "http://www.hs-albsig.de/"
  },
  {
    "name": "Hochschule Anhalt (FH), Hochschule f\u00fcr angewandte Wissenschaften",
    "country": "Germany",
    "lat": 50.545676413382594,
    "lon": 10.444503293160686,
    "website": "http://www.hs-anhalt.de/"
  },
  {
    "name": "Hochschule Bremen",
    "country": "Germany",
    "lat": 51.15899162234696,
    "lon": 9.966519832673653,
    "website": "http://www.hs-bremen.de/"
  },
  {
    "name": "Hochschule Bremerhaven",
    "country": "Germany",
    "lat": 52.031525087462285,
    "lon": 10.915815532423213,
    "website": "http://www.hs-bremerhaven.de/"
  },
  {
    "name": "Hochschule Coburg",
    "country": "Germany",
    "lat": 51.31162070407556,
    "lon": 11.097459006157763,
    "website": "http://www.hs-coburg.de/"
  },
  {
    "name": "Hochschule Darmstadt",
    "country": "Germany",
    "lat": 51.64732022457862,
    "lon": 9.891771708614074,
    "website": "https://www.h-da.de/"
  },
  {
    "name": "Hochschule Esslingen",
    "country": "Germany",
    "lat": 51.75056503998621,
    "lon": 11.476252673520033,
    "website": "http://www.hs-esslingen.de/"
  },
  {
    "name": "Hochschule Fulda",
    "country": "Germany",
    "lat": 51.41157529070411,
    "lon": 11.03152088828914,
    "website": "http://www.hs-fulda.de/"
  },
  {
    "name": "Hochschule Harz, Hochschule f\u00fcr angewandte Wissenschaften (FH)",
    "country": "Germany",
    "lat": 51.79367253991681,
    "lon": 10.900393423753684,
    "website": "http://www.hs-harz.de/"
  },
  {
    "name": "Hochschule Magdeburg-Stendal (FH)",
    "country": "Germany",
    "lat": 52.03153757178012,
    "lon": 9.740930680479483,
    "website": "http://www.hs-magdeburg.de/"
  },
  {
    "name": "Hochschule Wismar, Fachhochschule f\u00fcr Technik, Wirtschaft und Gestaltung",
    "country": "Germany",
    "lat": 52.13207196695176,
    "lon": 11.252064941239846,
    "website": "http://www.hs-wismar.de/"
  },
  {
    "name": "Hochschule Zittau/G\u00f6rlitz (FH)",
    "country": "Germany",
    "lat": 50.51700787633674,
    "lon": 10.420140230358953,
    "website": "http://www.hs-zigr.de/"
  },
  {
    "name": "Hochschule f\u00fcr Technik und Wirtschaft Dresden (FH)",
    "country": "Germany",
    "lat": 51.493807572556925,
    "lon": 9.747599377158664,
    "website": "http://www.htw-dresden.de/"
  },
  {
    "name": "Hochschule f\u00fcr Technik, Wirtschaft und Kultur Leipzig (FH)",
    "country": "Germany",
    "lat": 51.70814643218731,
    "lon": 10.71710858151913,
    "website": "http://www.htwk-leipzig.de/"
  },
  {
    "name": "Hochschule Mittweida, University of Applied Sciences",
    "country": "Germany",
    "lat": 51.4553388982807,
    "lon": 9.791202246493066,
    "website": "http://www.htwm.de/"
  },
  {
    "name": "Hochschule f\u00fcr Technik und Wirtschaft des Saarlandes",
    "country": "Germany",
    "lat": 51.536375623572404,
    "lon": 10.927317149812875,
    "website": "http://www.htw-saarland.de/"
  },
  {
    "name": "Humboldt Universit\u00e4t Berlin",
    "country": "Germany",
    "lat": 51.295405603677054,
    "lon": 9.62326684453935,
    "website": "http://www.hu-berlin.de/"
  },
  {
    "name": "HWP - Hamburger Universit\u00e4t f\u00fcr Wirtschaft und Politik",
    "country": "Germany",
    "lat": 52.12989422423184,
    "lon": 10.886804757537563,
    "website": "http://www.hwp-hamburg.de/"
  },
  {
    "name": "Internationales Hochschulinstitut Zittau",
    "country": "Germany",
    "lat": 50.51476367699632,
    "lon": 10.626204588682453,
    "website": "http://www.ihi-zittau.de/"
  },
  {
    "name": "Internationale Fachhochschule Aalen",
    "country": "Germany",
    "lat": 52.426274428112556,
    "lon": 10.156065270689588,
    "website": "http://www.international.fh-aalen.de/"
  },
  {
    "name": "International School of Management ISM Dortmund",
    "country": "Germany",
    "lat": 52.30019196991056,
    "lon": 10.528961743049688,
    "website": "http://www.ism-dortmund.de/"
  },
  {
    "name": "International School of New Media, University of L\u00fcbeck",
    "country": "Germany",
    "lat": 52.30834933776346,
    "lon": 10.092731770110413,
    "website": "http://www.isnm.de/"
  },
  {
    "name": "International University in Germany",
    "country": "Germany",
    "lat": 51.78397605444369,
    "lon": 11.094718947524763,
    "website": "http://www.i-u.de/"
  },
  {
    "name": "Jacobs University Bremen",
    "country": "Germany",
    "lat": 51.61715072009181,
    "lon": 10.716481220882134,
    "website": "http://www.jacobs-university.de/"
  },
  {
    "name": "Karlshochschule International University",
    "country": "Germany",
    "lat": 51.25843805799339,
    "lon": 9.650387717873475,
    "website": "http://www.karlshochschule.de/"
  },
  {
    "name": "Katholische Fachhochschule Norddeutschland",
    "country": "Germany",
    "lat": 50.68221578647205,
    "lon": 9.660912097276476,
    "website": "http://www.kath-fh-nord.de/"
  },
  {
    "name": "Katholische Fachhochschule Berlin (KFB)",
    "country": "Germany",
    "lat": 52.012456713072694,
    "lon": 10.436068843667075,
    "website": "http://www.kfb-berlin.de/"
  },
  {
    "name": "Katholische Fachhochschule Freiburg, Hochschule f\u00fcr Sozialwesen, Religionsp\u00e4dagogik und Pflege",
    "country": "Germany",
    "lat": 51.15610012058098,
    "lon": 9.64533628421261,
    "website": "http://www.kfh-Freiburg.de/"
  },
  {
    "name": "Katholische Fachhochschule Mainz",
    "country": "Germany",
    "lat": 50.65176989639347,
    "lon": 9.88749240743699,
    "website": "http://www.kfh-mainz.de/"
  },
  {
    "name": "Katholische Fachhochschule Nordrhein-Westfalen",
    "country": "Germany",
    "lat": 51.38381805853394,
    "lon": 9.690532066422296,
    "website": "http://www.kfhnw.de/"
  },
  {
    "name": "Kunsthochschule Berlin-Weissensee, Hochschule f\u00fcr Gestaltung",
    "country": "Germany",
    "lat": 51.416370545638415,
    "lon": 9.650308412987815,
    "website": "http://www.kh-berlin.de/"
  },
  {
    "name": "Katholische Hochschule f\u00fcr Soziale Arbeit Saarbr\u00fccken",
    "country": "Germany",
    "lat": 50.62825290824784,
    "lon": 10.566331210978392,
    "website": "http://www.khsa.de/"
  },
  {
    "name": "Katholische Stiftungsfachhochschule M\u00fcnchen",
    "country": "Germany",
    "lat": 51.42747361523996,
    "lon": 11.22922838159269,
    "website": "http://www.ksfh.de/"
  },
  {
    "name": "Katholische Universit\u00e4t Eichst\u00e4tt",
    "country": "Germany",
    "lat": 52.17907174092674,
    "lon": 10.236193140573937,
    "website": "http://www.ku-eichstaett.de/"
  },
  {
    "name": "Kunstakademie D\u00fcsseldorf.",
    "country": "Germany",
    "lat": 51.350246942032534,
    "lon": 10.136560207011502,
    "website": "http://www.kunstakademie-duesseldorf.de/"
  },
  {
    "name": "Merkur Internationale FH Karlsruhe",
    "country": "Germany",
    "lat": 52.251819902466934,
    "lon": 10.047860395525719,
    "website": "http://www.merkur-fh.org/"
  },
  {
    "name": "Merz Akademie, Hochschule f\u00fcr Gestaltung Stuttgart",
    "country": "Germany",
    "lat": 52.10812401442746,
    "lon": 10.355472221546286,
    "website": "http://www.merz-akademie.de/"
  },
  {
    "name": "M\u00e4rkische Fachhochschule Iserlohn",
    "country": "Germany",
    "lat": 51.358078582083905,
    "lon": 11.279642879611844,
    "website": "http://www.mfh-iserlohn.de/"
  },
  {
    "name": "Medizinische Hochschule Hannover",
    "country": "Germany",
    "lat": 52.049050225058856,
    "lon": 10.831800866368752,
    "website": "http://www.mh-hannover.de/"
  },
  {
    "name": "Staatliche Hochschule f\u00fcr Musik",
    "country": "Germany",
    "lat": 51.67244495790617,
    "lon": 9.629560879575239,
    "website": "http://www.mh-trossingen.de/"
  },
  {
    "name": "Medizinische Universit\u00e4t L\u00fcbeck",
    "country": "Germany",
    "lat": 51.61323876843316,
    "lon": 10.813099412057282,
    "website": "http://www.mu-luebeck.de/"
  },
  {
    "name": "Muthesius-Hochschule, Fachhochschule f\u00fcr Kunst und Gestaltung",
    "country": "Germany",
    "lat": 51.23123720733663,
    "lon": 9.984903228661416,
    "website": "http://www.muthesius.de/"
  },
  {
    "name": "Nordakademie, Staatlich anerkannte private Fachhochschule mit dualen Studieng\u00e4ngen",
    "country": "Germany",
    "lat": 51.406513825459925,
    "lon": 11.430348750290834,
    "website": "http://www.nordakademie.de/"
  },
  {
    "name": "Theologische Fakult\u00e4t Paderborn",
    "country": "Germany",
    "lat": 51.68781149289706,
    "lon": 10.365061647035438,
    "website": "http://www.paderborn.de/"
  },
  {
    "name": "Private Fachhochschule G\u00f6ttingen",
    "country": "Germany",
    "lat": 51.32416920175735,
    "lon": 10.075979040004851,
    "website": "http://www.pfh-goettingen.de/"
  },
  {
    "name": "P\u00e4dagogische Hochschule Erfurt/M\u00fchlhausen",
    "country": "Germany",
    "lat": 52.495528415079725,
    "lon": 10.58090769597086,
    "website": "http://www.ph-erfurt.de/"
  },
  {
    "name": "P\u00e4dagogische Hochschule Freiburg",
    "country": "Germany",
    "lat": 52.150817127608136,
    "lon": 11.241411908065263,
    "website": "http://www.ph-freiburg.de/"
  },
  {
    "name": "P\u00e4dagogische Hochschule Schw\u00e4bisch Gm\u00fcnd",
    "country": "Germany",
    "lat": 51.47315536486377,
    "lon": 10.122919810850718,
    "website": "http://www.ph-gmuend.de/"
  },
  {
    "name": "P\u00e4dagogische Hochschule Heidelberg",
    "country": "Germany",
    "lat": 51.48874269921174,
    "lon": 11.477332980927608,
    "website": "http://www.ph-heidelberg.de/"
  },
  {
    "name": "Philosophisch-Theologische Hochschule SVD Sankt Augustin",
    "country": "Germany",
    "lat": 51.49790932484462,
    "lon": 11.00397939262757,
    "website": "http://www.philtheol-augustin.de/"
  },
  {
    "name": "P\u00e4dagogische Hochschule Karlsruhe",
    "country": "Germany",
    "lat": 52.08332083229252,
    "lon": 10.058948404891458,
    "website": "http://www.ph-karlsruhe.de/"
  },
  {
    "name": "P\u00e4dagogische Hochschule Ludwigsburg",
    "country": "Germany",
    "lat": 50.859163261753125,
    "lon": 10.875791939243669,
    "website": "http://www.ph-ludwigsburg.de/"
  },
  {
    "name": "P\u00e4dagogische Hochschule Weingarten",
    "country": "Germany",
    "lat": 52.36688604066355,
    "lon": 10.689633200478738,
    "website": "http://www.ph-weingarten.de/"
  },
  {
    "name": "Popakademie Baden-W\u00fcrttemberg",
    "country": "Germany",
    "lat": 51.94300285120212,
    "lon": 11.090271808717402,
    "website": "http://www.popakademie.de/"
  },
  {
    "name": "Private FernFachhochschule Darmstadt",
    "country": "Germany",
    "lat": 52.40741341031209,
    "lon": 9.89093392004113,
    "website": "http://www.privatfh-da.de/"
  },
  {
    "name": "Philosophisch-Theologische Hochschule der Salesianer Don Boscos",
    "country": "Germany",
    "lat": 50.82518824973217,
    "lon": 9.531337226007293,
    "website": "http://www.pth-bb.de/"
  },
  {
    "name": "Philosophisch-Theologische Hochschule M\u00fcnster",
    "country": "Germany",
    "lat": 50.794059097571605,
    "lon": 11.074335724556688,
    "website": "http://www.pth-muenster.de/"
  },
  {
    "name": "Philosophisch-Theologische Hochschule Vallendar der Gesellschaft des Katholischen Apostolates (Pallottiner)",
    "country": "Germany",
    "lat": 50.82908333958309,
    "lon": 10.094924280530646,
    "website": "http://www.pthv.de/"
  },
  {
    "name": "Evangelische Fachhochschule f\u00fcr Sozialp\u00e4dagogik der \"Diakonenanstalt des Rauhen Hauses\" Hamburg",
    "country": "Germany",
    "lat": 51.97575004067768,
    "lon": 10.556625263472624,
    "website": "http://www.rauheshaus.de/"
  },
  {
    "name": "Rheinische Fachhochschule K\u00f6ln",
    "country": "Germany",
    "lat": 51.472535675584396,
    "lon": 10.284453761399373,
    "website": "http://www.rfh-koeln.de/"
  },
  {
    "name": "Ruhr-Universit\u00e4t Bochum",
    "country": "Germany",
    "lat": 51.81969060035696,
    "lon": 10.974520465512274,
    "website": "http://www.ruhr-uni-bochum.de/"
  },
  {
    "name": "Rheinisch Westf\u00e4lische Technische Hochschule Aachen",
    "country": "Germany",
    "lat": 52.365776298307054,
    "lon": 10.667798083181262,
    "website": "http://www.rwth-aachen.de/"
  },
  {
    "name": "Lutherische Theologische Hochschule Oberursel",
    "country": "Germany",
    "lat": 51.44092857937508,
    "lon": 10.411350214826134,
    "website": "http://www.selk.de/"
  },
  {
    "name": "Gustav-Siewerth-Akademie",
    "country": "Germany",
    "lat": 52.461232257731815,
    "lon": 9.59276375930841,
    "website": "http://www.siewerth-akademie.de/"
  },
  {
    "name": "Schiller International University, Heidelberg",
    "country": "Germany",
    "lat": 52.19899519465264,
    "lon": 10.364157777247819,
    "website": "http://www.siu-heidelberg.de/"
  },
  {
    "name": "SRH University of Applied Sciences",
    "country": "Germany",
    "lat": 51.987465371688124,
    "lon": 11.372121271996692,
    "website": "http://www.srh-berlin.de/"
  },
  {
    "name": "Philosophisch-Theologische Hochschule Sankt Georgen",
    "country": "Germany",
    "lat": 51.972038236293145,
    "lon": 10.280225799083835,
    "website": "http://www.st-georgen.uni-frankfurt.de/"
  },
  {
    "name": "Steinbeis-Hochschule-Berlin",
    "country": "Germany",
    "lat": 52.424501597622985,
    "lon": 9.78235691084439,
    "website": "http://www.stw.de/"
  },
  {
    "name": "Technische Fachhochschule Berlin",
    "country": "Germany",
    "lat": 52.020562620635225,
    "lon": 11.345593290964079,
    "website": "http://www.tfh-berlin.de/"
  },
  {
    "name": "Technische Fachhochschule Georg Agricola f\u00fcr Rohstoff, Energie und, Umwelt zu Bochum",
    "country": "Germany",
    "lat": 50.72116536974053,
    "lon": 10.932739058119806,
    "website": "http://www.tfh-bochum.de/"
  },
  {
    "name": "Technische Fachhochschule Wildau",
    "country": "Germany",
    "lat": 51.31065511185249,
    "lon": 10.627786200328181,
    "website": "http://www.tfh-wildau.de/"
  },
  {
    "name": "Theologische Hochschule Friedensau",
    "country": "Germany",
    "lat": 51.43943015740999,
    "lon": 11.28169023770808,
    "website": "http://www.thh-friedensau.de/"
  },
  {
    "name": "Tier\u00e4rztliche Hochschule Hannover",
    "country": "Germany",
    "lat": 51.160292122559454,
    "lon": 10.235981370958896,
    "website": "http://www.tiho-hannover.de/"
  },
  {
    "name": "Technische Universit\u00e4t Berlin",
    "country": "Germany",
    "lat": 51.237178065089715,
    "lon": 10.466593716811868,
    "website": "http://www.tu-berlin.de/"
  },
  {
    "name": "Technische Universit\u00e4t Carolo-Wilhelmina zu Braunschweig",
    "country": "Germany",
    "lat": 50.99637290335318,
    "lon": 9.723784554336367,
    "website": "https://www.tu-braunschweig.de/"
  },
  {
    "name": "Technische Universit\u00e4t Chemnitz",
    "country": "Germany",
    "lat": 50.73170007188131,
    "lon": 10.668302723636016,
    "website": "http://www.tu-chemnitz.de/"
  },
  {
    "name": "Technische Universit\u00e4t Clausthal",
    "country": "Germany",
    "lat": 51.68818629051438,
    "lon": 10.539622890070268,
    "website": "http://www.tu-clausthal.de/"
  },
  {
    "name": "Brandenburgische Technische Universit\u00e4t Cottbus",
    "country": "Germany",
    "lat": 51.41684262022089,
    "lon": 9.9679483124048,
    "website": "http://www.tu-cottbus.de/"
  },
  {
    "name": "Technische Universit\u00e4t Darmstadt",
    "country": "Germany",
    "lat": 51.36795437668323,
    "lon": 9.900368964931925,
    "website": "https://www.tu-darmstadt.de/"
  },
  {
    "name": "Technische Universit\u00e4t Dresden",
    "country": "Germany",
    "lat": 51.594669795018746,
    "lon": 10.84283112486247,
    "website": "http://www.tu-dresden.de/"
  },
  {
    "name": "Technische Universit\u00e4t Bergakademie Freiberg",
    "country": "Germany",
    "lat": 52.3377726359291,
    "lon": 10.20107703039871,
    "website": "http://www.tu-freiberg.de/"
  },
  {
    "name": "Technische Universit\u00e4t Hamburg",
    "country": "Germany",
    "lat": 50.824146887484865,
    "lon": 9.545451412156808,
    "website": "http://www.tuhh.de/"
  },
  {
    "name": "Technische Universit\u00e4t Ilmenau",
    "country": "Germany",
    "lat": 51.1047350641795,
    "lon": 10.325297918892563,
    "website": "http://www.tu-ilmenau.de/"
  },
  {
    "name": "Technische Universit\u00e4t M\u00fcnchen",
    "country": "Germany",
    "lat": 50.85820844471166,
    "lon": 10.588197546193452,
    "website": "http://www.tum.de/"
  },
  {
    "name": "Universit\u00e4t Augsburg",
    "country": "Germany",
    "lat": 50.92835990573825,
    "lon": 10.405173558232487,
    "website": "http://www.uni-augsburg.de/"
  },
  {
    "name": "Otto-Friedrich Universit\u00e4t Bamberg",
    "country": "Germany",
    "lat": 50.618255433768134,
    "lon": 9.64976100864787,
    "website": "http://www.uni-bamberg.de/"
  },
  {
    "name": "Universit\u00e4t Bayreuth",
    "country": "Germany",
    "lat": 51.99914285395036,
    "lon": 10.403068942624712,
    "website": "http://www.uni-bayreuth.de/"
  },
  {
    "name": "Universit\u00e4t Bielefeld",
    "country": "Germany",
    "lat": 51.77740805897975,
    "lon": 11.407409124449641,
    "website": "http://www.uni-bielefeld.de/"
  },
  {
    "name": "Rheinische Friedrich-Wilhelms Universit\u00e4t Bonn",
    "country": "Germany",
    "lat": 51.459744624355025,
    "lon": 11.185133978717309,
    "website": "http://www.uni-bonn.de/"
  },
  {
    "name": "Universit\u00e4t Bremen",
    "country": "Germany",
    "lat": 52.04598498345411,
    "lon": 10.7348023488291,
    "website": "http://www.uni-bremen.de/"
  },
  {
    "name": "Universit\u00e4t der Bundeswehr Hamburg",
    "country": "Germany",
    "lat": 50.76353997130744,
    "lon": 10.468619476331643,
    "website": "http://www.unibw-hamburg.de/"
  },
  {
    "name": "Universit\u00e4t der Bundeswehr M\u00fcnchen",
    "country": "Germany",
    "lat": 50.90156374063197,
    "lon": 10.389865680047905,
    "website": "http://www.unibw-muenchen.de/"
  },
  {
    "name": "Technische Universit\u00e4t Dortmund",
    "country": "Germany",
    "lat": 52.414157326779545,
    "lon": 11.286247475211768,
    "website": "http://www.tu-dortmund.de/"
  },
  {
    "name": "Heinrich-Heine Universit\u00e4t D\u00fcsseldorf",
    "country": "Germany",
    "lat": 51.570724543856336,
    "lon": 11.06772730986118,
    "website": "http://www.uni-duesseldorf.de/"
  },
  {
    "name": "Universit\u00e4t Duisburg-Essen",
    "country": "Germany",
    "lat": 51.335555790268224,
    "lon": 11.389449159023526,
    "website": "http://www.uni-duisburg-essen.de/"
  },
  {
    "name": "Universit\u00e4t Erfurt",
    "country": "Germany",
    "lat": 51.60873324954735,
    "lon": 10.46715713984212,
    "website": "http://www.uni-erfurt.de/"
  },
  {
    "name": "Friedrich-Alexander Universit\u00e4t Erlangen-N\u00fcrnberg",
    "country": "Germany",
    "lat": 51.29425004712391,
    "lon": 10.02002207810565,
    "website": "https://www.fau.de/"
  },
  {
    "name": "Universit\u00e4t Flensburg",
    "country": "Germany",
    "lat": 51.25945899867804,
    "lon": 10.060961618499906,
    "website": "http://www.uni-flensburg.de/"
  },
  {
    "name": "Johann Wolfgang Goethe Universit\u00e4t Frankfurt am Main",
    "country": "Germany",
    "lat": 51.40347226423577,
    "lon": 10.080360941996855,
    "website": "http://www.uni-frankfurt.de/"
  },
  {
    "name": "Albert-Ludwigs-Universit\u00e4t Freiburg",
    "country": "Germany",
    "lat": 50.968898737312784,
    "lon": 10.578656204247045,
    "website": "http://www.uni-freiburg.de/"
  },
  {
    "name": "Justus Liebig Universit\u00e4t Gie\u00dfen",
    "country": "Germany",
    "lat": 51.510138546522356,
    "lon": 10.11884462521073,
    "website": "http://www.uni-giessen.de/"
  },
  {
    "name": "Georg-August Universit\u00e4t G\u00f6ttingen",
    "country": "Germany",
    "lat": 51.63915362959016,
    "lon": 10.357594555629918,
    "website": "http://www.uni-goettingen.de/"
  },
  {
    "name": "Ernst-Moritz-Arndt Universit\u00e4t Greifswald",
    "country": "Germany",
    "lat": 52.214381064372965,
    "lon": 11.175493374989648,
    "website": "http://www.uni-greifswald.de/"
  },
  {
    "name": "Martin-Luther Universit\u00e4t Halle-Wittenberg",
    "country": "Germany",
    "lat": 51.69264988481221,
    "lon": 11.474023506259027,
    "website": "http://www.uni-halle.de/"
  },
  {
    "name": "Universit\u00e4t Hamburg",
    "country": "Germany",
    "lat": 50.81939281926946,
    "lon": 11.282472158753853,
    "website": "http://www.uni-hamburg.de/"
  },
  {
    "name": "Universit\u00e4t Hannover",
    "country": "Germany",
    "lat": 50.958384310121616,
    "lon": 9.717375079644272,
    "website": "http://www.uni-hannover.de/"
  },
  {
    "name": "Ruprecht-Karls-Universit\u00e4t Heidelberg",
    "country": "Germany",
    "lat": 52.46314637047502,
    "lon": 11.183777873405852,
    "website": "http://www.uni-heidelberg.de/"
  },
  {
    "name": "Universit\u00e4t Hildesheim",
    "country": "Germany",
    "lat": 51.96349463358597,
    "lon": 10.017085656285285,
    "website": "http://www.uni-hildesheim.de/"
  },
  {
    "name": "Universit\u00e4t Hohenheim",
    "country": "Germany",
    "lat": 50.82395673664152,
    "lon": 11.39506608055035,
    "website": "http://www.uni-hohenheim.de/"
  },
  {
    "name": "Friedrich-Schiller Universit\u00e4t Jena",
    "country": "Germany",
    "lat": 52.14534663793082,
    "lon": 11.080855653108852,
    "website": "http://www.uni-jena.de/"
  },
  {
    "name": "Karlsruher Institut f\u00fcr Technologie",
    "country": "Germany",
    "lat": 50.92262436281828,
    "lon": 11.328370335218697,
    "website": "http://www.kit.edu/"
  },
  {
    "name": "Universit\u00e4t Kassel",
    "country": "Germany",
    "lat": 52.39412218339395,
    "lon": 10.38488037323797,
    "website": "http://www.uni-kassel.de/"
  },
  {
    "name": "Christian-Albrechts-Universit\u00e4t Kiel",
    "country": "Germany",
    "lat": 51.02510974595453,
    "lon": 10.598003360679067,
    "website": "http://www.uni-kiel.de/"
  },
  {
    "name": "Universit\u00e4t Kaiserslautern",
    "country": "Germany",
    "lat": 51.44721547958042,
    "lon": 11.247482002860439,
    "website": "http://www.uni-kl.de/"
  },
  {
    "name": "Universit\u00e4t Koblenz-Landau",
    "country": "Germany",
    "lat": 52.161588874320046,
    "lon": 11.14612764279285,
    "website": "http://www.uni-koblenz-landau.de/"
  },
  {
    "name": "Universit\u00e4t K\u00f6ln",
    "country": "Germany",
    "lat": 51.9377068501135,
    "lon": 11.057558779239514,
    "website": "http://www.uni-koeln.de/"
  },
  {
    "name": "Universit\u00e4t Konstanz",
    "country": "Germany",
    "lat": 50.54084970382901,
    "lon": 10.770778400479395,
    "website": "http://www.uni-konstanz.de/"
  },
  {
    "name": "Universit\u00e4t Leipzig",
    "country": "Germany",
    "lat": 50.80422231918412,
    "lon": 9.779358671495022,
    "website": "http://www.uni-leipzig.de/"
  },
  {
    "name": "Universit\u00e4t L\u00fcneburg",
    "country": "Germany",
    "lat": 52.121427893617586,
    "lon": 10.697308319948451,
    "website": "http://www.uni-lueneburg.de/"
  },
  {
    "name": "Otto-von-Guericke Universit\u00e4t Magdeburg",
    "country": "Germany",
    "lat": 51.382609494130435,
    "lon": 11.235643720683283,
    "website": "http://www.uni-magdeburg.de/"
  },
  {
    "name": "Johannes-Gutenberg Universit\u00e4t Mainz",
    "country": "Germany",
    "lat": 52.28629170726062,
    "lon": 10.302924585962876,
    "website": "http://www.uni-mainz.de/"
  },
  {
    "name": "Universit\u00e4t Mannheim",
    "country": "Germany",
    "lat": 51.21061006729032,
    "lon": 9.513832094998108,
    "website": "http://www.uni-mannheim.de/"
  },
  {
    "name": "Phillips-Universit\u00e4t Marburg",
    "country": "Germany",
    "lat": 51.67286420385678,
    "lon": 9.767620091636447,
    "website": "http://www.uni-marburg.de/"
  },
  {
    "name": "Ludwig-Maximilians-Universit\u00e4t M\u00fcnchen",
    "country": "Germany",
    "lat": 50.92420035625694,
    "lon": 9.532008686372233,
    "website": "http://www.lmu.de/"
  },
  {
    "name": "Westf\u00e4lische Wilhelms-Universit\u00e4t M\u00fcnster",
    "country": "Germany",
    "lat": 52.481789682843505,
    "lon": 10.42334238783149,
    "website": "http://www.uni-muenster.de/"
  },
  {
    "name": "Carl von Ossietzky Universit\u00e4t Oldenburg",
    "country": "Germany",
    "lat": 51.289242207726986,
    "lon": 9.734222797948085,
    "website": "https://uol.de/"
  },
  {
    "name": "Universit\u00e4t Osnabr\u00fcck",
    "country": "Germany",
    "lat": 51.83611351330524,
    "lon": 10.874475472755666,
    "website": "http://www.uni-osnabrueck.de/"
  },
  {
    "name": "Universit\u00e4t Paderborn",
    "country": "Germany",
    "lat": 51.17893299276235,
    "lon": 11.381774954296343,
    "website": "http://www.uni-paderborn.de/"
  },
  {
    "name": "Universit\u00e4t Passau",
    "country": "Germany",
    "lat": 52.168182058682106,
    "lon": 9.52721924030236,
    "website": "http://www.uni-passau.de/"
  },
  {
    "name": "Universit\u00e4t Potsdam",
    "country": "Germany",
    "lat": 51.57015956075528,
    "lon": 9.798851209203892,
    "website": "http://www.uni-potsdam.de/"
  },
  {
    "name": "Universit\u00e4t Regensburg",
    "country": "Germany",
    "lat": 52.37018999777028,
    "lon": 10.442524425318895,
    "website": "http://www.uni-regensburg.de/"
  },
  {
    "name": "Universit\u00e4t Rostock",
    "country": "Germany",
    "lat": 51.12891073763868,
    "lon": 10.426579803572748,
    "website": "http://www.uni-rostock.de/"
  },
  {
    "name": "Universit\u00e4t des Saarlandes",
    "country": "Germany",
    "lat": 50.83231131676515,
    "lon": 10.437544536261619,
    "website": "http://www.uni-saarland.de/"
  },
  {
    "name": "Universit\u00e4t Siegen",
    "country": "Germany",
    "lat": 51.16109320699937,
    "lon": 10.631064458390705,
    "website": "http://www.uni-siegen.de/"
  },
  {
    "name": "Universit\u00e4t Stuttgart",
    "country": "Germany",
    "lat": 50.72489309465919,
    "lon": 11.254704587255528,
    "website": "http://www.uni-stuttgart.de/"
  },
  {
    "name": "Universit\u00e4t Trier",
    "country": "Germany",
    "lat": 51.61540056010753,
    "lon": 10.518128148559512,
    "website": "http://www.uni-trier.de/"
  },
  {
    "name": "Eberhard-Karls-Universit\u00e4t T\u00fcbingen",
    "country": "Germany",
    "lat": 52.323674865724676,
    "lon": 9.767925796121382,
    "website": "http://www.uni-tuebingen.de/"
  },
  {
    "name": "Universit\u00e4t Ulm",
    "country": "Germany",
    "lat": 52.09699301760629,
    "lon": 11.132277451834582,
    "website": "http://www.uni-ulm.de/"
  },
  {
    "name": "Hochschule Vechta",
    "country": "Germany",
    "lat": 52.43455306779529,
    "lon": 11.356308766957264,
    "website": "http://www.uni-vechta.de/"
  },
  {
    "name": "Bauhaus Universit\u00e4t Weimar",
    "country": "Germany",
    "lat": 52.18932243307534,
    "lon": 10.961958463814401,
    "website": "http://www.uni-weimar.de/"
  },
  {
    "name": "Private Universit\u00e4t Witten/Herdecke",
    "country": "Germany",
    "lat": 52.159167811426244,
    "lon": 10.077672891619198,
    "website": "http://www.uni-wh.de/"
  },
  {
    "name": "Bayerische Julius-Maximilians-Universit\u00e4t W\u00fcrzburg",
    "country": "Germany",
    "lat": 51.73931987614806,
    "lon": 10.847081696050324,
    "website": "http://www.uni-wuerzburg.de/"
  },
  {
    "name": "Bergische Universit\u00e4t Gesamthochschule Wuppertal",
    "country": "Germany",
    "lat": 50.92981458588068,
    "lon": 10.544564239495385,
    "website": "http://www.uni-wuppertal.de/"
  },
  {
    "name": "WHU \u2013 Otto Beisheim School of Management",
    "country": "Germany",
    "lat": 51.612751474533844,
    "lon": 10.099179343373201,
    "website": "https://www.whu.edu/"
  },
  {
    "name": "Duale Hochschule Baden-W\u00fcrttemberg",
    "country": "Germany",
    "lat": 51.242944557894795,
    "lon": 11.144232301635515,
    "website": "http://www.dhbw.de/"
  },
  {
    "name": "Duale Hochschule Baden-W\u00fcrttemberg Heidenheim",
    "country": "Germany",
    "lat": 51.96214805768867,
    "lon": 10.511492871655333,
    "website": "http://www.heidenheim.dhbw.de/"
  },
  {
    "name": "Duale Hochschule Baden-W\u00fcrttemberg Center for Advanced Studies (CAS)",
    "country": "Germany",
    "lat": 50.872386267140385,
    "lon": 10.884153872176382,
    "website": "http://www.cas.dhbw.de/"
  },
  {
    "name": "Duale Hochschule Baden-W\u00fcrttemberg L\u00f6rrach",
    "country": "Germany",
    "lat": 52.357166792077976,
    "lon": 9.5251573829956,
    "website": "http://www.dhbw-loerrach.de/"
  },
  {
    "name": "Duale Hochschule Baden-W\u00fcrttemberg Mosbach",
    "country": "Germany",
    "lat": 50.84032398012565,
    "lon": 11.394694145095347,
    "website": "http://www.dhbw-mosbach.de/"
  },
  {
    "name": "Duale Hochschule Baden-W\u00fcrttemberg Ravensburg",
    "country": "Germany",
    "lat": 50.706011976898054,
    "lon": 11.1022659492623,
    "website": "http://www.ravensburg.dhbw.de/"
  },
  {
    "name": "Duale Hochschule Baden-W\u00fcrttemberg Stuttgart",
    "country": "Germany",
    "lat": 51.47874603895988,
    "lon": 10.93639275820239,
    "website": "http://www.dhbw-stuttgart.de/"
  },
  {
    "name": "Duale Hochschule Baden-W\u00fcrttemberg Villingen-Schwenningen",
    "country": "Germany",
    "lat": 52.47619355054513,
    "lon": 11.334528236354885,
    "website": "http://www.dhbw-vs.de/"
  },
  {
    "name": "Duale Hochschule Baden-W\u00fcrttemberg Heilbronn",
    "country": "Germany",
    "lat": 50.98634530421755,
    "lon": 10.40964213652513,
    "website": "http://www.heilbronn.dhbw.de/"
  },
  {
    "name": "Duale Hochschule Baden-W\u00fcrttemberg Karlsruhe",
    "country": "Germany",
    "lat": 52.176406772604196,
    "lon": 10.882902026830559,
    "website": "http://www.dhbw-karlsruhe.de/"
  },
  {
    "name": "Duale Hochschule Baden-Wuerttemberg Mannheim",
    "country": "Germany",
    "lat": 51.58112507770594,
    "lon": 11.493839577554837,
    "website": "http://www.dhbw-mannheim.de/"
  },
  {
    "name": "Hochschule Hannover",
    "country": "Germany",
    "lat": 51.5856154420483,
    "lon": 10.560731924438139,
    "website": "https://www.hs-hannover.de/"
  },
  {
    "name": "Staatliche Studienakademie Bautzen",
    "country": "Germany",
    "lat": 51.87540469595681,
    "lon": 9.55116818084973,
    "website": "https://www.ba-bautzen.de/"
  },
  {
    "name": "Technische Hochschule Mittelhessen",
    "country": "Germany",
    "lat": 52.43644974423768,
    "lon": 10.372929206949406,
    "website": "https://www.thm.de/"
  },
  {
    "name": "Hochschule f\u00fcr Wirtschaft und Gesellschaft Ludwigshafen",
    "country": "Germany",
    "lat": 51.669868168073,
    "lon": 9.735983395647661,
    "website": "https://www.hwg-lu.de/"
  },
  {
    "name": "Leuphana Universit\u00e4t L\u00fcneburg",
    "country": "Germany",
    "lat": 51.93387638448898,
    "lon": 10.871787461788998,
    "website": "https://www.leuphana.de/"
  },
  {
    "name": "Ostbayerische Technische Hochschule Amberg-Weiden",
    "country": "Germany",
    "lat": 51.27006664190914,
    "lon": 10.22337716793364,
    "website": "https://www.oth-aw.de/"
  },
  {
    "name": "Musikhochschule L\u00fcbeck",
    "country": "Germany",
    "lat": 52.02079229064965,
    "lon": 9.812365816875733,
    "website": "https://www.mh-luebeck.de/"
  },
  {
    "name": "Hochschule f\u00fcr Musik und Theater M\u00fcnchen",
    "country": "Germany",
    "lat": 52.44128485298632,
    "lon": 9.85769508078427,
    "website": "https://website.musikhochschule-muenchen.de/"
  },
  {
    "name": "Universit\u00e4t der K\u00fcnste Berlin",
    "country": "Germany",
    "lat": 50.73172785428939,
    "lon": 11.1273442478693,
    "website": "https://www.udk-berlin.de/"
  },
  {
    "name": "Hochschule f\u00fcr Musik und Tanz K\u00f6ln",
    "country": "Germany",
    "lat": 50.81985361195422,
    "lon": 11.428810383498238,
    "website": "https://www.hfmt-koeln.de/"
  },
  {
    "name": "Hochschule f\u00fcr Musik Carl Maria von Weber",
    "country": "Germany",
    "lat": 51.42758928857777,
    "lon": 10.234563651081071,
    "website": "https://www.hfmdd.de/"
  },
  {
    "name": "Hochschule f\u00fcr Musik und Darstellende Kunst Stuttgart",
    "country": "Germany",
    "lat": 50.517049179623655,
    "lon": 11.188368529137223,
    "website": "https://www.hmdk-stuttgart.de/"
  },
  {
    "name": "Hochschule f\u00fcr K\u00fcnste Bremen",
    "country": "Germany",
    "lat": 51.57140060396599,
    "lon": 10.736422750276304,
    "website": "https://www.hfk-bremen.de/"
  },
  {
    "name": "Hochschule f\u00fcr Musik und Theater \u201eFelix Mendelssohn Bartholdy\u201c Leipzig",
    "country": "Germany",
    "lat": 51.86836234738756,
    "lon": 11.081599712859024,
    "website": "https://www.hmt-leipzig.de/"
  },
  {
    "name": "Hochschule f\u00fcr Musik, Theater und Medien Hannover",
    "country": "Germany",
    "lat": 51.500877259909565,
    "lon": 11.136015034595959,
    "website": "https://www.hmtm-hannover.de/"
  },
  {
    "name": "Hochschule f\u00fcr Musik Detmold",
    "country": "Germany",
    "lat": 51.43402296516378,
    "lon": 11.295345470595409,
    "website": "https://www.hfm-detmold.de/"
  },
  {
    "name": "Deutsche Universit\u00e4t f\u00fcr Verwaltungswissenschaften Speyer",
    "country": "Germany",
    "lat": 51.95263698131248,
    "lon": 10.820015905330386,
    "website": "https://www.uni-speyer.de/"
  },
  {
    "name": "Europa-Universit\u00e4t Viadrina",
    "country": "Germany",
    "lat": 52.14392025787801,
    "lon": 10.467100117533121,
    "website": "https://www.europa-uni.de/"
  },
  {
    "name": "Frankfurt School of Finance & Management",
    "country": "Germany",
    "lat": 51.44538016979733,
    "lon": 11.040225419771803,
    "website": "https://www.frankfurt-school.de/"
  },
  {
    "name": "Hochschule f\u00fcr Fernsehen und Film M\u00fcnchen",
    "country": "Germany",
    "lat": 51.15011641561918,
    "lon": 10.490254608472245,
    "website": "https://www.hff-muenchen.de/"
  },
  {
    "name": "IST-Hochschule fur Management",
    "country": "Germany",
    "lat": 51.53480073911359,
    "lon": 10.05310107363982,
    "website": "https://www.ist-hochschule.de/"
  },
  {
    "name": "EBS Universit\u00e4t",
    "country": "Germany",
    "lat": 50.501076767639915,
    "lon": 10.866735344619599,
    "website": "https://www.ebs.edu/"
  },
  {
    "name": "Hochschule RheinMain",
    "country": "Germany",
    "lat": 51.222579546894956,
    "lon": 10.386909390123071,
    "website": "https://www.hs-rm.de/"
  },
  {
    "name": "Rosenheim University of Applied Sciences",
    "country": "Germany",
    "lat": 51.98411573287472,
    "lon": 10.70118463365607,
    "website": "https://th-rosenheim.de/"
  },
  {
    "name": "Karl-Schiller-Berufskolleg (KSBK)",
    "country": "Germany",
    "lat": 51.54134041733267,
    "lon": 10.122843222471074,
    "website": "http://www.ksbk-do.de/"
  },
  {
    "name": "Westphalian University of Applied Sciences",
    "country": "Germany",
    "lat": 51.12097540158373,
    "lon": 9.882274881978528,
    "website": "https://www.w-hs.de/"
  },
  {
    "name": "Technische Hochschule Ulm",
    "country": "Germany",
    "lat": 50.83732426341888,
    "lon": 11.268316481033292,
    "website": "https://www.thu.de/"
  },
  {
    "name": "Brandenburg University of Technology Cottbus - Senftenberg",
    "country": "Germany",
    "lat": 52.46638443522082,
    "lon": 9.853287780607499,
    "website": "https://www.b-tu.de/"
  }
]