[{"name": "Funda\u00e7\u00e3o Herm\u00ednio Ometto", "country": "Brazil", "lat": -15.969906003175673, "lon": -54.69647024468472, "website": "https://www.fho.edu.br/"}, {"name": "Universidade Comunit\u00e1ria da Regi\u00e3o de Chapec\u00f3 - Unochapec\u00f3", "country": "Brazil", "lat": -12.800090462739782, "lon": -54.75643866692951, "website": "https://unochapeco.edu.br"}, {"name": "Centro Universit\u00e1rio de Bras\u00edlia, UNICEUB", "country": "Brazil", "lat": -16.172053838666002, "lon": -50.58263014076013, "website": "https://www.uniceub.br"}, {"name": "Centro Universit\u00e1rio Barao de Maua", "country": "Brazil", "lat": -14.125469509577528, "lon": -52.23284848415455, "website": "http://www.baraodemaua.br/"}, {"name": "Universidade Braz Cubas", "country": "Brazil", "lat": -16.127084945382148, "lon": -51.723180994343224, "website": "http://www.brazcubas.br/"}, {"name": "Universidade Candido Mendes", "country": "Brazil", "lat": -15.499604588831872, "lon": -51.624650572127194, "website": "http://www.candidomendes.br/"}, {"name": "Universidade Castelo Branco", "country": "Brazil", "lat": -11.484608347250902, "lon": -50.95828670933753, "website": "http://www.castelobranco.br/"}, {"name": "Centro Universit\u00e1rio Claretiano", "country": "Brazil", "lat": -15.865181620147087, "lon": -49.485800782884944, "website": "http://www.claretiano.edu.br/"}, {"name": "Centro Regional Universit\u00e1rio de Espir\u00edto Santo do Pinhal", "country": "Brazil", "lat": -15.879881063846573, "lon": -53.859125844825755, "website": "http://www.creupi.br/"}, {"name": "EMESCAM - Escola Superior de Ci\u00eancias da Santa Casa de Miseric\u00f3rdia de Vit\u00f3ria", "country": "Brazil", "lat": -15.895246984272045, "lon": -53.320967416753255, "website": "http://www.emescam.br/"}, {"name": "Universidade Federal de S\u00e3o Paulo", "country": "Brazil", "lat": -15.642918352648733, "lon": -54.13743115372787, "website": "http://www.epm.br/"}, {"name": "Universidade Est\u00e1cio de S\u00e1", "country": "Brazil", "lat": -11.787034657034443, "lon": -53.495772082651115, "website": "http://www.estacio.br/"}, {"name": "FAAP - Funda\u00e7\u00e3o Armando Alvares Penteado", "country": "Brazil", "lat": -14.031226767610047, "lon": -50.578103414087636, "website": "http://www.faap.br/"}, {"name": "Faculdades Integradas Curitiba", "country": "Brazil", "lat": -14.819619142906156, "lon": -51.761262597805015, "website": "http://www.faculdadescuritiba.br/"}, {"name": "FAE Business School - Faculdade de Administra\u00e7\u00e3o e Economia", "country": "Brazil", "lat": -11.338869687511103, "lon": -54.30274760144192, "website": "http://www.fae.edu/"}, {"name": "Funda\u00e7\u00e3o Educacional de Ituverava", "country": "Brazil", "lat": -16.132264106589993, "lon": -49.044156135086226, "website": "http://www.feituverava.com.br/"}, {"name": "Faculdade Integradas do Cear\u00e1", "country": "Brazil", "lat": -15.902195277074144, "lon": -51.19190990680413, "website": "http://www.fic.br/"}, {"name": "Universidade do Amazonas", "country": "Brazil", "lat": -12.753593762795028, "lon": -52.46708160672399, "website": "http://www.fua.br/"}, {"name": "Universidade Regional de Blumenau", "country": "Brazil", "lat": -15.417160576712151, "lon": -49.44667797100056, "website": "http://www.furb.rct-sc.br/"}, {"name": "Universidade Federal do Rio Grande", "country": "Brazil", "lat": -16.510337644857557, "lon": -53.33498250040885, "website": "http://www.furg.br/"}, {"name": "Instituto Nacional de Matem\u00e1tica Pura e Aplicada - IMPA", "country": "Brazil", "lat": -12.946459221342664, "lon": -51.125663358899516, "website": "http://www.impa.br/"}, {"name": "Instituto Militar de Engenharia", "country": "Brazil", "lat": -11.637349796935336, "lon": -54.21379162131652, "website": "http://www.ime.eb.mil.br"}, {"name": "Instituto Tecnol\u00f3gico de Aeron\u00e1utica", "country": "Brazil", "lat": -12.6501614076108, "lon": -54.41923812030209, "website": "http://www.ita.br/"}, {"name": "Insper Instituto de Ensino e Pesquisa", "country": "Brazil", "lat": -15.577204162880827, "lon": -52.19576547318451, "website": "https://www.insper.edu.br"}, {"name": "Faculdade Italo Brasileira", "country": "Brazil", "lat": -15.944052110493693, "lon": -54.25797490866228, "website": "http://www.italo.br/"}, {"name": "Universidade Mackenzie", "country": "Brazil", "lat": -14.014040540420698, "lon": -49.11974749549427, "website": "http://www.mackenzie.br/"}, {"name": "Instituto Mau\u00e1 de Tecnologia", "country": "Brazil", "lat": -15.328005561108458, "lon": -54.13581140602592, "website": "http://www.maua.br/"}, {"name": "Centro Universit\u00e1rio Newton Paiva", "country": "Brazil", "lat": -12.243952898492259, "lon": -50.8728168780438, "website": "http://www.newtonpaiva.br/"}, {"name": "Universidade de Tocantins", "country": "Brazil", "lat": -14.572864808354437, "lon": -54.363546025010585, "website": "http://www.pop-to.rnp.br/"}, {"name": "Pontif\u00edcia Universidade Cat\u00f3lica de Campinas", "country": "Brazil", "lat": -11.815565513308835, "lon": -50.85477477313082, "website": "http://www.puccamp.br/"}, {"name": "Pontif\u00edcia Universidade Cat\u00f3lica de Minas Gerais", "country": "Brazil", "lat": -14.452223605508676, "lon": -49.09193725224091, "website": "http://www.pucminas.br/"}, {"name": "Pontificia Universidade Cat\u00f3lica do Paran\u00e1", "country": "Brazil", "lat": -12.049190927519586, "lon": -54.70780429829861, "website": "http://www.pucpr.br/"}, {"name": "Pontif\u00edcia Universidade Cat\u00f3lica do Rio de Janeiro", "country": "Brazil", "lat": -12.320718010652723, "lon": -51.182207031183104, "website": "http://www.puc-rio.br/"}, {"name": "Pontif\u00edcia Universidade Cat\u00f3lica do Rio Grande do Sul", "country": "Brazil", "lat": -12.215902068330294, "lon": -50.08013291062041, "website": "http://www.pucrs.br/"}, {"name": "Pontif\u00edcia Universidade Cat\u00f3lica de S\u00e3o Paulo", "country": "Brazil", "lat": -16.254843490669536, "lon": -52.51153868342465, "website": "http://www.pucsp.br/"}, {"name": "Universidade S\u00e3o Judas Tadeu", "country": "Brazil", "lat": -11.567243270741793, "lon": -53.14965842850869, "website": "http://www.saojudas.br/"}, {"name": "Universidade S\u00e3o Marcos", "country": "Brazil", "lat": -14.67691582570886, "lon": -51.21875502793319, "website": "http://www.smarcos.br/"}, {"name": "Centro Universit\u00e1rio Senac", "country": "Brazil", "lat": -12.234975159910164, "lon": -53.31889089475711, "website": "http://www.sp.senac.br/"}, {"name": "Universidade Santa Cec\u00edlia dos Bandeirantes", "country": "Brazil", "lat": -15.626133341187522, "lon": -54.400050819337096, "website": "http://www.stcecilia.br/"}, {"name": "Universidade Federal de Roraima", "country": "Brazil", "lat": -12.938019436418804, "lon": -51.82507997114767, "website": "http://www.technet.com.br/vestibular/"}, {"name": "Faculdades Integradas Toledo", "country": "Brazil", "lat": -14.700930479547125, "lon": -54.550014306706686, "website": "http://www.toledo.br/"}, {"name": "Universidade Cat\u00f3lica de Bras\u00edlia", "country": "Brazil", "lat": -16.523696319223994, "lon": -54.700242047520376, "website": "http://www.ucb.br/"}, {"name": "Universidade Cat\u00f3lica de Goi\u00e1s", "country": "Brazil", "lat": -11.563452028370508, "lon": -52.264510161275474, "website": "http://www.ucg.br/"}, {"name": "Universidade Cat\u00f3lica de Petr\u00f3polis", "country": "Brazil", "lat": -15.355776871011543, "lon": -54.284543464275316, "website": "http://www.ucp.br/"}, {"name": "Universidade Cat\u00f3lica de Pelotas", "country": "Brazil", "lat": -12.31710394589162, "lon": -54.351324750869814, "website": "http://www.ucpel.tche.br/"}, {"name": "Universidade Cat\u00f3lica do Salvador", "country": "Brazil", "lat": -11.999322781374623, "lon": -50.117953732833115, "website": "http://www.ucsal.br/"}, {"name": "Universidade de Caxias do Sul", "country": "Brazil", "lat": -13.391713364304087, "lon": -54.84174138226071, "website": "http://www.ucs.tche.br/"}, {"name": "Universidade do Estado de Santa Catarina", "country": "Brazil", "lat": -16.215863662925383, "lon": -50.03603529231989, "website": "http://www.udesc.br/"}, {"name": "Universidade Estadual do Cear\u00e1", "country": "Brazil", "lat": -16.681112439724924, "lon": -49.75385318140007, "website": "http://www.uece.br/"}, {"name": "Universidade Estadual de Feira de Santana", "country": "Brazil", "lat": -12.236439487573032, "lon": -52.4865510310754, "website": "http://www.uefs.br/"}, {"name": "Universidade Estadual de Londrina", "country": "Brazil", "lat": -12.879619567282083, "lon": -49.35768044555209, "website": "http://www.uel.br/"}, {"name": "Universidade Estadual do Maranh\u00e3o", "country": "Brazil", "lat": -17.006879592518686, "lon": -53.61254699106108, "website": "http://www.uema.br/"}, {"name": "Universidade Estadual de Maring\u00e1", "country": "Brazil", "lat": -12.636948608464788, "lon": -52.11250568686314, "website": "http://www.uem.br/"}, {"name": "Universidade Estadual do Norte Fluminense", "country": "Brazil", "lat": -16.072107156479838, "lon": -52.23675502565126, "website": "http://www.uenf.br/"}, {"name": "Universidade Estadual da Para\u00edba", "country": "Brazil", "lat": -14.263500072722596, "lon": -52.417344582111795, "website": "http://www.uepb.edu.br/"}, {"name": "Universidade Estadual de Ponta Grossa", "country": "Brazil", "lat": -16.167227705991355, "lon": -52.98969138504047, "website": "http://www.uepg.br/"}, {"name": "Universidade do Estado do Rio de Janeiro", "country": "Brazil", "lat": -17.105438978997366, "lon": -51.177829462909116, "website": "http://www.uerj.br/"}, {"name": "Universidade do Estado do Rio Grande do Norte", "country": "Brazil", "lat": -13.750284453638594, "lon": -50.83585310216518, "website": "http://www.uern.br/"}, {"name": "Universidade Estadual Sudoeste da Bahia", "country": "Brazil", "lat": -12.927018848062424, "lon": -50.88138051136702, "website": "http://www.uesb.br/"}, {"name": "Universidade Estadual de Santa Cruz", "country": "Brazil", "lat": -13.653278003387456, "lon": -50.47917851398556, "website": "http://www.uesc.br/"}, {"name": "Universidade Estadual do Piau\u00ed", "country": "Brazil", "lat": -13.762248500625711, "lon": -50.27750105779069, "website": "http://www.uespi.br/"}, {"name": "Universidade Federal do ABC", "country": "Brazil", "lat": -16.871016064711732, "lon": -50.11469780935726, "website": "http://www.ufabc.edu.br/"}, {"name": "Universidade Federal do Acre", "country": "Brazil", "lat": -12.208342416561056, "lon": -49.86224557885607, "website": "http://www.ufac.br/"}, {"name": "Universidade Federal de Alagoas", "country": "Brazil", "lat": -13.102361602806793, "lon": -53.77489407126, "website": "http://www.ufal.br/"}, {"name": "Universidade Federal da Bahia", "country": "Brazil", "lat": -13.032464886406359, "lon": -54.47905835807174, "website": "http://www.ufba.br/"}, {"name": "Universidade Federal do Cear\u00e1", "country": "Brazil", "lat": -12.950547886542337, "lon": -51.726469438316684, "website": "http://www.ufc.br/"}, {"name": "Universidade Federal de Campina Grande", "country": "Brazil", "lat": -11.761821885012495, "lon": -51.921551977657856, "website": "http://www.ufcg.edu.br/"}, {"name": "Universidade Federal do Esp\u00edrito Santo", "country": "Brazil", "lat": -11.73353187218564, "lon": -53.49561794525488, "website": "http://www.ufes.br/"}, {"name": "Universidade Federal Fluminense", "country": "Brazil", "lat": -16.864402131853225, "lon": -54.20913048308877, "website": "http://www.uff.br/"}, {"name": "Universidade Federal de Goi\u00e1s", "country": "Brazil", "lat": -17.07532621271798, "lon": -52.00738954206123, "website": "http://www.ufg.br/"}, {"name": "Universidade Federal da Grande Dourados", "country": "Brazil", "lat": -15.584971070354829, "lon": -50.24947892477937, "website": "http://www.ufgd.edu.br/"}, {"name": "Universidade Federal de Juiz de Fora", "country": "Brazil", "lat": -12.208905557049995, "lon": -52.59808773087254, "website": "http://www.ufjf.br/"}, {"name": "Universidade Federal de Lavras", "country": "Brazil", "lat": -11.465089103345685, "lon": -51.036649965381564, "website": "http://www.ufla.br/"}, {"name": "Universidade Federal do Maranh\u00e3o", "country": "Brazil", "lat": -13.76857131876326, "lon": -51.77104388035905, "website": "http://www.ufma.br/"}, {"name": "Universidade Federal de Minas Gerais", "country": "Brazil", "lat": -15.827735921314195, "lon": -54.38464528762097, "website": "http://www.ufmg.br/"}, {"name": "Universidade Federal dos Vales do Jequitinhonha e Mucuri", "country": "Brazil", "lat": -15.324289229547057, "lon": -50.92903820375848, "website": "http://www.ufvjm.edu.br"}, {"name": "Universidade Federal de Itajub\u00e1", "country": "Brazil", "lat": -16.156240797479047, "lon": -49.78524944256227, "website": "https://unifei.edu.br/"}, {"name": "Universidade Federal de S\u00e3o Jo\u00e3o del-Rei", "country": "Brazil", "lat": -12.098665636849912, "lon": -52.85101308681849, "website": "https://www.ufsj.edu.br/"}, {"name": "Universidade Federal do Tri\u00e2ngulo Mineiro", "country": "Brazil", "lat": -14.95332453160684, "lon": -52.13265658826947, "website": "http://www.uftm.edu.br/"}, {"name": "Universidade Federal de Mato Grosso do Sul", "country": "Brazil", "lat": -16.58842457050191, "lon": -54.39061512428481, "website": "http://www.ufms.br/"}, {"name": "Universidade Federal de Mato Grosso", "country": "Brazil", "lat": -11.998797111727784, "lon": -51.97135100358681, "website": "http://www.ufmt.br/"}, {"name": "Universidade Federal de Ouro Preto", "country": "Brazil", "lat": -13.377632491509475, "lon": -50.414274667939864, "website": "http://www.ufop.br/"}, {"name": "Universidade Federal do Par\u00e1", "country": "Brazil", "lat": -12.76737334791051, "lon": -49.25049706858696, "website": "http://www.ufpa.br/"}, {"name": "Universidade Federal da Para\u00edba", "country": "Brazil", "lat": -13.912660635070942, "lon": -53.15757050763974, "website": "http://www.ufpb.br/"}, {"name": "Universidade Federal de Pernambuco", "country": "Brazil", "lat": -11.67316145764069, "lon": -52.93907520447497, "website": "http://www.ufpe.br/"}, {"name": "Universidade Federal de Pelotas", "country": "Brazil", "lat": -17.21115788125629, "lon": -50.26604176967063, "website": "http://www.ufpel.tche.br/"}, {"name": "Universidade Federal do Piau\u00ed", "country": "Brazil", "lat": -16.445922341383252, "lon": -50.92436786159459, "website": "http://www.ufpi.br/"}, {"name": "Universidade Federal do Paran\u00e1", "country": "Brazil", "lat": -15.81065420999747, "lon": -49.0322403291551, "website": "http://www.ufpr.br/"}, {"name": "Universidade Federal do Rio Grande do Sul", "country": "Brazil", "lat": -12.183458656605548, "lon": -49.5797589134892, "website": "http://www.ufrgs.br/"}, {"name": "Universidade Federal do Rio de Janeiro", "country": "Brazil", "lat": -13.951802998582089, "lon": -53.21340425350312, "website": "http://www.ufrj.br/"}, {"name": "Universidade Federal do Rio Grande do Norte", "country": "Brazil", "lat": -11.406013534284718, "lon": -50.44370236295907, "website": "http://www.ufrn.br/"}, {"name": "Universidade Federal Rural de Pernambuco", "country": "Brazil", "lat": -15.226071463954522, "lon": -54.101625415816, "website": "http://www.ufrpe.br/"}, {"name": "Universidade Federal Rural do Rio de Janeiro", "country": "Brazil", "lat": -11.675028049624299, "lon": -49.32219645836586, "website": "http://www.ufrrj.br/"}, {"name": "Universidade Federal de Sergipe", "country": "Brazil", "lat": -11.360930254990883, "lon": -50.44555622110557, "website": "http://www.ufs.br/"}, {"name": "Universidade Federal de S\u00e3o Carlos", "country": "Brazil", "lat": -15.183880672076038, "lon": -49.45893423359965, "website": "http://www.ufscar.br/"}, {"name": "Universidade Federal de Santa Catarina", "country": "Brazil", "lat": -12.958461293730654, "lon": -49.862308593647455, "website": "http://www.ufsc.br/"}, {"name": "Universidade Federal de Santa Maria", "country": "Brazil", "lat": -12.070408215781177, "lon": -52.246554309332346, "website": "http://www.ufsm.br/"}, {"name": "Universidade Federal de Uberl\u00e2ndia", "country": "Brazil", "lat": -16.714417253743616, "lon": -51.69705937161522, "website": "http://www.ufu.br/"}, {"name": "Universidade Federal de Vi\u00e7osa", "country": "Brazil", "lat": -11.481276335139448, "lon": -53.28119264155489, "website": "http://www.ufv.br/"}, {"name": "Universidade Gama Filho", "country": "Brazil", "lat": -15.683632796292192, "lon": -54.916749322600594, "website": "http://www.ugf.br/"}, {"name": "Universidade Luterana do Brasil", "country": "Brazil", "lat": -16.507616525109427, "lon": -51.16507852085744, "website": "http://www.ulbra.br/"}, {"name": "Universidade de Mogi das Cruzes", "country": "Brazil", "lat": -11.689704178443408, "lon": -51.58519252244497, "website": "http://www.umc.br/"}, {"name": "Universidade de Ribeir\u00e3o Preto", "country": "Brazil", "lat": -13.478271328178153, "lon": -54.85227560081461, "website": "http://www.unaerp.br/"}, {"name": "Universidade da Amaz\u00f4nia", "country": "Brazil", "lat": -14.764471967053321, "lon": -53.95268779654758, "website": "http://www.unama.br/"}, {"name": "Universidade de Bras\u00edlia", "country": "Brazil", "lat": -11.657047093625843, "lon": -51.82517309199058, "website": "http://www.unb.br/"}, {"name": "Universidade do Estado da Bahia", "country": "Brazil", "lat": -16.433971703284566, "lon": -52.22730963759394, "website": "http://www.uneb.br/"}, {"name": "Universidade do Extremo Sul Catarinense", "country": "Brazil", "lat": -14.66204240718855, "lon": -50.14286503694016, "website": "http://www.unesc.rct-sc.br/"}, {"name": "Universidade Estadual Paulista", "country": "Brazil", "lat": -12.293414768607299, "lon": -53.71437443332611, "website": "http://www.unesp.br/"}, {"name": "Universidade de Guarulhos", "country": "Brazil", "lat": -16.232626213931052, "lon": -52.41314590214424, "website": "http://www.ung.br/"}, {"name": "Centro Universit\u00e1rio de Araraquara", "country": "Brazil", "lat": -17.04083564891723, "lon": -52.16618610993222, "website": "http://www.uniara.com.br/"}, {"name": "Universidade Bandeirante de S\u00e3o Paulo", "country": "Brazil", "lat": -12.782854312178038, "lon": -51.087238783077815, "website": "http://www.uniban.br/"}, {"name": "Universidade Ibirapuera", "country": "Brazil", "lat": -13.44407685031068, "lon": -50.90377869657115, "website": "http://www.unib.br/"}, {"name": "Universidade Cat\u00f3lica Dom Bosco", "country": "Brazil", "lat": -11.386839929993474, "lon": -52.270266325558055, "website": "http://www.unibosco.br/"}, {"name": "Faculdades Integradas do Brasil - UNIBRASIL", "country": "Brazil", "lat": -16.260089052207803, "lon": -53.08110247372259, "website": "http://www.unibrasil.com.br/"}, {"name": "Universidade Estadual de Campinas", "country": "Brazil", "lat": -12.7125155584073, "lon": -54.35508565787556, "website": "http://www.unicamp.br/"}, {"name": "Universidade Cat\u00f3lica de Pernambuco", "country": "Brazil", "lat": -12.480307873391649, "lon": -53.18026297043693, "website": "http://www.unicap.br/"}, {"name": "Universidade Camilo Castelo Branco", "country": "Brazil", "lat": -16.8470519150009, "lon": -49.00032652230881, "website": "http://www.unicastelo.br/"}, {"name": "Universidade Cidade de S\u00e3o Paulo", "country": "Brazil", "lat": -12.82264540467928, "lon": -49.008642781342665, "website": "http://www.unicid.br/"}, {"name": "Universidade de Cruz Alta", "country": "Brazil", "lat": -13.189922614689596, "lon": -49.78776017467336, "website": "http://www.unicruz.tche.br/"}, {"name": "Universidade Cruzeiro do Sul", "country": "Brazil", "lat": -12.701089754616511, "lon": -48.934925724381536, "website": "http://www.unicsul.br/"}, {"name": "Universidade para o Desenvolvimento do Alto Vale do Itaja\u00ed", "country": "Brazil", "lat": -14.980448125110605, "lon": -51.65976468058457, "website": "http://www.unidavi.rct-sc.br/"}, {"name": "Universidade Salvador", "country": "Brazil", "lat": -14.561853307912575, "lon": -49.86513583234766, "website": "http://www.unifacs.br/"}, {"name": "Universidade Federal do Amap\u00e1", "country": "Brazil", "lat": -11.773245154578689, "lon": -51.71890599993879, "website": "http://www.unifap.br/"}, {"name": "Universidade de Alfenas", "country": "Brazil", "lat": -15.570008004189322, "lon": -48.92938254830961, "website": "http://www.unifenas.br/"}, {"name": "Centro Universit\u00e1rio Serra dos \u00d3rg\u00e3os", "country": "Brazil", "lat": -12.075288780978417, "lon": -53.66022062355093, "website": "http://www.unifeso.edu.br/"}, {"name": "Universidade de Fortaleza", "country": "Brazil", "lat": -16.33142037015197, "lon": -53.794805889726106, "website": "http://www.unifor.br/"}, {"name": "Universidade de Franca", "country": "Brazil", "lat": -14.926393077840963, "lon": -53.993417583973056, "website": "http://www.unifran.br/"}, {"name": "Universidade de Nova Igua\u00e7u", "country": "Brazil", "lat": -12.078643922242314, "lon": -52.25775055920966, "website": "http://www.unig.br/"}, {"name": "Universidade do Grande Rio", "country": "Brazil", "lat": -14.714306283755187, "lon": -52.082639070298704, "website": "http://www.unigranrio.br/"}, {"name": "Universidade Regional do Noroeste do Estado do Rio Grande do Sul", "country": "Brazil", "lat": -15.149327854515754, "lon": -50.19332604472739, "website": "http://www.unijui.tche.br/"}, {"name": "Universidade de Mar\u00edlia", "country": "Brazil", "lat": -13.699132272726652, "lon": -54.77992123592228, "website": "http://www.unimar.br/"}, {"name": "Universidade Metodista de Piracicaba", "country": "Brazil", "lat": -15.466598101443862, "lon": -53.472616292953816, "website": "http://www.unimep.br/"}, {"name": "Universidade Metropolitana de Santos", "country": "Brazil", "lat": -15.032491862346538, "lon": -52.527459572924364, "website": "http://www.unimes.com.br/"}, {"name": "Centro Universit\u00e1rio Monte Serrat", "country": "Brazil", "lat": -15.626884672447556, "lon": -52.09994757323814, "website": "http://www.unimonte.br/"}, {"name": "Universidade Estadual de Montes Claros", "country": "Brazil", "lat": -17.171256259051308, "lon": -52.90316581474287, "website": "http://www.unimontes.br/"}, {"name": "Universidade Estadual do Oeste do Paran\u00e1", "country": "Brazil", "lat": -15.830845636986586, "lon": -49.93012200320656, "website": "http://www.unioeste.br/"}, {"name": "Centro Universit\u00e1rio de Jo\u00e3o Pessoa", "country": "Brazil", "lat": -14.902709733163672, "lon": -49.052632739926345, "website": "http://www.unipe.br/"}, {"name": "Centro Universit\u00e1rio Plinio Leite", "country": "Brazil", "lat": -13.763102305210245, "lon": -50.29742078845515, "website": "http://www.unipli.com.br/"}, {"name": "Universidade Paulista", "country": "Brazil", "lat": -11.709297915717247, "lon": -49.26112689973306, "website": "http://www.unip-objetivo.br/"}, {"name": "Universidade Federal de Rond\u00f4nia", "country": "Brazil", "lat": -14.177741747480855, "lon": -49.507289784344124, "website": "http://www.unir.br/"}, {"name": "Universidade do Rio de Janeiro", "country": "Brazil", "lat": -15.655236302957395, "lon": -50.33115397164865, "website": "http://www.unirio.br/"}, {"name": "Universidade de Santo Amaro", "country": "Brazil", "lat": -12.854287198729846, "lon": -52.51548432111067, "website": "http://www.unisa.br/"}, {"name": "Universidade Cat\u00f3lica de Santos", "country": "Brazil", "lat": -13.733114114738981, "lon": -49.307366275674966, "website": "http://www.unisantos.com.br/"}, {"name": "Universidade de Santa Cruz do Sul", "country": "Brazil", "lat": -14.300508176166801, "lon": -53.34844999748571, "website": "http://www.unisc.br/"}, {"name": "Universidade Vale do Rio dos Sinos", "country": "Brazil", "lat": -13.50306967537316, "lon": -52.81481028333726, "website": "http://www.unisinos.br/"}, {"name": "Universidade do Sul de Santa Catarina", "country": "Brazil", "lat": -16.821859927375982, "lon": -50.97119397108831, "website": "http://www.unisul.br/"}, {"name": "Universidade de Taubat\u00e9", "country": "Brazil", "lat": -17.087058738580925, "lon": -50.37378256745536, "website": "http://www.unitau.br/"}, {"name": "Universidade Tiradentes", "country": "Brazil", "lat": -16.553102910350855, "lon": -50.40390126848931, "website": "http://www.unit.br/"}, {"name": "Universidade de Uberaba", "country": "Brazil", "lat": -13.706794693478406, "lon": -53.389803646682, "website": "http://www.uniube.br/"}, {"name": "Universidade Vale do Rio Doce", "country": "Brazil", "lat": -17.19140964755475, "lon": -49.91936485250822, "website": "http://www.univale.br/"}, {"name": "Universidade do Vale do Itaja\u00ed", "country": "Brazil", "lat": -15.962969823494845, "lon": -51.97902286675914, "website": "http://www.univali.rct-sc.br/"}, {"name": "Universidade Federal do Vale do S\u00e3o Francisco", "country": "Brazil", "lat": -12.14982196075185, "lon": -54.09851575193292, "website": "http://www.univasf.edu.br/"}, {"name": "Universidade Salgado de Oliveira", "country": "Brazil", "lat": -11.37374072217579, "lon": -49.58927689309494, "website": "http://www.universo.br/"}, {"name": "Universidade do Oeste de Santa Catarina", "country": "Brazil", "lat": -13.74958964217416, "lon": -50.94889451657648, "website": "http://www.unoesc.edu.br/"}, {"name": "Universidade do Oeste Paulista", "country": "Brazil", "lat": -16.191592014988377, "lon": -51.54144753446448, "website": "http://www.unoeste.br/"}, {"name": "Universidade Potiguar", "country": "Brazil", "lat": -16.46361398890368, "lon": -52.11957265371397, "website": "http://www.unp.br/"}, {"name": "Universidade de Pernambuco", "country": "Brazil", "lat": -14.921953181690876, "lon": -50.22272234777214, "website": "http://www.upe.br/"}, {"name": "Universidade de Passo Fundo", "country": "Brazil", "lat": -12.844138172508334, "lon": -52.98915831189396, "website": "http://www.upf.tche.br/"}, {"name": "Faculdades Integradas UPIS", "country": "Brazil", "lat": -14.92273516005466, "lon": -53.01067490146414, "website": "http://www.upis.br/"}, {"name": "Universidade Regional do Cariri", "country": "Brazil", "lat": -16.384634417907893, "lon": -51.78296511690868, "website": "http://www.urca.br/"}, {"name": "Universidade da Regi\u00e3o da Campanha", "country": "Brazil", "lat": -14.977059035247, "lon": -54.32155605111707, "website": "http://www.urcamp.tche.br/"}, {"name": "Universidade Regional Integrada do Alto Uruguai e das Miss\u00f5es", "country": "Brazil", "lat": -13.00129003244754, "lon": -50.55796264579249, "website": "http://www.uri.br/"}, {"name": "Universidade do Sagrado Cora\u00e7\u00e3o", "country": "Brazil", "lat": -14.40049425273937, "lon": -53.0875051757655, "website": "http://www.usc.br/"}, {"name": "Universidade S\u00e3o Francisco", "country": "Brazil", "lat": -16.792119933905383, "lon": -53.29977316810759, "website": "http://www.usf.br/"}, {"name": "Universidade de S\u00e3o Paulo", "country": "Brazil", "lat": -15.023402042200065, "lon": -49.369817768653284, "website": "http://www.usp.br/"}, {"name": "Universidade Santa \u00darsula", "country": "Brazil", "lat": -17.10608026519765, "lon": -49.8332643230294, "website": "http://www.usu.br/"}, {"name": "Universidade Veiga de Almeida", "country": "Brazil", "lat": -14.750761536945452, "lon": -54.05330774059716, "website": "http://www.uva.br/"}, {"name": "Universidade Estadual do Vale do Acara\u00fa", "country": "Brazil", "lat": -16.07937691342779, "lon": -51.76004544998734, "website": "http://www.uvanet.br/"}, {"name": "Universidade de Ita\u00fana", "country": "Brazil", "lat": -16.092307650324077, "lon": -49.15434510997121, "website": "http://web.prover.com.br/fui/"}, {"name": "Universidade Tecnol\u00f3gica Federal do Paran\u00e1", "country": "Brazil", "lat": -11.553694226437853, "lon": -49.205920292988594, "website": "https://www.utfpr.edu.br/"}, {"name": "Instituto Infnet", "country": "Brazil", "lat": -13.7772187312268, "lon": -50.14970141858929, "website": "https://www.infnet.edu.br/infnet/"}, {"name": "Centro Universit\u00e1rio UniFatecie", "country": "Brazil", "lat": -15.760723580755506, "lon": -51.65374703153685, "website": "https://unifatecie.edu.br/"}, {"name": "Universidade Franciscana", "country": "Brazil", "lat": -12.317903800602181, "lon": -50.639245558329705, "website": "https://www.ufn.edu.br/"}, {"name": "Faculdade Dom Bosco", "country": "Brazil", "lat": -14.80397811205771, "lon": -49.62878620800843, "website": "https://faculdadedombosco.edu.br"}, {"name": "UNINOVE", "country": "Brazil", "lat": -14.474248445882608, "lon": -52.12303818980722, "website": "https://uninove.br"}, {"name": "Polytechnic University of Pernambuco", "country": "Brazil", "lat": -12.110274104830077, "lon": -54.73689675526529, "website": "https://upe.poli.br"}, {"name": "Cruzeiro do Sul University", "country": "Brazil", "lat": -14.603993272462198, "lon": -54.68112327543826, "website": "https://cruzeirodosul.edu.br"}, {"name": "Federal Institute of Education", "country": "Brazil", "lat": -15.922934654932416, "lon": -50.94315622735164, "website": "https://ifsp.edu.br"}, {"name": "Universidade Virtual do Estado de S\u00e3o Paulo", "country": "Brazil", "lat": -13.211749754918555, "lon": -51.83622591199177, "website": "https://univesp.br/"}, {"name": "Universidade Estadual do Norte do Parana", "country": "Brazil", "lat": -13.038567146712218, "lon": -50.26774324735077, "website": "https://uenp.edu.br/"}, {"name": "Universidade do Vale do Para\u00edba \u2013 Univap", "country": "Brazil", "lat": -16.50135822711338, "lon": -53.967987225853655, "website": "https://www.univap.br/univap/"}, {"name": "Universidade Anhembi Morumbi - UAM", "country": "Brazil", "lat": -13.233111877047326, "lon": -50.42999110218533, "website": "https://portal.anhembi.br/"}, {"name": "Faculdade Do Instituto Nacional De P\u00f3s-Gradua\u00e7\u00e3o - Faculdade INPG", "country": "Brazil", "lat": -13.511279535024942, "lon": -49.69777597598841, "website": "https://www.inpg.edu.br/"}, {"name": "Centro Universit\u00e1rio De Goi\u00e1s - UNIGOI\u00c1S", "country": "Brazil", "lat": -14.254531730216833, "lon": -49.088094357162085, "website": "https://unigoias.com.br/"}, {"name": "Centro Universit\u00e1rio \u00c1lvares Penteado - FECAP", "country": "Brazil", "lat": -12.617294912614117, "lon": -54.11589499273098, "website": "https://www.fecap.br/"}, {"name": "Centro Universit\u00e1rio Facens - UniFACENS", "country": "Brazil", "lat": -16.236298830846803, "lon": -50.17112938696214, "website": "https://facens.br/"}, {"name": "Centro Universit\u00e1rio Ant\u00f4nio Eufr\u00e1sio de Toledo de Presidente Prudente - TOLEDO PRUDENTE", "country": "Brazil", "lat": -12.320921119041262, "lon": -50.605999816735675, "website": "https://toledoprudente.edu.br/"}, {"name": "Faculdade Impacta - IMPACTA", "country": "Brazil", "lat": -14.215795324184489, "lon": -51.18965347986977, "website": "https://www.impacta.edu.br/"}, {"name": "Instituto de Tecnologia e Lideran\u00e7a - Inteli", "country": "Brazil", "lat": -15.709494195968212, "lon": -51.33711257508086, "website": "https://www.inteli.edu.br/"}]