[{"name": "IU Internationale Hochschule GmbH", "country": "Germany", "lat": 49.78324254631093, "lon": 11.39559907691034, "website": "https://www.iu-fernstudium.de/"}, {"name": "AKAD Hochschulen f\u00fcr Berufst\u00e4tige, Fachhochschule Leipzig", "country": "Germany", "lat": 50.60587407496718, "lon": 13.14261548275711, "website": "http://www.akad.de/"}, {"name": "Alice-Salomon-Fachhochschule f\u00fcr Sozialarbeit und Sozialp\u00e4dagogik Berlin", "country": "Germany", "lat": 48.89576489695703, "lon": 8.541820901912473, "website": "http://www.asfh-berlin.de/"}, {"name": "Augustana Hochschule Neuendettelsau", "country": "Germany", "lat": 53.02970324176347, "lon": 12.4881303073379, "website": "http://www.augustana.de/"}, {"name": "Kirchliche Hochschule Bethel", "country": "Germany", "lat": 48.18134723736736, "lon": 8.263801444687456, "website": "http://www.bethel.de/kiho/"}, {"name": "BiTS - Business and Information Technology School gGmbH", "country": "Germany", "lat": 51.208348250184464, "lon": 11.098728567903162, "website": "http://www.bits-iserlohn.de/"}, {"name": "Cologne Business School", "country": "Germany", "lat": 53.853400285733315, "lon": 9.67572442238362, "website": "http://www.cbs.de/"}, {"name": "CODE University of Applied Sciences Berlin", "country": "Germany", "lat": 50.00624247552772, "lon": 9.594774739058813, "website": "http://code.berlin/"}, {"name": "Deutsche Hochschule f\u00fcr Verwaltungswissenschaften Speyer", "country": "Germany", "lat": 53.80566894720378, "lon": 11.39250831172333, "website": "http://www.dhv-speyer.de/"}, {"name": "DIPLOMA-Fachhochschule \u00d6lsnitz/Vogtland", "country": "Germany", "lat": 52.20643202733783, "lon": 11.33074834179474, "website": "http://www.diploma.de/"}, {"name": "Deutsche Sporthochschule K\u00f6ln", "country": "Germany", "lat": 49.93499286988266, "lon": 10.09755623588697, "website": "http://www.dshs-koeln.de/"}, {"name": "E.A.P. Europ\u00e4ische Wirtschaftshochschule Berlin", "country": "Germany", "lat": 53.770125414513096, "lon": 13.35752517400039, "website": "http://www.eap.net/"}, {"name": "Europ\u00e4ische Betriebswirtschafts-Akademie", "country": "Germany", "lat": 48.81704501633213, "lon": 11.504757538615106, "website": "http://www.eba-muenchen.de/"}, {"name": "European Business School Schlo\u00df Reichartshausen", "country": "Germany", "lat": 50.22425585666577, "lon": 11.187495354614061, "website": "http://www.ebs.de/"}, {"name": "European College of Liberal Arts", "country": "Germany", "lat": 51.31034967008141, "lon": 10.672831829235795, "website": "http://www.ecla.de/"}, {"name": "Evangelische Fachhochschule Rheinland-Westfalen-Lippe", "country": "Germany", "lat": 49.72031175782044, "lon": 11.697656093829725, "website": "http://www.efh-bochum.de/"}, {"name": "Evangelische Fachhochschule Darmstadt", "country": "Germany", "lat": 51.67234351781328, "lon": 10.515019544333558, "website": "https://www.eh-darmstadt.de/"}, {"name": "Evangelische Fachhochschule Freiburg, Hochschule f\u00fcr Soziale Arbeit, Diakonie und Religionsp\u00e4dagogik", "country": "Germany", "lat": 52.79586567367035, "lon": 12.725477477685708, "website": "http://www.efh-freiburg.de/"}, {"name": "Evangelische Fachhochschule Hannover", "country": "Germany", "lat": 51.401484588945394, "lon": 10.051800915258045, "website": "http://www.efh-hannover.de/"}, {"name": "Evangelische Fachhochschule Ludwigshafen Hochschule f\u00fcr Sozial- und Gesundheitswesen", "country": "Germany", "lat": 49.49114061641077, "lon": 7.9656838081137575, "website": "http://www.efhlu.de/"}, {"name": "Evangelische Fachhochschule Reutlingen-Ludwigsburg, Hochschule f\u00fcr Soziale Arbeit, Religionsp\u00e4dagogik und Diakonie", "country": "Germany", "lat": 50.309850812798196, "lon": 7.614792750077844, "website": "http://www.efh-reutlingen-ludwigsburg.de/"}, {"name": "Evangelische Hochschule f\u00fcr Soziale Arbeit Dresden (FH)", "country": "Germany", "lat": 49.78319479567844, "lon": 11.156454812544577, "website": "http://www.ehs-dresden.de/"}, {"name": "European Management School", "country": "Germany", "lat": 51.2732411118725, "lon": 10.065271949359065, "website": "http://www.ems-mainz.de/"}, {"name": "Europ\u00e4ische Fachhochschule", "country": "Germany", "lat": 52.28461331662958, "lon": 13.12212367987269, "website": "http://www.eufh.de/"}, {"name": "Europa-Universit\u00e4t Viadrina Frankfurt (Oder)", "country": "Germany", "lat": 50.20973740891206, "lon": 13.15804076967253, "website": "http://www.euv-frankfurt-o.de/"}, {"name": "Evangelische Fachhochschule Berlin, Fachhochschule f\u00fcr Sozialarbeit und Sozialp\u00e4dagogik", "country": "Germany", "lat": 52.6946927314227, "lon": 12.914663756089809, "website": "http://www.evfh-berlin.de/"}, {"name": "Evangelische Fachhochschule N\u00fcrnberg", "country": "Germany", "lat": 50.29988172997247, "lon": 12.66940637487689, "website": "http://www.evfh-nuernberg.de/"}, {"name": "Fern-Fachhochschule Hamburg", "country": "Germany", "lat": 49.951688816547126, "lon": 8.624632614429874, "website": "http://www.fern-fh.de/"}, {"name": "Fernuniversit\u00e4t Gesamthochschule Hagen", "country": "Germany", "lat": 48.707594001121606, "lon": 9.583010699925502, "website": "http://www.fernuni-hagen.de/"}, {"name": "Fachhochschule Aachen", "country": "Germany", "lat": 49.80892841761874, "lon": 10.758936515693122, "website": "http://www.fh-aachen.de/"}, {"name": "Fachhochschule Aschaffenburg", "country": "Germany", "lat": 49.1426427879815, "lon": 9.953098038175579, "website": "http://www.fh-aschaffenburg.de/"}, {"name": "Technical University of Applied Sciences Augsburg", "country": "Germany", "lat": 53.16646500133662, "lon": 9.142780364967798, "website": "https://www.tha.de/"}, {"name": "Internationale Fachhochschule Bad Honnef", "country": "Germany", "lat": 48.99796740115078, "lon": 12.915998415108742, "website": "http://www.fh-bad-honnef.de/"}, {"name": "Fachhochschule Biberach, Hochschule f\u00fcr Bauwesen und Wirtschaft", "country": "Germany", "lat": 48.28559418760932, "lon": 13.064878412973936, "website": "http://www.fh-biberach.de/"}, {"name": "Fachhochschule Bielefeld", "country": "Germany", "lat": 49.21185419880157, "lon": 12.178245949530869, "website": "http://www.fh-bielefeld.de/"}, {"name": "Fachhochschule Bingen", "country": "Germany", "lat": 50.161866863150976, "lon": 10.480927876877482, "website": "http://www.fh-bingen.de/"}, {"name": "Fachhochschule Bochum", "country": "Germany", "lat": 50.28647001551511, "lon": 9.093257287102169, "website": "http://www.fh-bochum.de/"}, {"name": "Hochschule Bonn-Rhein-Sieg", "country": "Germany", "lat": 51.287595442232146, "lon": 8.224845472210674, "website": "http://www.hochschule-bonn-rhein-sieg.de/"}, {"name": "Fachhochschule Brandenburg", "country": "Germany", "lat": 49.60938970764589, "lon": 10.561126234965025, "website": "http://www.fh-brandenburg.de/"}, {"name": "Technische Hochschule Brandenburg", "country": "Germany", "lat": 51.30148646219085, "lon": 13.232426195670444, "website": "http://www.th-brandenburg.de/"}, {"name": "Technische Hochschule Deggendorf", "country": "Germany", "lat": 52.48969855667692, "lon": 9.995750511642264, "website": "http://www.th-deg.de/"}, {"name": "Fachhochschule Dortmund", "country": "Germany", "lat": 49.681441538303105, "lon": 10.454287592013241, "website": "http://www.fh-dortmund.de/"}, {"name": "Hochschule D\u00fcsseldorf", "country": "Germany", "lat": 51.973724178555855, "lon": 9.585776212532952, "website": "http://www.hs-duesseldorf.de/"}, {"name": "Fachhochschule f\u00fcr die Wirtschaft", "country": "Germany", "lat": 48.834616688339636, "lon": 10.335234854633548, "website": "http://www.fhdw.bib.de/"}, {"name": "Fachhochschule der Wirtschaft", "country": "Germany", "lat": 49.987428968385295, "lon": 10.224912892231998, "website": "http://www.fhdw.de/"}, {"name": "Fachhochschule Eberswalde", "country": "Germany", "lat": 51.12312834299176, "lon": 10.48251855315581, "website": "http://www.fh-eberswalde.de/"}, {"name": "Fachhochschule Erfurt", "country": "Germany", "lat": 50.39139695288904, "lon": 10.092235915524936, "website": "http://www.fh-erfurt.de/"}, {"name": "Fachhochschule Flensburg", "country": "Germany", "lat": 54.00663539328842, "lon": 12.103459002641387, "website": "http://www.fh-flensburg.de/"}, {"name": "Fachhochschule Frankfurt am Main", "country": "Germany", "lat": 50.96989267917085, "lon": 9.700716397402452, "website": "http://www.fh-frankfurt.de/"}, {"name": "Europa Fachhochschule Fresenius", "country": "Germany", "lat": 53.48984302985696, "lon": 9.875428889160286, "website": "http://www.fh-fresenius.de/"}, {"name": "Fachhochschule Furtwangen, Hochschule f\u00fcr Technik und Wirtschaft", "country": "Germany", "lat": 51.46616514364899, "lon": 12.185492772910422, "website": "http://www.fh-furtwangen.de/"}, {"name": "Fachhochschule Gelsenkirchen", "country": "Germany", "lat": 52.729950570006544, "lon": 7.497687869191195, "website": "http://www.fh-gelsenkirchen.de/"}, {"name": "Fachhochschule Gie\u00dfen-Friedberg", "country": "Germany", "lat": 50.293404170067014, "lon": 9.935535759976828, "website": "http://www.fh-giessen.de/"}, {"name": "Fachhochschule Hamburg", "country": "Germany", "lat": 51.997682463498826, "lon": 9.70818017669706, "website": "http://www.fh-hamburg.de/"}, {"name": "Hamburg University of Applied Sciences (HAW Hamburg)", "country": "Germany", "lat": 48.69003388020335, "lon": 13.417603045949505, "website": "https://haw-hamburg.de"}, {"name": "Fachhochschule Hannover", "country": "Germany", "lat": 48.42636300486985, "lon": 12.249915134184274, "website": "http://www.fh-hannover.de/"}, {"name": "Fachhochschule Heidelberg", "country": "Germany", "lat": 51.665936621632895, "lon": 10.026978837534465, "website": "http://www.fh-heidelberg.de/"}, {"name": "Fachhochschule Heilbronn, Hochschule f\u00fcr Technik und Wirtschaft", "country": "Germany", "lat": 52.5350443564753, "lon": 9.560841526138166, "website": "http://www.fh-heilbronn.de/"}, {"name": "Fachhochschule Hildesheim/Holzminden/G\u00f6ttingen, Hochschule f\u00fcr angewandte Wissenschaft und Kunst", "country": "Germany", "lat": 53.87148897976621, "lon": 12.898434778961306, "website": "http://www.fh-hildesheim.de/"}, {"name": "Fachhochschule Hof", "country": "Germany", "lat": 49.47091648454304, "lon": 7.889889501713039, "website": "http://www.fh-hof.de/"}, {"name": "Technische Hochschule Ingolstadt", "country": "Germany", "lat": 52.096324785787715, "lon": 12.678131499060846, "website": "https://www.thi.de/"}, {"name": "Fachhochschule und Berufskollegs NTA, Prof.Dr. Gr\u00fcbler gemein. GmbH", "country": "Germany", "lat": 49.67546927240309, "lon": 10.4751311516754, "website": "http://www.fh-isny.de/"}, {"name": "Fachhochschule Jena", "country": "Germany", "lat": 50.71709378202296, "lon": 9.077991374108201, "website": "http://www.fh-jena.de/"}, {"name": "Fachhochschule Karlsruhe, Hochschule f\u00fcr Technik", "country": "Germany", "lat": 49.683314035193064, "lon": 12.834986598384836, "website": "http://www.fh-karlsruhe.de/"}, {"name": "Fachhochschule Kempten, Hochschule f\u00fcr Technik und Wirtschaft", "country": "Germany", "lat": 50.162853766842886, "lon": 8.524280787464953, "website": "http://www.fh-Kempten.de/"}, {"name": "Fachhochschule Kiel", "country": "Germany", "lat": 51.63619527648661, "lon": 8.094540823705282, "website": "http://www.fh-kiel.de/"}, {"name": "Fachhochschule Kaiserslautern", "country": "Germany", "lat": 53.18917056175213, "lon": 9.798384035862322, "website": "http://www.fh-kl.de/"}, {"name": "Fachhochschule Koblenz", "country": "Germany", "lat": 53.4379372605879, "lon": 13.052133304177872, "website": "http://www.fh-koblenz.de/"}, {"name": "Technische Hochschule K\u00f6ln", "country": "Germany", "lat": 48.351878288727235, "lon": 13.118564638878546, "website": "https://www.th-koeln.de/"}, {"name": "Fachhochschule Konstanz, Hochschule f\u00fcr Technik, Wirtschaft und Gestaltung", "country": "Germany", "lat": 50.888273931264294, "lon": 10.725694366687067, "website": "http://www.fh-konstanz.de/"}, {"name": "Staatlich anerkannte Fachhochschule f\u00fcr Kunsttherapie", "country": "Germany", "lat": 48.346156543730174, "lon": 9.67829501468939, "website": "http://www.fhkt.de/"}, {"name": "Fachhochschule Landshut, Hochschule f\u00fcr Wirtschaft - Sozialwesen - Technik", "country": "Germany", "lat": 50.49713272550612, "lon": 7.452785717919925, "website": "http://www.fh-landshut.de/"}, {"name": "Fachhochschule Lausitz", "country": "Germany", "lat": 52.768722448538654, "lon": 8.12955406804297, "website": "http://www.fh-lausitz.de/"}, {"name": "Fachhochschule Lippe", "country": "Germany", "lat": 50.0055619430061, "lon": 12.051910625581232, "website": "http://www.fh-lippe.de/"}, {"name": "Fachhochschule Ludwigshafen, Hochschule f\u00fcr Wirtschaft", "country": "Germany", "lat": 49.9242678938264, "lon": 13.045685210901873, "website": "http://www.fh-ludwigshafen.de/"}, {"name": "Fachhochschule L\u00fcbeck", "country": "Germany", "lat": 48.220819086298114, "lon": 10.854666058772906, "website": "http://www.fh-luebeck.de/"}, {"name": "Fachhochschule Mainz", "country": "Germany", "lat": 52.011104130501785, "lon": 10.779469024028986, "website": "http://www.fh-mainz.de/"}, {"name": "Fachhochschule Mannheim, Hochschule f\u00fcr Technik und Gestaltung", "country": "Germany", "lat": 53.6472475185772, "lon": 10.3125545744258, "website": "http://www.fh-mannheim.de/"}, {"name": "Fachhochschule Merseburg", "country": "Germany", "lat": 53.771168594317146, "lon": 8.482947968662776, "website": "http://www.fh-merseburg.de/"}, {"name": "Fachhochschule des Mittelstandes (FHM)", "country": "Germany", "lat": 49.93808108793751, "lon": 12.042585908181689, "website": "http://www.fhm-mittelstand.de/"}, {"name": "Fachhochschule M\u00fcnchen", "country": "Germany", "lat": 53.715803096048006, "lon": 12.944790469477343, "website": "http://www.fh-muenchen.de/"}, {"name": "Hochschule M\u00fcnchen", "country": "Germany", "lat": 50.252168751295834, "lon": 9.678099452496363, "website": "http://www.hm.edu/"}, {"name": "Fachhochschule M\u00fcnster", "country": "Germany", "lat": 48.96636193130244, "lon": 10.774206780887466, "website": "http://www.fh-muenster.de/"}, {"name": "Fachhochschule Neubrandenburg", "country": "Germany", "lat": 48.441347389664706, "lon": 12.687643635806676, "website": "http://www.fh-nb.de/"}, {"name": "Hochschule Neu-Ulm, Hochschule Neu-Ulm University of applied sciences", "country": "Germany", "lat": 50.27454277066893, "lon": 10.453084972245538, "website": "http://www.hs-neu-ulm.de/"}, {"name": "Fachhochschule Niederrhein", "country": "Germany", "lat": 52.74868708256747, "lon": 10.52417586039587, "website": "http://www.fh-niederrhein.de/"}, {"name": "Fachhochschule Nordostniedersachsen", "country": "Germany", "lat": 48.85034987906029, "lon": 10.218638302236812, "website": "http://www.fhnon.de/"}, {"name": "Fachhochschule Nordhausen", "country": "Germany", "lat": 50.85728341451986, "lon": 9.24971734665959, "website": "http://www.fh-nordhausen.de/"}, {"name": "Georg-Simon-Ohm-Fachhochschule N\u00fcrnberg", "country": "Germany", "lat": 49.60746056602379, "lon": 13.23255121351133, "website": "http://www.fh-nuernberg.de/"}, {"name": "Fachhochschule N\u00fcrtingen, Hochschule f\u00fcr Wirtschaft, Landwirtschaft und Landespflege", "country": "Germany", "lat": 53.00122404598921, "lon": 9.415770456257746, "website": "http://www.fh-nuertingen.de/"}, {"name": "Fachhochschule f\u00fcr das \u00f6ffentliche Bibliothekswesen Bonn", "country": "Germany", "lat": 52.90010251354744, "lon": 9.206690434171746, "website": "http://www.fhoebb.de/"}, {"name": "Fachhochschule Offenburg, Hochschule f\u00fcr Technik und Wirtschaft", "country": "Germany", "lat": 50.21113116427251, "lon": 12.839391747811682, "website": "http://www.fh-offenburg.de/"}, {"name": "Fachhochschule Oldenburg/Ostfriesland/Wilhelmshaven", "country": "Germany", "lat": 52.292844329439696, "lon": 11.645840608701963, "website": "http://www.fh-oow.de/"}, {"name": "Fachhochschule Osnabr\u00fcck", "country": "Germany", "lat": 53.171044904541226, "lon": 12.435129438047504, "website": "http://www.fh-osnabrueck.de/"}, {"name": "Freie Kunst-Studienst\u00e4tte Ottersberg", "country": "Germany", "lat": 50.32795556055735, "lon": 10.226357864260423, "website": "http://www.fh-ottersberg.de/"}, {"name": "Fachhochschule Pforzheim, Hochschule f\u00fcr Gestaltung, Technik und Wirtschaft", "country": "Germany", "lat": 52.16534671868252, "lon": 11.433629215621139, "website": "http://www.fh-pforzheim.de/"}, {"name": "Fachhochschule Potsdam", "country": "Germany", "lat": 49.19486855885011, "lon": 11.364149727960013, "website": "http://www.fh-potsdam.de/"}, {"name": "Fachhochschule Regensburg", "country": "Germany", "lat": 52.85867614036148, "lon": 12.38362911870665, "website": "http://www.fh-regensburg.de/"}, {"name": "Fachhochschule Reutlingen, Hochschule f\u00fcr Technik und Wirtschaft", "country": "Germany", "lat": 50.22992632058764, "lon": 11.41933406638386, "website": "http://www.fh-reutlingen.de/"}, {"name": "Deutsch-Ordens Fachhochschule Riedlingen, Hochschule f\u00fcr Wirtschaft", "country": "Germany", "lat": 53.997522272641916, "lon": 10.987876951627557, "website": "http://www.fh-riedlingen.de/"}, {"name": "Fachhochschule Rosenheim, Hochschule f\u00fcr Technik und Wirtschaft", "country": "Germany", "lat": 53.59078280305185, "lon": 12.46714955838333, "website": "http://www.fh-rosenheim.de/"}, {"name": "Fachhochschule Rottenburg, Hochschule f\u00fcr Forstwirtschaft", "country": "Germany", "lat": 53.9877786344378, "lon": 8.56826867650734, "website": "http://www.fh-rottenburg.de/"}, {"name": "Fachhochschule Schmalkalden", "country": "Germany", "lat": 50.23061996875332, "lon": 9.93033540708495, "website": "http://www.fh-schmalkalden.de/"}, {"name": "Fachhochschule Schw\u00e4bisch Hall, Hochschule f\u00fcr Gestaltung", "country": "Germany", "lat": 53.30109872698047, "lon": 8.984994867147659, "website": "http://www.fh-schwaebischhall.de/"}, {"name": "Fachhochschule Mannheim, Hochschule f\u00fcr Sozialwesen", "country": "Germany", "lat": 50.207703756997546, "lon": 12.381627954895091, "website": "http://www.fhs-mannheim.de/"}, {"name": "Evangelische Fachhochschule f\u00fcr Religionsp\u00e4dagogik, und Gemeindediakonie Moritzburg", "country": "Germany", "lat": 52.35937236268753, "lon": 7.774190343008003, "website": "http://www.fhs-moritzburg.de/"}, {"name": "Fachhochschule Stralsund", "country": "Germany", "lat": 52.541239858231876, "lon": 12.441365376077293, "website": "http://www.fh-stralsund.de/"}, {"name": "Deutsche Telekom Fachhochschule Leipzig", "country": "Germany", "lat": 49.49907004948637, "lon": 10.3150468120292, "website": "http://www.fh-telekom-leipzig.de/"}, {"name": "Fachhochschule Trier, Hochschule f\u00fcr Technik, Wirtschaft und Gestaltung", "country": "Germany", "lat": 52.25169172163645, "lon": 8.525112337823694, "website": "http://www.fh-trier.de/"}, {"name": "Fachhochschule Stuttgart, Hochschule f\u00fcr Technik", "country": "Germany", "lat": 54.08514251855464, "lon": 10.019355950087279, "website": "http://www.fht-stuttgart.de/"}, {"name": "Hochschule f\u00fcr Technik und Wirtschaft Berlin", "country": "Germany", "lat": 52.65863211392658, "lon": 13.383721077062738, "website": "https://www.htw-berlin.de/"}, {"name": "Hochschule Ulm, Hochschule f\u00fcr Angewandte Wissenschaft", "country": "Germany", "lat": 53.72790826057077, "lon": 12.030732961354195, "website": "http://www.hs-ulm.de/"}, {"name": "Fachhochschule f\u00fcr Verwaltung und Rechtspflege Berlin", "country": "Germany", "lat": 49.955605510187326, "lon": 12.108564546556757, "website": "http://www.fhvr.berlin.de/"}, {"name": "Fachhochschule f\u00fcr Wirtschaft Berlin", "country": "Germany", "lat": 49.66993824914106, "lon": 10.136843000402473, "website": "http://www.fhw-berlin.de/"}, {"name": "Fachhochschule Wedel", "country": "Germany", "lat": 52.127695697431406, "lon": 12.205255128863634, "website": "http://www.fh-wedel.de/"}, {"name": "Fachhochschule Weihenstephan", "country": "Germany", "lat": 50.37893878058628, "lon": 7.879595727470036, "website": "http://www.fh-weihenstephan.de/"}, {"name": "Fachhochschule Ravensburg-Weingarten", "country": "Germany", "lat": 51.66431764587879, "lon": 10.69483887444846, "website": "http://www.fh-weingarten.de/"}, {"name": "Fachhochschule Westk\u00fcste, Hochschule f\u00fcr Wirtschaft und Technik", "country": "Germany", "lat": 51.353802387780796, "lon": 10.879422260879515, "website": "http://www.fh-westkueste.de/"}, {"name": "Fachhochschule Wiesbaden", "country": "Germany", "lat": 53.31604716921018, "lon": 11.07709932811064, "website": "http://www.fh-wiesbaden.de/"}, {"name": "Ostfalia Hochschule f\u00fcr angewandte Wissenschaften", "country": "Germany", "lat": 51.91805296574788, "lon": 11.338980735948567, "website": "https://www.ostfalia.de/"}, {"name": "Fachhochschule Worms", "country": "Germany", "lat": 49.7451200917715, "lon": 9.20287133055054, "website": "http://www.fh-worms.de/"}, {"name": "Private Fachhochschule f\u00fcr Wirtschaft und Technik Vechta/Diepholz", "country": "Germany", "lat": 52.28998099526297, "lon": 8.143393642189837, "website": "http://www.fhwt.de/"}, {"name": "Fachhochschule W\u00fcrzburg - Schweinfurt", "country": "Germany", "lat": 54.13223294844546, "lon": 9.986572194177915, "website": "http://www.fh-wuerzburg.de/"}, {"name": "Wests\u00e4chsische Hochschule Zwickau (FH)", "country": "Germany", "lat": 54.101628934739196, "lon": 9.75821962202051, "website": "http://www.fh-zwickau.de/"}, {"name": "Fachhochschule f\u00fcr Oekonomie und Management (FOM)", "country": "Germany", "lat": 52.0628861557675, "lon": 10.091331026762921, "website": "http://www.fom.de/"}, {"name": "Freie Universit\u00e4t Berlin", "country": "Germany", "lat": 50.82234565097967, "lon": 11.261642903088124, "website": "http://www.fu-berlin.de/"}, {"name": "Private Hanseuniversit\u00e4t", "country": "Germany", "lat": 50.89512183838821, "lon": 7.944100710886797, "website": "http://www.hanseuni.de/"}, {"name": "Hafencity Universit\u00e4t Hamburg", "country": "Germany", "lat": 48.36118526015164, "lon": 12.17220895029093, "website": "http://www.hcu-hamburg.de/"}, {"name": "Fachhochschule Stuttgart, Hochschule der Medien", "country": "Germany", "lat": 52.64258258489914, "lon": 13.04087822368978, "website": "http://www.hdm-stuttgart.de/"}, {"name": "Hertie School of Governance", "country": "Germany", "lat": 48.794724972167955, "lon": 9.343300361490293, "website": "http://www.hertie-school.org/"}, {"name": "Hochschule f\u00fcr Bankwirtschaft (HfB), Private Fachhochschule der Bankakademie", "country": "Germany", "lat": 52.02441306921713, "lon": 10.179652804323183, "website": "http://www.hfb.de/"}, {"name": "Fachhochschule Schw\u00e4bisch Gm\u00fcnd, Hochschule f\u00fcr Gestaltung", "country": "Germany", "lat": 48.872986994753475, "lon": 11.102815655935032, "website": "http://www.hfg-gmuend.de/"}, {"name": "Hochschule f\u00fcr Philosophie M\u00fcnchen", "country": "Germany", "lat": 49.077551876624995, "lon": 10.029644827819885, "website": "http://www.hfph.mwn.de/"}, {"name": "Hochschule f\u00fcr Politik (HFP)", "country": "Germany", "lat": 52.05356616314557, "lon": 12.894532664246636, "website": "http://www.hfp.mhn.de/"}, {"name": "Handelshochschule Leipzig", "country": "Germany", "lat": 52.96999837625569, "lon": 11.716083660337965, "website": "http://www.hhl.de/"}, {"name": "Hochschule f\u00fcr Internationales Management", "country": "Germany", "lat": 48.35509929516732, "lon": 8.18893009657833, "website": "http://www.himh.de/"}, {"name": "Hochschule f\u00fcr J\u00fcdische Studien Heidelberg", "country": "Germany", "lat": 51.918833578411125, "lon": 11.79873481034636, "website": "http://www.hjs.uni-heidelberg.de/"}, {"name": "Hochschule Albstadt-Sigmaringen", "country": "Germany", "lat": 52.558002649141294, "lon": 7.596180186020392, "website": "http://www.hs-albsig.de/"}, {"name": "Hochschule Anhalt (FH), Hochschule f\u00fcr angewandte Wissenschaften", "country": "Germany", "lat": 50.95597803107627, "lon": 10.82268207714662, "website": "http://www.hs-anhalt.de/"}, {"name": "Hochschule Bremen", "country": "Germany", "lat": 50.370653567665784, "lon": 12.982649960291537, "website": "http://www.hs-bremen.de/"}, {"name": "Hochschule Bremerhaven", "country": "Germany", "lat": 52.41215016075826, "lon": 11.840420129660794, "website": "http://www.hs-bremerhaven.de/"}, {"name": "Hochschule Coburg", "country": "Germany", "lat": 51.53617412902768, "lon": 10.998216106690258, "website": "http://www.hs-coburg.de/"}, {"name": "Hochschule Darmstadt", "country": "Germany", "lat": 53.3154202491403, "lon": 9.279865452163634, "website": "https://www.h-da.de/"}, {"name": "Hochschule Esslingen", "country": "Germany", "lat": 49.83140387987776, "lon": 12.038147149822354, "website": "http://www.hs-esslingen.de/"}, {"name": "Hochschule Fulda", "country": "Germany", "lat": 52.38628379256281, "lon": 8.789117630469393, "website": "http://www.hs-fulda.de/"}, {"name": "Hochschule Harz, Hochschule f\u00fcr angewandte Wissenschaften (FH)", "country": "Germany", "lat": 53.50615032536395, "lon": 11.518178546215664, "website": "http://www.hs-harz.de/"}, {"name": "Hochschule Magdeburg-Stendal (FH)", "country": "Germany", "lat": 51.579467273616686, "lon": 11.545718390173459, "website": "http://www.hs-magdeburg.de/"}, {"name": "Hochschule Wismar, Fachhochschule f\u00fcr Technik, Wirtschaft und Gestaltung", "country": "Germany", "lat": 48.1972123141888, "lon": 9.583422848178156, "website": "http://www.hs-wismar.de/"}, {"name": "Hochschule Zittau/G\u00f6rlitz (FH)", "country": "Germany", "lat": 50.26970544270706, "lon": 11.464656753243478, "website": "http://www.hs-zigr.de/"}, {"name": "Hochschule f\u00fcr Technik und Wirtschaft Dresden (FH)", "country": "Germany", "lat": 50.87405252508991, "lon": 8.869696669974964, "website": "http://www.htw-dresden.de/"}, {"name": "Hochschule f\u00fcr Technik, Wirtschaft und Kultur Leipzig (FH)", "country": "Germany", "lat": 51.25545962166549, "lon": 12.389976695420332, "website": "http://www.htwk-leipzig.de/"}, {"name": "Hochschule Mittweida, University of Applied Sciences", "country": "Germany", "lat": 52.77164804561296, "lon": 8.899996303019018, "website": "http://www.htwm.de/"}, {"name": "Hochschule f\u00fcr Technik und Wirtschaft des Saarlandes", "country": "Germany", "lat": 50.441816432951825, "lon": 13.390195313330274, "website": "http://www.htw-saarland.de/"}, {"name": "Humboldt Universit\u00e4t Berlin", "country": "Germany", "lat": 51.706314312720615, "lon": 7.621294823594841, "website": "http://www.hu-berlin.de/"}, {"name": "HWP - Hamburger Universit\u00e4t f\u00fcr Wirtschaft und Politik", "country": "Germany", "lat": 51.57560118798563, "lon": 9.621006482033998, "website": "http://www.hwp-hamburg.de/"}, {"name": "Internationales Hochschulinstitut Zittau", "country": "Germany", "lat": 53.44808268967043, "lon": 10.09331159721311, "website": "http://www.ihi-zittau.de/"}, {"name": "Internationale Fachhochschule Aalen", "country": "Germany", "lat": 49.765392976572585, "lon": 12.89852703720646, "website": "http://www.international.fh-aalen.de/"}, {"name": "International School of Management ISM Dortmund", "country": "Germany", "lat": 49.44761322682818, "lon": 11.434474869549325, "website": "http://www.ism-dortmund.de/"}, {"name": "International School of New Media, University of L\u00fcbeck", "country": "Germany", "lat": 49.88678891139944, "lon": 11.239948306637089, "website": "http://www.isnm.de/"}, {"name": "International University in Germany", "country": "Germany", "lat": 49.92942592917654, "lon": 13.006850083550258, "website": "http://www.i-u.de/"}, {"name": "Jacobs University Bremen", "country": "Germany", "lat": 53.40853196944685, "lon": 10.202415300650339, "website": "http://www.jacobs-university.de/"}, {"name": "Karlshochschule International University", "country": "Germany", "lat": 51.2932745165718, "lon": 8.545946582220786, "website": "http://www.karlshochschule.de/"}, {"name": "Katholische Fachhochschule Norddeutschland", "country": "Germany", "lat": 50.64496983906668, "lon": 10.14781407727181, "website": "http://www.kath-fh-nord.de/"}, {"name": "Katholische Fachhochschule Berlin (KFB)", "country": "Germany", "lat": 53.03844556321906, "lon": 9.673390063776369, "website": "http://www.kfb-berlin.de/"}, {"name": "Katholische Fachhochschule Freiburg, Hochschule f\u00fcr Sozialwesen, Religionsp\u00e4dagogik und Pflege", "country": "Germany", "lat": 49.02523460050541, "lon": 13.205018851431767, "website": "http://www.kfh-Freiburg.de/"}, {"name": "Katholische Fachhochschule Mainz", "country": "Germany", "lat": 52.63335420707126, "lon": 10.394185094332038, "website": "http://www.kfh-mainz.de/"}, {"name": "Katholische Fachhochschule Nordrhein-Westfalen", "country": "Germany", "lat": 50.47443625648398, "lon": 9.19248165102142, "website": "http://www.kfhnw.de/"}, {"name": "Kunsthochschule Berlin-Weissensee, Hochschule f\u00fcr Gestaltung", "country": "Germany", "lat": 50.25325161408532, "lon": 7.833469873959004, "website": "http://www.kh-berlin.de/"}, {"name": "Katholische Hochschule f\u00fcr Soziale Arbeit Saarbr\u00fccken", "country": "Germany", "lat": 53.869667720836176, "lon": 11.190716179828376, "website": "http://www.khsa.de/"}, {"name": "Katholische Stiftungsfachhochschule M\u00fcnchen", "country": "Germany", "lat": 51.79268370717697, "lon": 12.707053152522377, "website": "http://www.ksfh.de/"}, {"name": "Katholische Universit\u00e4t Eichst\u00e4tt", "country": "Germany", "lat": 51.928408195099415, "lon": 11.606996925282795, "website": "http://www.ku-eichstaett.de/"}, {"name": "Kunstakademie D\u00fcsseldorf.", "country": "Germany", "lat": 53.88139822142482, "lon": 10.721032810022216, "website": "http://www.kunstakademie-duesseldorf.de/"}, {"name": "Merkur Internationale FH Karlsruhe", "country": "Germany", "lat": 51.569552462002065, "lon": 10.940946166580144, "website": "http://www.merkur-fh.org/"}, {"name": "Merz Akademie, Hochschule f\u00fcr Gestaltung Stuttgart", "country": "Germany", "lat": 51.942993344275806, "lon": 11.96268883146905, "website": "http://www.merz-akademie.de/"}, {"name": "M\u00e4rkische Fachhochschule Iserlohn", "country": "Germany", "lat": 48.54769706085311, "lon": 8.194479439869358, "website": "http://www.mfh-iserlohn.de/"}, {"name": "Medizinische Hochschule Hannover", "country": "Germany", "lat": 50.96855789844387, "lon": 8.696902066295573, "website": "http://www.mh-hannover.de/"}, {"name": "Staatliche Hochschule f\u00fcr Musik", "country": "Germany", "lat": 53.98348429846398, "lon": 10.403728807971213, "website": "http://www.mh-trossingen.de/"}, {"name": "Medizinische Universit\u00e4t L\u00fcbeck", "country": "Germany", "lat": 48.45095134502828, "lon": 9.674913791041991, "website": "http://www.mu-luebeck.de/"}, {"name": "Muthesius-Hochschule, Fachhochschule f\u00fcr Kunst und Gestaltung", "country": "Germany", "lat": 52.76782559115708, "lon": 12.029999197881871, "website": "http://www.muthesius.de/"}, {"name": "Nordakademie, Staatlich anerkannte private Fachhochschule mit dualen Studieng\u00e4ngen", "country": "Germany", "lat": 51.25485612221397, "lon": 12.420307333627845, "website": "http://www.nordakademie.de/"}, {"name": "Theologische Fakult\u00e4t Paderborn", "country": "Germany", "lat": 50.78583911254421, "lon": 9.62362603348195, "website": "http://www.paderborn.de/theofak/"}, {"name": "Private Fachhochschule G\u00f6ttingen", "country": "Germany", "lat": 53.446689307769866, "lon": 8.102767552275651, "website": "http://www.pfh-goettingen.de/"}, {"name": "P\u00e4dagogische Hochschule Erfurt/M\u00fchlhausen", "country": "Germany", "lat": 48.29838028936424, "lon": 7.904324425887131, "website": "http://www.ph-erfurt.de/"}, {"name": "P\u00e4dagogische Hochschule Freiburg", "country": "Germany", "lat": 50.72125630585353, "lon": 13.1128732366094, "website": "http://www.ph-freiburg.de/"}, {"name": "P\u00e4dagogische Hochschule Schw\u00e4bisch Gm\u00fcnd", "country": "Germany", "lat": 53.30690026271822, "lon": 10.223735598775093, "website": "http://www.ph-gmuend.de/"}, {"name": "P\u00e4dagogische Hochschule Heidelberg", "country": "Germany", "lat": 52.71256358605396, "lon": 9.377215556019472, "website": "http://www.ph-heidelberg.de/"}, {"name": "Philosophisch-Theologische Hochschule SVD Sankt Augustin", "country": "Germany", "lat": 52.18599077594112, "lon": 12.08507158211949, "website": "http://www.philtheol-augustin.de/"}, {"name": "P\u00e4dagogische Hochschule Karlsruhe", "country": "Germany", "lat": 49.72929451554959, "lon": 8.30119993202453, "website": "http://www.ph-karlsruhe.de/"}, {"name": "P\u00e4dagogische Hochschule Ludwigsburg", "country": "Germany", "lat": 49.96472497198178, "lon": 7.753549782679324, "website": "http://www.ph-ludwigsburg.de/"}, {"name": "P\u00e4dagogische Hochschule Weingarten", "country": "Germany", "lat": 49.86487697674979, "lon": 9.511261606689633, "website": "http://www.ph-weingarten.de/"}, {"name": "Popakademie Baden-W\u00fcrttemberg", "country": "Germany", "lat": 48.921036572164276, "lon": 11.555890511915251, "website": "http://www.popakademie.de/"}, {"name": "Private FernFachhochschule Darmstadt", "country": "Germany", "lat": 51.69371819068258, "lon": 11.805296247740749, "website": "http://www.privatfh-da.de/"}, {"name": "Philosophisch-Theologische Hochschule der Salesianer Don Boscos", "country": "Germany", "lat": 48.468109251117916, "lon": 7.8775708524015435, "website": "http://www.pth-bb.de/"}, {"name": "Philosophisch-Theologische Hochschule M\u00fcnster", "country": "Germany", "lat": 48.37704782070417, "lon": 12.309656665537474, "website": "http://www.pth-muenster.de/"}, {"name": "Philosophisch-Theologische Hochschule Vallendar der Gesellschaft des Katholischen Apostolates (Pallottiner)", "country": "Germany", "lat": 49.611056545026045, "lon": 11.464717220478889, "website": "http://www.pthv.de/"}, {"name": "Evangelische Fachhochschule f\u00fcr Sozialp\u00e4dagogik der \"Diakonenanstalt des Rauhen Hauses\" Hamburg", "country": "Germany", "lat": 50.3872122931428, "lon": 10.277736232641054, "website": "http://www.rauheshaus.de/fachhochschule/"}, {"name": "Rheinische Fachhochschule K\u00f6ln", "country": "Germany", "lat": 49.297550122894734, "lon": 8.754781114472767, "website": "http://www.rfh-koeln.de/"}, {"name": "Ruhr-Universit\u00e4t Bochum", "country": "Germany", "lat": 52.01807801458819, "lon": 9.620116710183124, "website": "http://www.ruhr-uni-bochum.de/"}, {"name": "Rheinisch Westf\u00e4lische Technische Hochschule Aachen", "country": "Germany", "lat": 52.403120763210495, "lon": 13.266000813479092, "website": "http://www.rwth-aachen.de/"}, {"name": "Lutherische Theologische Hochschule Oberursel", "country": "Germany", "lat": 48.681624082720745, "lon": 8.569244349529297, "website": "http://www.selk.de/LThH/"}, {"name": "Gustav-Siewerth-Akademie", "country": "Germany", "lat": 51.12642429735506, "lon": 12.622643853531738, "website": "http://www.siewerth-akademie.de/"}, {"name": "Schiller International University, Heidelberg", "country": "Germany", "lat": 49.07279697290288, "lon": 12.849227067608464, "website": "http://www.siu-heidelberg.de/"}, {"name": "SRH University of Applied Sciences", "country": "Germany", "lat": 51.7844680942298, "lon": 12.01700370841479, "website": "http://www.srh-berlin.de/"}, {"name": "Philosophisch-Theologische Hochschule Sankt Georgen", "country": "Germany", "lat": 49.47897634903032, "lon": 13.298413614652596, "website": "http://www.st-georgen.uni-frankfurt.de/"}, {"name": "Steinbeis-Hochschule-Berlin", "country": "Germany", "lat": 51.7797291649377, "lon": 11.851526999056063, "website": "http://www.stw.de/shb/"}, {"name": "Technische Fachhochschule Berlin", "country": "Germany", "lat": 50.557395072017144, "lon": 7.658882862307477, "website": "http://www.tfh-berlin.de/"}, {"name": "Technische Fachhochschule Georg Agricola f\u00fcr Rohstoff, Energie und, Umwelt zu Bochum", "country": "Germany", "lat": 51.96417945288215, "lon": 8.600142978808556, "website": "http://www.tfh-bochum.de/"}, {"name": "Technische Fachhochschule Wildau", "country": "Germany", "lat": 50.84885088736266, "lon": 11.285942458122125, "website": "http://www.tfh-wildau.de/"}, {"name": "Theologische Hochschule Friedensau", "country": "Germany", "lat": 53.420611402937524, "lon": 8.970499734633727, "website": "http://www.thh-friedensau.de/"}, {"name": "Tier\u00e4rztliche Hochschule Hannover", "country": "Germany", "lat": 53.57129618658795, "lon": 10.836815075799471, "website": "http://www.tiho-hannover.de/"}, {"name": "Technische Universit\u00e4t Berlin", "country": "Germany", "lat": 50.42996084933425, "lon": 11.028777713597165, "website": "http://www.tu-berlin.de/"}, {"name": "Technische Universit\u00e4t Carolo-Wilhelmina zu Braunschweig", "country": "Germany", "lat": 53.92586621909395, "lon": 8.287948398805192, "website": "https://www.tu-braunschweig.de/"}, {"name": "Technische Universit\u00e4t Chemnitz", "country": "Germany", "lat": 52.96928208706211, "lon": 12.6420821620458, "website": "http://www.tu-chemnitz.de/"}, {"name": "Technische Universit\u00e4t Clausthal", "country": "Germany", "lat": 48.72856131188865, "lon": 7.623311149304937, "website": "http://www.tu-clausthal.de/"}, {"name": "Brandenburgische Technische Universit\u00e4t Cottbus", "country": "Germany", "lat": 52.31763473682482, "lon": 12.841659854734615, "website": "http://www.tu-cottbus.de/"}, {"name": "Technische Universit\u00e4t Darmstadt", "country": "Germany", "lat": 53.81724155188185, "lon": 13.098716641495852, "website": "https://www.tu-darmstadt.de/"}, {"name": "Technische Universit\u00e4t Dresden", "country": "Germany", "lat": 49.192347514687334, "lon": 13.412848618277563, "website": "http://www.tu-dresden.de/"}, {"name": "Technische Universit\u00e4t Bergakademie Freiberg", "country": "Germany", "lat": 51.07766785355147, "lon": 11.617815689702018, "website": "http://www.tu-freiberg.de/"}, {"name": "Technische Universit\u00e4t Hamburg", "country": "Germany", "lat": 48.736947533523086, "lon": 11.410836669660167, "website": "http://www.tuhh.de/"}, {"name": "Technische Universit\u00e4t Ilmenau", "country": "Germany", "lat": 52.419684453875384, "lon": 7.597372762197141, "website": "http://www.tu-ilmenau.de/"}, {"name": "Technische Universit\u00e4t M\u00fcnchen", "country": "Germany", "lat": 50.169869667349055, "lon": 13.292504845182703, "website": "http://www.tum.de/"}, {"name": "Universit\u00e4t Augsburg", "country": "Germany", "lat": 48.612661929427766, "lon": 10.359048767689135, "website": "http://www.uni-augsburg.de/"}, {"name": "Otto-Friedrich Universit\u00e4t Bamberg", "country": "Germany", "lat": 53.141906982128425, "lon": 10.833960310851475, "website": "http://www.uni-bamberg.de/"}, {"name": "Universit\u00e4t Bayreuth", "country": "Germany", "lat": 48.56414901197159, "lon": 13.118604802224612, "website": "http://www.uni-bayreuth.de/"}, {"name": "Universit\u00e4t Bielefeld", "country": "Germany", "lat": 51.94555460140171, "lon": 12.938106676592632, "website": "http://www.uni-bielefeld.de/"}, {"name": "Rheinische Friedrich-Wilhelms Universit\u00e4t Bonn", "country": "Germany", "lat": 53.12689807187553, "lon": 9.18269573033328, "website": "http://www.uni-bonn.de/"}, {"name": "Universit\u00e4t Bremen", "country": "Germany", "lat": 50.708613019100305, "lon": 11.321906099241216, "website": "http://www.uni-bremen.de/"}, {"name": "Universit\u00e4t der Bundeswehr Hamburg", "country": "Germany", "lat": 48.801072553462184, "lon": 8.112299267581223, "website": "http://www.unibw-hamburg.de/"}, {"name": "Universit\u00e4t der Bundeswehr M\u00fcnchen", "country": "Germany", "lat": 51.14881881039225, "lon": 13.278275200467125, "website": "http://www.unibw-muenchen.de/"}, {"name": "Technische Universit\u00e4t Dortmund", "country": "Germany", "lat": 48.731947691630495, "lon": 9.521576905562572, "website": "http://www.tu-dortmund.de/"}, {"name": "Heinrich-Heine Universit\u00e4t D\u00fcsseldorf", "country": "Germany", "lat": 49.06889653229214, "lon": 8.816431605151337, "website": "http://www.uni-duesseldorf.de/"}, {"name": "Universit\u00e4t Duisburg-Essen", "country": "Germany", "lat": 51.735324648764916, "lon": 9.397473718873545, "website": "http://www.uni-duisburg-essen.de/"}, {"name": "Universit\u00e4t Erfurt", "country": "Germany", "lat": 51.65264829748681, "lon": 8.66796589403593, "website": "http://www.uni-erfurt.de/"}, {"name": "Friedrich-Alexander Universit\u00e4t Erlangen-N\u00fcrnberg", "country": "Germany", "lat": 52.42014331881515, "lon": 10.991362683264107, "website": "https://www.fau.de/"}, {"name": "Universit\u00e4t Flensburg", "country": "Germany", "lat": 54.02438663621293, "lon": 10.34372024514031, "website": "http://www.uni-flensburg.de/"}, {"name": "Johann Wolfgang Goethe Universit\u00e4t Frankfurt am Main", "country": "Germany", "lat": 50.025327539857756, "lon": 11.99450139241395, "website": "http://www.uni-frankfurt.de/"}, {"name": "Albert-Ludwigs-Universit\u00e4t Freiburg", "country": "Germany", "lat": 51.21137053460894, "lon": 9.926849114700639, "website": "http://www.uni-freiburg.de/"}, {"name": "Justus Liebig Universit\u00e4t Gie\u00dfen", "country": "Germany", "lat": 50.81310970119139, "lon": 11.792104964786963, "website": "http://www.uni-giessen.de/"}, {"name": "Georg-August Universit\u00e4t G\u00f6ttingen", "country": "Germany", "lat": 48.92339645992011, "lon": 10.322984869600134, "website": "http://www.uni-goettingen.de/"}, {"name": "Ernst-Moritz-Arndt Universit\u00e4t Greifswald", "country": "Germany", "lat": 49.47531422481111, "lon": 10.980343256651153, "website": "http://www.uni-greifswald.de/"}, {"name": "Martin-Luther Universit\u00e4t Halle-Wittenberg", "country": "Germany", "lat": 49.35998115065616, "lon": 9.674794386952968, "website": "http://www.uni-halle.de/"}, {"name": "Universit\u00e4t Hamburg", "country": "Germany", "lat": 50.302245973433294, "lon": 7.7755790772934565, "website": "http://www.uni-hamburg.de/"}, {"name": "Universit\u00e4t Hannover", "country": "Germany", "lat": 50.601685436330996, "lon": 12.173271585932, "website": "http://www.uni-hannover.de/"}, {"name": "Ruprecht-Karls-Universit\u00e4t Heidelberg", "country": "Germany", "lat": 48.513267385749046, "lon": 10.59677665668693, "website": "http://www.uni-heidelberg.de/"}, {"name": "Universit\u00e4t Hildesheim", "country": "Germany", "lat": 49.55124891685636, "lon": 7.833580888345656, "website": "http://www.uni-hildesheim.de/"}, {"name": "Universit\u00e4t Hohenheim", "country": "Germany", "lat": 49.74945546231773, "lon": 9.30963519023417, "website": "http://www.uni-hohenheim.de/"}, {"name": "Friedrich-Schiller Universit\u00e4t Jena", "country": "Germany", "lat": 50.13576030875934, "lon": 10.086402892161853, "website": "http://www.uni-jena.de/"}, {"name": "Karlsruher Institut f\u00fcr Technologie", "country": "Germany", "lat": 49.30025092531425, "lon": 9.164606221070025, "website": "http://www.kit.edu/"}, {"name": "Universit\u00e4t Kassel", "country": "Germany", "lat": 53.59214211220322, "lon": 13.3524446940406, "website": "http://www.uni-kassel.de/"}, {"name": "Christian-Albrechts-Universit\u00e4t Kiel", "country": "Germany", "lat": 49.19267280333319, "lon": 13.12395725672762, "website": "http://www.uni-kiel.de/"}, {"name": "Universit\u00e4t Kaiserslautern", "country": "Germany", "lat": 52.89400545794953, "lon": 10.061220578585266, "website": "http://www.uni-kl.de/"}, {"name": "Universit\u00e4t Koblenz-Landau", "country": "Germany", "lat": 49.69486810309598, "lon": 7.542895131078247, "website": "http://www.uni-koblenz-landau.de/"}, {"name": "Universit\u00e4t K\u00f6ln", "country": "Germany", "lat": 52.83892852518902, "lon": 10.587284517050259, "website": "http://www.uni-koeln.de/"}, {"name": "Universit\u00e4t Konstanz", "country": "Germany", "lat": 50.135182850226165, "lon": 11.04285934022419, "website": "http://www.uni-konstanz.de/"}, {"name": "Universit\u00e4t Leipzig", "country": "Germany", "lat": 50.80649316405255, "lon": 9.492858196983251, "website": "http://www.uni-leipzig.de/"}, {"name": "Universit\u00e4t L\u00fcneburg", "country": "Germany", "lat": 53.70493304096815, "lon": 8.884477977120087, "website": "http://www.uni-lueneburg.de/"}, {"name": "Otto-von-Guericke Universit\u00e4t Magdeburg", "country": "Germany", "lat": 50.82543173402501, "lon": 11.335736936048352, "website": "http://www.uni-magdeburg.de/"}, {"name": "Johannes-Gutenberg Universit\u00e4t Mainz", "country": "Germany", "lat": 53.849764705795195, "lon": 10.914119536146421, "website": "http://www.uni-mainz.de/"}, {"name": "Universit\u00e4t Mannheim", "country": "Germany", "lat": 49.39856897190275, "lon": 8.057175515652325, "website": "http://www.uni-mannheim.de/"}, {"name": "Phillips-Universit\u00e4t Marburg", "country": "Germany", "lat": 49.944378589802334, "lon": 8.096350765351092, "website": "http://www.uni-marburg.de/"}, {"name": "Ludwig-Maximilians-Universit\u00e4t M\u00fcnchen", "country": "Germany", "lat": 53.92732947463797, "lon": 12.844191682856728, "website": "http://www.lmu.de/"}, {"name": "Westf\u00e4lische Wilhelms-Universit\u00e4t M\u00fcnster", "country": "Germany", "lat": 52.048181924403906, "lon": 9.38690970854913, "website": "http://www.uni-muenster.de/"}, {"name": "Carl von Ossietzky Universit\u00e4t Oldenburg", "country": "Germany", "lat": 48.361515777073414, "lon": 9.026839766328601, "website": "https://uol.de"}, {"name": "Universit\u00e4t Osnabr\u00fcck", "country": "Germany", "lat": 49.06076926317321, "lon": 11.837227995525783, "website": "http://www.uni-osnabrueck.de/"}, {"name": "Universit\u00e4t Paderborn", "country": "Germany", "lat": 49.799023202087646, "lon": 13.412221326380198, "website": "http://www.uni-paderborn.de/"}, {"name": "Universit\u00e4t Passau", "country": "Germany", "lat": 50.30734501121735, "lon": 7.5566436289999555, "website": "http://www.uni-passau.de/"}, {"name": "Universit\u00e4t Potsdam", "country": "Germany", "lat": 50.67751008610237, "lon": 11.510273122821546, "website": "http://www.uni-potsdam.de/"}, {"name": "Universit\u00e4t Regensburg", "country": "Germany", "lat": 48.212327236181906, "lon": 10.748361741757705, "website": "http://www.uni-regensburg.de/"}, {"name": "Universit\u00e4t Rostock", "country": "Germany", "lat": 49.808322424527105, "lon": 7.8821912102563125, "website": "http://www.uni-rostock.de/"}, {"name": "Universit\u00e4t des Saarlandes", "country": "Germany", "lat": 51.4908696628492, "lon": 10.376768791473834, "website": "http://www.uni-saarland.de/"}, {"name": "Universit\u00e4t Siegen", "country": "Germany", "lat": 52.35302717559631, "lon": 7.536646523099264, "website": "http://www.uni-siegen.de/"}, {"name": "Universit\u00e4t Stuttgart", "country": "Germany", "lat": 48.76211849975115, "lon": 7.986728134477924, "website": "http://www.uni-stuttgart.de/"}, {"name": "Universit\u00e4t Trier", "country": "Germany", "lat": 48.701669392619266, "lon": 13.13345873045929, "website": "http://www.uni-trier.de/"}, {"name": "Eberhard-Karls-Universit\u00e4t T\u00fcbingen", "country": "Germany", "lat": 49.326424461150324, "lon": 9.519082425051417, "website": "http://www.uni-tuebingen.de/"}, {"name": "Universit\u00e4t Ulm", "country": "Germany", "lat": 48.6630120822997, "lon": 11.843744499983675, "website": "http://www.uni-ulm.de/"}, {"name": "Hochschule Vechta", "country": "Germany", "lat": 49.11942984190347, "lon": 9.042071509876095, "website": "http://www.uni-vechta.de/"}, {"name": "Bauhaus Universit\u00e4t Weimar", "country": "Germany", "lat": 53.066302828956935, "lon": 9.074301384398339, "website": "http://www.uni-weimar.de/"}, {"name": "Private Universit\u00e4t Witten/Herdecke", "country": "Germany", "lat": 52.89911767601876, "lon": 13.42505720873728, "website": "http://www.uni-wh.de/"}, {"name": "Bayerische Julius-Maximilians-Universit\u00e4t W\u00fcrzburg", "country": "Germany", "lat": 53.270637156002095, "lon": 7.60371727257052, "website": "http://www.uni-wuerzburg.de/"}, {"name": "Bergische Universit\u00e4t Gesamthochschule Wuppertal", "country": "Germany", "lat": 48.34382927758821, "lon": 9.514600622122003, "website": "http://www.uni-wuppertal.de/"}, {"name": "WHU \u2013 Otto Beisheim School of Management", "country": "Germany", "lat": 48.58005009396123, "lon": 10.533028416841145, "website": "https://www.whu.edu/"}, {"name": "Duale Hochschule Baden-W\u00fcrttemberg", "country": "Germany", "lat": 52.40968135944729, "lon": 13.405816554557202, "website": "http://www.dhbw.de/"}, {"name": "Duale Hochschule Baden-W\u00fcrttemberg Heidenheim", "country": "Germany", "lat": 48.3317137076463, "lon": 12.86141461778257, "website": "http://www.heidenheim.dhbw.de/"}, {"name": "Duale Hochschule Baden-W\u00fcrttemberg Center for Advanced Studies (CAS)", "country": "Germany", "lat": 48.84647299854366, "lon": 12.566190947878965, "website": "http://www.cas.dhbw.de/"}, {"name": "Duale Hochschule Baden-W\u00fcrttemberg L\u00f6rrach", "country": "Germany", "lat": 49.303874857240295, "lon": 10.504471514243685, "website": "http://www.dhbw-loerrach.de/"}, {"name": "Duale Hochschule Baden-W\u00fcrttemberg Mosbach", "country": "Germany", "lat": 49.35068818525104, "lon": 12.188978154121992, "website": "http://www.dhbw-mosbach.de/"}, {"name": "Duale Hochschule Baden-W\u00fcrttemberg Ravensburg", "country": "Germany", "lat": 48.982300162647675, "lon": 8.787309807186398, "website": "http://www.ravensburg.dhbw.de/"}, {"name": "Duale Hochschule Baden-W\u00fcrttemberg Stuttgart", "country": "Germany", "lat": 51.07593274860875, "lon": 9.843034904360085, "website": "http://www.dhbw-stuttgart.de/"}, {"name": "Duale Hochschule Baden-W\u00fcrttemberg Villingen-Schwenningen", "country": "Germany", "lat": 49.58251814580582, "lon": 8.870234371847904, "website": "http://www.dhbw-vs.de/"}, {"name": "Duale Hochschule Baden-W\u00fcrttemberg Heilbronn", "country": "Germany", "lat": 50.44691242892594, "lon": 10.12328707749264, "website": "http://www.heilbronn.dhbw.de/"}, {"name": "Duale Hochschule Baden-W\u00fcrttemberg Karlsruhe", "country": "Germany", "lat": 48.567548577989854, "lon": 8.97050491944088, "website": "http://www.dhbw-karlsruhe.de/"}, {"name": "Duale Hochschule Baden-Wuerttemberg Mannheim", "country": "Germany", "lat": 49.230422460407354, "lon": 11.856242142748659, "website": "http://www.dhbw-mannheim.de/"}, {"name": "Hochschule Hannover", "country": "Germany", "lat": 50.618015211286355, "lon": 11.439679411041464, "website": "https://www.hs-hannover.de/"}, {"name": "Staatliche Studienakademie Bautzen", "country": "Germany", "lat": 48.59631847001813, "lon": 12.476673669931007, "website": "https://www.ba-bautzen.de/"}, {"name": "Technische Hochschule Mittelhessen", "country": "Germany", "lat": 52.54960421914686, "lon": 8.012982635243494, "website": "https://www.thm.de"}, {"name": "Hochschule f\u00fcr Wirtschaft und Gesellschaft Ludwigshafen", "country": "Germany", "lat": 52.191223701419084, "lon": 10.390688132204085, "website": "https://www.hwg-lu.de"}, {"name": "Leuphana Universit\u00e4t L\u00fcneburg", "country": "Germany", "lat": 49.3908100490401, "lon": 12.704675148411788, "website": "https://www.leuphana.de"}, {"name": "Ostbayerische Technische Hochschule Amberg-Weiden", "country": "Germany", "lat": 51.206359998579416, "lon": 11.570531504006652, "website": "https://www.oth-aw.de/"}, {"name": "Musikhochschule L\u00fcbeck", "country": "Germany", "lat": 50.94247006952269, "lon": 9.195702427058762, "website": "https://www.mh-luebeck.de/"}, {"name": "Hochschule f\u00fcr Musik und Theater M\u00fcnchen", "country": "Germany", "lat": 49.20241832361445, "lon": 10.249111677260698, "website": "https://website.musikhochschule-muenchen.de/"}, {"name": "Universit\u00e4t der K\u00fcnste Berlin", "country": "Germany", "lat": 52.86563298570614, "lon": 7.67631234136333, "website": "https://www.udk-berlin.de/"}, {"name": "Hochschule f\u00fcr Musik und Tanz K\u00f6ln", "country": "Germany", "lat": 48.6743162243324, "lon": 10.763180796660007, "website": "https://www.hfmt-koeln.de/"}, {"name": "Hochschule f\u00fcr Musik Carl Maria von Weber", "country": "Germany", "lat": 53.3827376491162, "lon": 13.418878040000264, "website": "https://www.hfmdd.de/"}, {"name": "Hochschule f\u00fcr Musik und Darstellende Kunst Stuttgart", "country": "Germany", "lat": 49.738069044727254, "lon": 12.651484161422818, "website": "https://www.hmdk-stuttgart.de/"}, {"name": "Hochschule f\u00fcr K\u00fcnste Bremen", "country": "Germany", "lat": 49.103997417385116, "lon": 12.580451504353812, "website": "https://www.hfk-bremen.de/"}, {"name": "Hochschule f\u00fcr Musik und Theater \u201eFelix Mendelssohn Bartholdy\u201c Leipzig", "country": "Germany", "lat": 48.804312932897425, "lon": 8.833614489440222, "website": "https://www.hmt-leipzig.de/"}, {"name": "Hochschule f\u00fcr Musik, Theater und Medien Hannover", "country": "Germany", "lat": 52.47045606601782, "lon": 10.965962179437483, "website": "https://www.hmtm-hannover.de"}, {"name": "Hochschule f\u00fcr Musik Detmold", "country": "Germany", "lat": 51.70840521601403, "lon": 11.757376455668542, "website": "https://www.hfm-detmold.de/"}, {"name": "Deutsche Universit\u00e4t f\u00fcr Verwaltungswissenschaften Speyer", "country": "Germany", "lat": 53.5659311728698, "lon": 10.413549535036028, "website": "https://www.uni-speyer.de/"}, {"name": "Europa-Universit\u00e4t Viadrina", "country": "Germany", "lat": 49.41528423537183, "lon": 12.834672647797554, "website": "https://www.europa-uni.de"}, {"name": "Frankfurt School of Finance & Management", "country": "Germany", "lat": 49.05280120048265, "lon": 9.642703621884682, "website": "https://www.frankfurt-school.de/"}, {"name": "Hochschule f\u00fcr Fernsehen und Film M\u00fcnchen", "country": "Germany", "lat": 49.89350762696808, "lon": 9.60010897397897, "website": "https://www.hff-muenchen.de/"}, {"name": "IST-Hochschule fur Management", "country": "Germany", "lat": 51.40503573008938, "lon": 9.434516384725024, "website": "https://www.ist-hochschule.de/"}, {"name": "EBS Universit\u00e4t", "country": "Germany", "lat": 48.45763366336661, "lon": 9.634557210004253, "website": "https://www.ebs.edu/"}, {"name": "Hochschule RheinMain", "country": "Germany", "lat": 53.124517548204906, "lon": 10.024876533815053, "website": "https://www.hs-rm.de/"}, {"name": "Rosenheim University of Applied Sciences", "country": "Germany", "lat": 49.74561763294433, "lon": 11.094419626831433, "website": "https://th-rosenheim.de"}, {"name": "Karl-Schiller-Berufskolleg (KSBK)", "country": "Germany", "lat": 48.50277331324513, "lon": 9.961320285834336, "website": "http://www.ksbk-do.de/"}, {"name": "Westphalian University of Applied Sciences", "country": "Germany", "lat": 51.368030348662856, "lon": 8.060004882457473, "website": "https://www.w-hs.de/"}, {"name": "Technische Hochschule Ulm", "country": "Germany", "lat": 51.48069895556108, "lon": 11.117962823248694, "website": "https://www.thu.de/"}]