[{"name": "IU Internationale Hochschule GmbH", "country": "Germany", "lat": 53.76108914485644, "lon": 8.253183433059327, "website": "https://www.iu-fernstudium.de/"}, {"name": "AKAD Hochschulen f\u00fcr Berufst\u00e4tige, Fachhochschule Leipzig", "country": "Germany", "lat": 51.39264312481213, "lon": 8.148312465545441, "website": "http://www.akad.de/"}, {"name": "Alice-Salomon-Fachhochschule f\u00fcr Sozialarbeit und Sozialp\u00e4dagogik Berlin", "country": "Germany", "lat": 52.86971437873397, "lon": 8.407428350755659, "website": "http://www.asfh-berlin.de/"}, {"name": "Augustana Hochschule Neuendettelsau", "country": "Germany", "lat": 53.37503113783202, "lon": 9.617056561396469, "website": "http://www.augustana.de/"}, {"name": "Kirchliche Hochschule Bethel", "country": "Germany", "lat": 48.18329802948134, "lon": 9.060710669705312, "website": "http://www.bethel.de/"}, {"name": "BiTS - Business and Information Technology School gGmbH", "country": "Germany", "lat": 52.5336074684203, "lon": 11.159515812501002, "website": "http://www.bits-iserlohn.de/"}, {"name": "Cologne Business School", "country": "Germany", "lat": 50.79757881484039, "lon": 12.713725924630307, "website": "http://www.cbs.de/"}, {"name": "CODE University of Applied Sciences Berlin", "country": "Germany", "lat": 53.725479215479226, "lon": 10.826339767585601, "website": "http://code.berlin/"}, {"name": "Deutsche Hochschule f\u00fcr Verwaltungswissenschaften Speyer", "country": "Germany", "lat": 50.8861658539295, "lon": 8.7815677116073, "website": "http://www.dhv-speyer.de/"}, {"name": "DIPLOMA-Fachhochschule \u00d6lsnitz/Vogtland", "country": "Germany", "lat": 48.271729875922105, "lon": 9.75234667472821, "website": "http://www.diploma.de/"}, {"name": "Deutsche Sporthochschule K\u00f6ln", "country": "Germany", "lat": 53.281809847311095, "lon": 10.380587488573019, "website": "http://www.dshs-koeln.de/"}, {"name": "E.A.P. Europ\u00e4ische Wirtschaftshochschule Berlin", "country": "Germany", "lat": 48.62407801246792, "lon": 7.7909482568894255, "website": "http://www.eap.net/"}, {"name": "Europ\u00e4ische Betriebswirtschafts-Akademie", "country": "Germany", "lat": 52.69371003705862, "lon": 7.847266413745135, "website": "http://www.eba-muenchen.de/"}, {"name": "European Business School Schlo\u00df Reichartshausen", "country": "Germany", "lat": 53.28449795207044, "lon": 9.246108240147331, "website": "http://www.ebs.de/"}, {"name": "European College of Liberal Arts", "country": "Germany", "lat": 51.51884866936916, "lon": 13.168470852107072, "website": "http://www.ecla.de/"}, {"name": "Evangelische Fachhochschule Rheinland-Westfalen-Lippe", "country": "Germany", "lat": 50.83711261872745, "lon": 10.716609498993439, "website": "http://www.efh-bochum.de/"}, {"name": "Evangelische Fachhochschule Darmstadt", "country": "Germany", "lat": 49.20373745841088, "lon": 10.609431564083623, "website": "https://www.eh-darmstadt.de/"}, {"name": "Evangelische Fachhochschule Freiburg, Hochschule f\u00fcr Soziale Arbeit, Diakonie und Religionsp\u00e4dagogik", "country": "Germany", "lat": 52.27008293724942, "lon": 12.860083547072144, "website": "http://www.efh-freiburg.de/"}, {"name": "Evangelische Fachhochschule Hannover", "country": "Germany", "lat": 52.088789386084464, "lon": 13.120328951409789, "website": "http://www.efh-hannover.de/"}, {"name": "Evangelische Fachhochschule Ludwigshafen Hochschule f\u00fcr Sozial- und Gesundheitswesen", "country": "Germany", "lat": 48.83399384243822, "lon": 8.655692458531561, "website": "http://www.efhlu.de/"}, {"name": "Evangelische Fachhochschule Reutlingen-Ludwigsburg, Hochschule f\u00fcr Soziale Arbeit, Religionsp\u00e4dagogik und Diakonie", "country": "Germany", "lat": 53.86441923519741, "lon": 7.533255618428365, "website": "http://www.efh-reutlingen-ludwigsburg.de/"}, {"name": "Evangelische Hochschule f\u00fcr Soziale Arbeit Dresden (FH)", "country": "Germany", "lat": 52.93738171871415, "lon": 9.298519272060064, "website": "http://www.ehs-dresden.de/"}, {"name": "European Management School", "country": "Germany", "lat": 49.93025346877135, "lon": 11.210755577530902, "website": "http://www.ems-mainz.de/"}, {"name": "Europ\u00e4ische Fachhochschule", "country": "Germany", "lat": 51.17584169286204, "lon": 11.2630781952823, "website": "http://www.eufh.de/"}, {"name": "Europa-Universit\u00e4t Viadrina Frankfurt (Oder)", "country": "Germany", "lat": 48.915266709381875, "lon": 12.355609801774676, "website": "http://www.euv-frankfurt-o.de/"}, {"name": "Evangelische Fachhochschule Berlin, Fachhochschule f\u00fcr Sozialarbeit und Sozialp\u00e4dagogik", "country": "Germany", "lat": 49.95833526923544, "lon": 13.36280662664105, "website": "http://www.evfh-berlin.de/"}, {"name": "Evangelische Fachhochschule N\u00fcrnberg", "country": "Germany", "lat": 48.34567027670291, "lon": 8.655016588279809, "website": "http://www.evfh-nuernberg.de/"}, {"name": "Fern-Fachhochschule Hamburg", "country": "Germany", "lat": 48.97075233461896, "lon": 10.479570638728418, "website": "http://www.fern-fh.de/"}, {"name": "Fernuniversit\u00e4t Gesamthochschule Hagen", "country": "Germany", "lat": 51.50738059413292, "lon": 11.417658388909828, "website": "http://www.fernuni-hagen.de/"}, {"name": "Fachhochschule Aachen", "country": "Germany", "lat": 53.25589249338202, "lon": 7.659484275763026, "website": "http://www.fh-aachen.de/"}, {"name": "Fachhochschule Aschaffenburg", "country": "Germany", "lat": 53.54876472135449, "lon": 10.09145558628589, "website": "http://www.fh-aschaffenburg.de/"}, {"name": "Technical University of Applied Sciences Augsburg", "country": "Germany", "lat": 52.62617905429339, "lon": 10.91517946211321, "website": "https://www.tha.de/"}, {"name": "Internationale Fachhochschule Bad Honnef", "country": "Germany", "lat": 52.68331144389727, "lon": 13.253655937758342, "website": "http://www.fh-bad-honnef.de/"}, {"name": "Fachhochschule Biberach, Hochschule f\u00fcr Bauwesen und Wirtschaft", "country": "Germany", "lat": 51.596586871202625, "lon": 13.385326440984144, "website": "http://www.fh-biberach.de/"}, {"name": "Fachhochschule Bielefeld", "country": "Germany", "lat": 51.1416722311358, "lon": 13.271067313149157, "website": "http://www.fh-bielefeld.de/"}, {"name": "Fachhochschule Bingen", "country": "Germany", "lat": 53.408565387328316, "lon": 9.466955913725778, "website": "http://www.fh-bingen.de/"}, {"name": "Fachhochschule Bochum", "country": "Germany", "lat": 53.06506616114745, "lon": 8.577225795552497, "website": "http://www.fh-bochum.de/"}, {"name": "Hochschule Bonn-Rhein-Sieg", "country": "Germany", "lat": 53.987300439916154, "lon": 8.546036744397393, "website": "http://www.hochschule-bonn-rhein-sieg.de/"}, {"name": "Fachhochschule Brandenburg", "country": "Germany", "lat": 49.09667839407834, "lon": 7.878724156884643, "website": "http://www.fh-brandenburg.de/"}, {"name": "Technische Hochschule Brandenburg", "country": "Germany", "lat": 49.987972830434835, "lon": 9.854295076593033, "website": "http://www.th-brandenburg.de/"}, {"name": "Technische Hochschule Deggendorf", "country": "Germany", "lat": 53.074230781816496, "lon": 9.472755960224308, "website": "http://www.th-deg.de/"}, {"name": "Fachhochschule Dortmund", "country": "Germany", "lat": 53.74531832391313, "lon": 12.08725818309502, "website": "http://www.fh-dortmund.de/"}, {"name": "Hochschule D\u00fcsseldorf", "country": "Germany", "lat": 53.8146664628609, "lon": 10.280282292057352, "website": "http://www.hs-duesseldorf.de/"}, {"name": "Fachhochschule f\u00fcr die Wirtschaft", "country": "Germany", "lat": 52.22865423402609, "lon": 12.707534382790325, "website": "http://www.fhdw.bib.de/"}, {"name": "Fachhochschule der Wirtschaft", "country": "Germany", "lat": 51.83436986593123, "lon": 7.885482579850056, "website": "http://www.fhdw.de/"}, {"name": "Fachhochschule Eberswalde", "country": "Germany", "lat": 50.96373942391379, "lon": 10.429876663863139, "website": "http://www.fh-eberswalde.de/"}, {"name": "Fachhochschule Erfurt", "country": "Germany", "lat": 50.975382957242104, "lon": 7.644908984871371, "website": "http://www.fh-erfurt.de/"}, {"name": "Fachhochschule Flensburg", "country": "Germany", "lat": 52.58297368079765, "lon": 9.795644261306172, "website": "http://www.fh-flensburg.de/"}, {"name": "Fachhochschule Frankfurt am Main", "country": "Germany", "lat": 49.34493438624828, "lon": 7.558225830595107, "website": "http://www.fh-frankfurt.de/"}, {"name": "Europa Fachhochschule Fresenius", "country": "Germany", "lat": 51.469500638415305, "lon": 8.270548629159208, "website": "http://www.fh-fresenius.de/"}, {"name": "Fachhochschule Furtwangen, Hochschule f\u00fcr Technik und Wirtschaft", "country": "Germany", "lat": 53.2389563677755, "lon": 11.037127578667983, "website": "http://www.fh-furtwangen.de/"}, {"name": "Fachhochschule Gelsenkirchen", "country": "Germany", "lat": 49.01253260419963, "lon": 12.977624229738495, "website": "http://www.fh-gelsenkirchen.de/"}, {"name": "Fachhochschule Gie\u00dfen-Friedberg", "country": "Germany", "lat": 50.42139575544453, "lon": 9.21201413166706, "website": "http://www.fh-giessen.de/"}, {"name": "Fachhochschule Hamburg", "country": "Germany", "lat": 52.95714799337431, "lon": 13.340967780344034, "website": "http://www.fh-hamburg.de/"}, {"name": "Hamburg University of Applied Sciences (HAW Hamburg)", "country": "Germany", "lat": 54.09294353565822, "lon": 12.14782557207794, "website": "https://haw-hamburg.de/"}, {"name": "Fachhochschule Hannover", "country": "Germany", "lat": 50.762480937251595, "lon": 7.501990532964404, "website": "http://www.fh-hannover.de/"}, {"name": "Fachhochschule Heidelberg", "country": "Germany", "lat": 50.31183150225604, "lon": 11.026042781597194, "website": "http://www.fh-heidelberg.de/"}, {"name": "Fachhochschule Heilbronn, Hochschule f\u00fcr Technik und Wirtschaft", "country": "Germany", "lat": 50.22192110972376, "lon": 10.764496014228264, "website": "http://www.fh-heilbronn.de/"}, {"name": "Fachhochschule Hildesheim/Holzminden/G\u00f6ttingen, Hochschule f\u00fcr angewandte Wissenschaft und Kunst", "country": "Germany", "lat": 50.11226018513395, "lon": 12.48970422218653, "website": "http://www.fh-hildesheim.de/"}, {"name": "Fachhochschule Hof", "country": "Germany", "lat": 49.57496443604767, "lon": 7.676109548816383, "website": "http://www.fh-hof.de/"}, {"name": "Technische Hochschule Ingolstadt", "country": "Germany", "lat": 49.0143738412369, "lon": 7.888484684105732, "website": "https://www.thi.de/"}, {"name": "Fachhochschule und Berufskollegs NTA, Prof.Dr. Gr\u00fcbler gemein. GmbH", "country": "Germany", "lat": 49.158391105011546, "lon": 10.06854295283783, "website": "http://www.fh-isny.de/"}, {"name": "Fachhochschule Jena", "country": "Germany", "lat": 48.99215829252044, "lon": 11.434712751030062, "website": "http://www.fh-jena.de/"}, {"name": "Fachhochschule Karlsruhe, Hochschule f\u00fcr Technik", "country": "Germany", "lat": 51.487209354919415, "lon": 12.67175400570348, "website": "http://www.fh-karlsruhe.de/"}, {"name": "Fachhochschule Kempten, Hochschule f\u00fcr Technik und Wirtschaft", "country": "Germany", "lat": 51.062907562366135, "lon": 13.300924367787221, "website": "http://www.fh-Kempten.de/"}, {"name": "Fachhochschule Kiel", "country": "Germany", "lat": 48.75346838472838, "lon": 8.870858213729973, "website": "http://www.fh-kiel.de/"}, {"name": "Fachhochschule Kaiserslautern", "country": "Germany", "lat": 48.512883801463154, "lon": 11.46271899161381, "website": "http://www.fh-kl.de/"}, {"name": "Fachhochschule Koblenz", "country": "Germany", "lat": 48.43108073416847, "lon": 8.61867842700146, "website": "http://www.fh-koblenz.de/"}, {"name": "Technische Hochschule K\u00f6ln", "country": "Germany", "lat": 50.955800893033825, "lon": 10.10682831551094, "website": "https://www.th-koeln.de/"}, {"name": "Fachhochschule Konstanz, Hochschule f\u00fcr Technik, Wirtschaft und Gestaltung", "country": "Germany", "lat": 51.29161455794846, "lon": 8.72414310489192, "website": "http://www.fh-konstanz.de/"}, {"name": "Staatlich anerkannte Fachhochschule f\u00fcr Kunsttherapie", "country": "Germany", "lat": 53.70557052591966, "lon": 11.014911228909765, "website": "http://www.fhkt.de/"}, {"name": "Fachhochschule Landshut, Hochschule f\u00fcr Wirtschaft - Sozialwesen - Technik", "country": "Germany", "lat": 51.73343835831654, "lon": 12.84748970898347, "website": "http://www.fh-landshut.de/"}, {"name": "Fachhochschule Lausitz", "country": "Germany", "lat": 51.05561483438202, "lon": 7.897248029848309, "website": "http://www.fh-lausitz.de/"}, {"name": "Fachhochschule Lippe", "country": "Germany", "lat": 51.61853651835467, "lon": 8.572894438769996, "website": "http://www.fh-lippe.de/"}, {"name": "Fachhochschule Ludwigshafen, Hochschule f\u00fcr Wirtschaft", "country": "Germany", "lat": 50.46933757035167, "lon": 10.400137485185036, "website": "http://www.fh-ludwigshafen.de/"}, {"name": "Fachhochschule L\u00fcbeck", "country": "Germany", "lat": 50.77941762016155, "lon": 10.978428975932518, "website": "http://www.fh-luebeck.de/"}, {"name": "Fachhochschule Mainz", "country": "Germany", "lat": 53.711991989027496, "lon": 8.260213119704593, "website": "http://www.fh-mainz.de/"}, {"name": "Fachhochschule Mannheim, Hochschule f\u00fcr Technik und Gestaltung", "country": "Germany", "lat": 51.65444333619272, "lon": 8.68058914642875, "website": "http://www.fh-mannheim.de/"}, {"name": "Fachhochschule Merseburg", "country": "Germany", "lat": 48.975911566123685, "lon": 9.958788687951495, "website": "http://www.fh-merseburg.de/"}, {"name": "Fachhochschule des Mittelstandes (FHM)", "country": "Germany", "lat": 51.5856008214401, "lon": 13.383424174254198, "website": "http://www.fhm-mittelstand.de/"}, {"name": "Fachhochschule M\u00fcnchen", "country": "Germany", "lat": 52.87735512875083, "lon": 11.976234024923851, "website": "http://www.fh-muenchen.de/"}, {"name": "Hochschule M\u00fcnchen", "country": "Germany", "lat": 52.48105875932505, "lon": 7.980730690222383, "website": "http://www.hm.edu/"}, {"name": "Fachhochschule M\u00fcnster", "country": "Germany", "lat": 52.01288345867792, "lon": 10.49204087943631, "website": "http://www.fh-muenster.de/"}, {"name": "Fachhochschule Neubrandenburg", "country": "Germany", "lat": 54.091457673844936, "lon": 11.221606289764175, "website": "http://www.fh-nb.de/"}, {"name": "Hochschule Neu-Ulm, Hochschule Neu-Ulm University of applied sciences", "country": "Germany", "lat": 48.89205018548022, "lon": 10.295108570007272, "website": "http://www.hs-neu-ulm.de/"}, {"name": "Fachhochschule Niederrhein", "country": "Germany", "lat": 52.94915155909409, "lon": 13.444139721825671, "website": "http://www.fh-niederrhein.de/"}, {"name": "Fachhochschule Nordostniedersachsen", "country": "Germany", "lat": 48.9051847268634, "lon": 10.124047010465892, "website": "http://www.fhnon.de/"}, {"name": "Fachhochschule Nordhausen", "country": "Germany", "lat": 50.91612540552116, "lon": 8.443744103409973, "website": "http://www.fh-nordhausen.de/"}, {"name": "Georg-Simon-Ohm-Fachhochschule N\u00fcrnberg", "country": "Germany", "lat": 48.55158065854019, "lon": 8.803465001496633, "website": "http://www.fh-nuernberg.de/"}, {"name": "Fachhochschule N\u00fcrtingen, Hochschule f\u00fcr Wirtschaft, Landwirtschaft und Landespflege", "country": "Germany", "lat": 48.97796343287386, "lon": 12.728826186619322, "website": "http://www.fh-nuertingen.de/"}, {"name": "Fachhochschule f\u00fcr das \u00f6ffentliche Bibliothekswesen Bonn", "country": "Germany", "lat": 53.121871152084616, "lon": 12.054823814353046, "website": "http://www.fhoebb.de/"}, {"name": "Fachhochschule Offenburg, Hochschule f\u00fcr Technik und Wirtschaft", "country": "Germany", "lat": 49.688203997266946, "lon": 9.89419455914065, "website": "http://www.fh-offenburg.de/"}, {"name": "Fachhochschule Oldenburg/Ostfriesland/Wilhelmshaven", "country": "Germany", "lat": 53.17067249697166, "lon": 9.970764216620989, "website": "http://www.fh-oow.de/"}, {"name": "Fachhochschule Osnabr\u00fcck", "country": "Germany", "lat": 50.63012537411221, "lon": 12.034148910108481, "website": "http://www.fh-osnabrueck.de/"}, {"name": "Freie Kunst-Studienst\u00e4tte Ottersberg", "country": "Germany", "lat": 52.96474396124304, "lon": 9.218408588337288, "website": "http://www.fh-ottersberg.de/"}, {"name": "Fachhochschule Pforzheim, Hochschule f\u00fcr Gestaltung, Technik und Wirtschaft", "country": "Germany", "lat": 51.431693610611696, "lon": 11.029441630003912, "website": "http://www.fh-pforzheim.de/"}, {"name": "Fachhochschule Potsdam", "country": "Germany", "lat": 53.38041767413224, "lon": 13.003987466168004, "website": "http://www.fh-potsdam.de/"}, {"name": "Fachhochschule Regensburg", "country": "Germany", "lat": 51.94557204799299, "lon": 10.611709988053045, "website": "http://www.fh-regensburg.de/"}, {"name": "Fachhochschule Reutlingen, Hochschule f\u00fcr Technik und Wirtschaft", "country": "Germany", "lat": 49.40137385643138, "lon": 11.614137285248319, "website": "http://www.fh-reutlingen.de/"}, {"name": "Deutsch-Ordens Fachhochschule Riedlingen, Hochschule f\u00fcr Wirtschaft", "country": "Germany", "lat": 50.10231779795076, "lon": 13.199712285515464, "website": "http://www.fh-riedlingen.de/"}, {"name": "Fachhochschule Rosenheim, Hochschule f\u00fcr Technik und Wirtschaft", "country": "Germany", "lat": 51.58788284093172, "lon": 8.998047805387964, "website": "http://www.fh-rosenheim.de/"}, {"name": "Fachhochschule Rottenburg, Hochschule f\u00fcr Forstwirtschaft", "country": "Germany", "lat": 50.38580202025096, "lon": 8.835630736233787, "website": "http://www.fh-rottenburg.de/"}, {"name": "Fachhochschule Schmalkalden", "country": "Germany", "lat": 51.854267085525336, "lon": 10.377146789081266, "website": "http://www.fh-schmalkalden.de/"}, {"name": "Fachhochschule Schw\u00e4bisch Hall, Hochschule f\u00fcr Gestaltung", "country": "Germany", "lat": 49.46335500648201, "lon": 11.224982741296552, "website": "http://www.fh-schwaebischhall.de/"}, {"name": "Fachhochschule Mannheim, Hochschule f\u00fcr Sozialwesen", "country": "Germany", "lat": 50.30766311449094, "lon": 12.214595826937456, "website": "http://www.fhs-mannheim.de/"}, {"name": "Evangelische Fachhochschule f\u00fcr Religionsp\u00e4dagogik, und Gemeindediakonie Moritzburg", "country": "Germany", "lat": 51.06715707286469, "lon": 8.084490190859185, "website": "http://www.fhs-moritzburg.de/"}, {"name": "Fachhochschule Stralsund", "country": "Germany", "lat": 52.2566206595676, "lon": 9.65774407941862, "website": "http://www.fh-stralsund.de/"}, {"name": "Deutsche Telekom Fachhochschule Leipzig", "country": "Germany", "lat": 48.40701565685268, "lon": 12.135132571260424, "website": "http://www.fh-telekom-leipzig.de/"}, {"name": "Fachhochschule Trier, Hochschule f\u00fcr Technik, Wirtschaft und Gestaltung", "country": "Germany", "lat": 50.60079254096527, "lon": 11.569269093121017, "website": "http://www.fh-trier.de/"}, {"name": "Fachhochschule Stuttgart, Hochschule f\u00fcr Technik", "country": "Germany", "lat": 52.30139996765502, "lon": 9.468649164038048, "website": "http://www.fht-stuttgart.de/"}, {"name": "Hochschule f\u00fcr Technik und Wirtschaft Berlin", "country": "Germany", "lat": 54.018605148566174, "lon": 12.129542495911311, "website": "https://www.htw-berlin.de/"}, {"name": "Hochschule Ulm, Hochschule f\u00fcr Angewandte Wissenschaft", "country": "Germany", "lat": 52.861766236035656, "lon": 11.167081383294928, "website": "http://www.hs-ulm.de/"}, {"name": "Fachhochschule f\u00fcr Verwaltung und Rechtspflege Berlin", "country": "Germany", "lat": 48.94177870465685, "lon": 8.305989684501922, "website": "http://www.fhvr.berlin.de/"}, {"name": "Fachhochschule f\u00fcr Wirtschaft Berlin", "country": "Germany", "lat": 54.08942458210233, "lon": 9.188232488554593, "website": "http://www.fhw-berlin.de/"}, {"name": "Fachhochschule Wedel", "country": "Germany", "lat": 49.670859929910705, "lon": 12.918427394962785, "website": "http://www.fh-wedel.de/"}, {"name": "Fachhochschule Weihenstephan", "country": "Germany", "lat": 52.2793807488156, "lon": 8.794763960814551, "website": "http://www.fh-weihenstephan.de/"}, {"name": "Fachhochschule Ravensburg-Weingarten", "country": "Germany", "lat": 51.130104925396424, "lon": 9.598949434903444, "website": "http://www.fh-weingarten.de/"}, {"name": "Fachhochschule Westk\u00fcste, Hochschule f\u00fcr Wirtschaft und Technik", "country": "Germany", "lat": 51.00755470150305, "lon": 10.235092457186814, "website": "http://www.fh-westkueste.de/"}, {"name": "Fachhochschule Wiesbaden", "country": "Germany", "lat": 51.651525227151765, "lon": 10.42081859760949, "website": "http://www.fh-wiesbaden.de/"}, {"name": "Ostfalia Hochschule f\u00fcr angewandte Wissenschaften", "country": "Germany", "lat": 51.29706253127746, "lon": 13.236763313958047, "website": "https://www.ostfalia.de/"}, {"name": "Fachhochschule Worms", "country": "Germany", "lat": 51.67464979306729, "lon": 12.713915456127754, "website": "http://www.fh-worms.de/"}, {"name": "Private Fachhochschule f\u00fcr Wirtschaft und Technik Vechta/Diepholz", "country": "Germany", "lat": 49.05424748953388, "lon": 11.656417455520181, "website": "http://www.fhwt.de/"}, {"name": "Fachhochschule W\u00fcrzburg - Schweinfurt", "country": "Germany", "lat": 50.27200734399596, "lon": 11.731050983589364, "website": "http://www.fh-wuerzburg.de/"}, {"name": "Wests\u00e4chsische Hochschule Zwickau (FH)", "country": "Germany", "lat": 53.08163419876011, "lon": 11.326097995970763, "website": "http://www.fh-zwickau.de/"}, {"name": "Fachhochschule f\u00fcr Oekonomie und Management (FOM)", "country": "Germany", "lat": 52.94681704912652, "lon": 12.375756737349183, "website": "http://www.fom.de/"}, {"name": "Freie Universit\u00e4t Berlin", "country": "Germany", "lat": 48.35119813776852, "lon": 8.570919930194679, "website": "http://www.fu-berlin.de/"}, {"name": "Private Hanseuniversit\u00e4t", "country": "Germany", "lat": 52.005213460816194, "lon": 7.611836941308009, "website": "http://www.hanseuni.de/"}, {"name": "Hafencity Universit\u00e4t Hamburg", "country": "Germany", "lat": 48.94015759791194, "lon": 12.310985151137725, "website": "http://www.hcu-hamburg.de/"}, {"name": "Fachhochschule Stuttgart, Hochschule der Medien", "country": "Germany", "lat": 51.12865453843876, "lon": 8.257967326965453, "website": "http://www.hdm-stuttgart.de/"}, {"name": "Hertie School of Governance", "country": "Germany", "lat": 51.38266269296223, "lon": 8.079758822016448, "website": "http://www.hertie-school.org/"}, {"name": "Hochschule f\u00fcr Bankwirtschaft (HfB), Private Fachhochschule der Bankakademie", "country": "Germany", "lat": 51.257006595512216, "lon": 9.828404312115087, "website": "http://www.hfb.de/"}, {"name": "Fachhochschule Schw\u00e4bisch Gm\u00fcnd, Hochschule f\u00fcr Gestaltung", "country": "Germany", "lat": 53.35720304156409, "lon": 8.582007087615917, "website": "http://www.hfg-gmuend.de/"}, {"name": "Hochschule f\u00fcr Philosophie M\u00fcnchen", "country": "Germany", "lat": 52.524118136775364, "lon": 12.379416567466738, "website": "http://www.hfph.mwn.de/"}, {"name": "Hochschule f\u00fcr Politik (HFP)", "country": "Germany", "lat": 50.55133342546587, "lon": 12.959210691926529, "website": "http://www.hfp.mhn.de/"}, {"name": "Handelshochschule Leipzig", "country": "Germany", "lat": 53.656436780659284, "lon": 8.715945522780721, "website": "http://www.hhl.de/"}, {"name": "Hochschule f\u00fcr Internationales Management", "country": "Germany", "lat": 51.05569286757715, "lon": 11.937955249771637, "website": "http://www.himh.de/"}, {"name": "Hochschule f\u00fcr J\u00fcdische Studien Heidelberg", "country": "Germany", "lat": 48.21403443773995, "lon": 8.745797132226821, "website": "http://www.hjs.uni-heidelberg.de/"}, {"name": "Hochschule Albstadt-Sigmaringen", "country": "Germany", "lat": 50.03957951218448, "lon": 10.758434571691897, "website": "http://www.hs-albsig.de/"}, {"name": "Hochschule Anhalt (FH), Hochschule f\u00fcr angewandte Wissenschaften", "country": "Germany", "lat": 53.00858011687621, "lon": 11.435867894058173, "website": "http://www.hs-anhalt.de/"}, {"name": "Hochschule Bremen", "country": "Germany", "lat": 48.82002295867893, "lon": 12.58950051965943, "website": "http://www.hs-bremen.de/"}, {"name": "Hochschule Bremerhaven", "country": "Germany", "lat": 51.62234680117763, "lon": 12.349428974956782, "website": "http://www.hs-bremerhaven.de/"}, {"name": "Hochschule Coburg", "country": "Germany", "lat": 53.487974371677275, "lon": 7.828184786592743, "website": "http://www.hs-coburg.de/"}, {"name": "Hochschule Darmstadt", "country": "Germany", "lat": 50.54792110390539, "lon": 8.50939425239311, "website": "https://www.h-da.de/"}, {"name": "Hochschule Esslingen", "country": "Germany", "lat": 53.27593528771477, "lon": 9.52357807829737, "website": "http://www.hs-esslingen.de/"}, {"name": "Hochschule Fulda", "country": "Germany", "lat": 50.12563771930602, "lon": 9.200341718389042, "website": "http://www.hs-fulda.de/"}, {"name": "Hochschule Harz, Hochschule f\u00fcr angewandte Wissenschaften (FH)", "country": "Germany", "lat": 53.815765775218665, "lon": 9.90220857865441, "website": "http://www.hs-harz.de/"}, {"name": "Hochschule Magdeburg-Stendal (FH)", "country": "Germany", "lat": 51.4773223000352, "lon": 7.95563440352705, "website": "http://www.hs-magdeburg.de/"}, {"name": "Hochschule Wismar, Fachhochschule f\u00fcr Technik, Wirtschaft und Gestaltung", "country": "Germany", "lat": 51.221765978643106, "lon": 11.629719556075681, "website": "http://www.hs-wismar.de/"}, {"name": "Hochschule Zittau/G\u00f6rlitz (FH)", "country": "Germany", "lat": 53.73351084306157, "lon": 10.803551261398862, "website": "http://www.hs-zigr.de/"}, {"name": "Hochschule f\u00fcr Technik und Wirtschaft Dresden (FH)", "country": "Germany", "lat": 48.343229838150485, "lon": 8.43832878864984, "website": "http://www.htw-dresden.de/"}, {"name": "Hochschule f\u00fcr Technik, Wirtschaft und Kultur Leipzig (FH)", "country": "Germany", "lat": 50.68371465281256, "lon": 9.061048217627878, "website": "http://www.htwk-leipzig.de/"}, {"name": "Hochschule Mittweida, University of Applied Sciences", "country": "Germany", "lat": 52.63063619081488, "lon": 7.911545018801975, "website": "http://www.htwm.de/"}, {"name": "Hochschule f\u00fcr Technik und Wirtschaft des Saarlandes", "country": "Germany", "lat": 49.55107182665387, "lon": 10.120519751490274, "website": "http://www.htw-saarland.de/"}, {"name": "Humboldt Universit\u00e4t Berlin", "country": "Germany", "lat": 48.2586164499131, "lon": 8.045940483103832, "website": "http://www.hu-berlin.de/"}, {"name": "HWP - Hamburger Universit\u00e4t f\u00fcr Wirtschaft und Politik", "country": "Germany", "lat": 50.729569652867305, "lon": 9.972364860535981, "website": "http://www.hwp-hamburg.de/"}, {"name": "Internationales Hochschulinstitut Zittau", "country": "Germany", "lat": 52.46752184169752, "lon": 9.468104290494205, "website": "http://www.ihi-zittau.de/"}, {"name": "Internationale Fachhochschule Aalen", "country": "Germany", "lat": 53.436596348630026, "lon": 12.56888170786409, "website": "http://www.international.fh-aalen.de/"}, {"name": "International School of Management ISM Dortmund", "country": "Germany", "lat": 48.85559102066268, "lon": 13.016088429525945, "website": "http://www.ism-dortmund.de/"}, {"name": "International School of New Media, University of L\u00fcbeck", "country": "Germany", "lat": 48.84653851405292, "lon": 9.51481720883666, "website": "http://www.isnm.de/"}, {"name": "International University in Germany", "country": "Germany", "lat": 52.10495985602182, "lon": 12.490063047826304, "website": "http://www.i-u.de/"}, {"name": "Jacobs University Bremen", "country": "Germany", "lat": 50.967904001767266, "lon": 8.434989703733535, "website": "http://www.jacobs-university.de/"}, {"name": "Karlshochschule International University", "country": "Germany", "lat": 49.34257771204461, "lon": 11.170231493879133, "website": "http://www.karlshochschule.de/"}, {"name": "Katholische Fachhochschule Norddeutschland", "country": "Germany", "lat": 50.760877947452045, "lon": 10.055796696042437, "website": "http://www.kath-fh-nord.de/"}, {"name": "Katholische Fachhochschule Berlin (KFB)", "country": "Germany", "lat": 48.16858968434047, "lon": 13.210807074932577, "website": "http://www.kfb-berlin.de/"}, {"name": "Katholische Fachhochschule Freiburg, Hochschule f\u00fcr Sozialwesen, Religionsp\u00e4dagogik und Pflege", "country": "Germany", "lat": 48.23510994518513, "lon": 11.377687826635869, "website": "http://www.kfh-Freiburg.de/"}, {"name": "Katholische Fachhochschule Mainz", "country": "Germany", "lat": 53.99991499637717, "lon": 9.955571869616193, "website": "http://www.kfh-mainz.de/"}, {"name": "Katholische Fachhochschule Nordrhein-Westfalen", "country": "Germany", "lat": 52.961487571765794, "lon": 11.863965581396801, "website": "http://www.kfhnw.de/"}, {"name": "Kunsthochschule Berlin-Weissensee, Hochschule f\u00fcr Gestaltung", "country": "Germany", "lat": 53.96428665647703, "lon": 12.205753380435565, "website": "http://www.kh-berlin.de/"}, {"name": "Katholische Hochschule f\u00fcr Soziale Arbeit Saarbr\u00fccken", "country": "Germany", "lat": 51.62714094196178, "lon": 9.903463771513657, "website": "http://www.khsa.de/"}, {"name": "Katholische Stiftungsfachhochschule M\u00fcnchen", "country": "Germany", "lat": 49.26254330529717, "lon": 10.819662898003486, "website": "http://www.ksfh.de/"}, {"name": "Katholische Universit\u00e4t Eichst\u00e4tt", "country": "Germany", "lat": 51.2282457283124, "lon": 12.613562570369023, "website": "http://www.ku-eichstaett.de/"}, {"name": "Kunstakademie D\u00fcsseldorf.", "country": "Germany", "lat": 49.68468635264964, "lon": 11.595486476179058, "website": "http://www.kunstakademie-duesseldorf.de/"}, {"name": "Merkur Internationale FH Karlsruhe", "country": "Germany", "lat": 53.96335816571295, "lon": 9.171649760163533, "website": "http://www.merkur-fh.org/"}, {"name": "Merz Akademie, Hochschule f\u00fcr Gestaltung Stuttgart", "country": "Germany", "lat": 48.34542975430484, "lon": 9.138257238514045, "website": "http://www.merz-akademie.de/"}, {"name": "M\u00e4rkische Fachhochschule Iserlohn", "country": "Germany", "lat": 49.28999603502496, "lon": 7.600278789929573, "website": "http://www.mfh-iserlohn.de/"}, {"name": "Medizinische Hochschule Hannover", "country": "Germany", "lat": 48.8595051744598, "lon": 12.814446980001449, "website": "http://www.mh-hannover.de/"}, {"name": "Staatliche Hochschule f\u00fcr Musik", "country": "Germany", "lat": 49.10258155921236, "lon": 11.367999792700386, "website": "http://www.mh-trossingen.de/"}, {"name": "Medizinische Universit\u00e4t L\u00fcbeck", "country": "Germany", "lat": 50.0072756483099, "lon": 9.35227611882235, "website": "http://www.mu-luebeck.de/"}, {"name": "Muthesius-Hochschule, Fachhochschule f\u00fcr Kunst und Gestaltung", "country": "Germany", "lat": 51.1183952611255, "lon": 8.768223060040366, "website": "http://www.muthesius.de/"}, {"name": "Nordakademie, Staatlich anerkannte private Fachhochschule mit dualen Studieng\u00e4ngen", "country": "Germany", "lat": 52.51176767770775, "lon": 12.551523669152267, "website": "http://www.nordakademie.de/"}, {"name": "Theologische Fakult\u00e4t Paderborn", "country": "Germany", "lat": 49.96289576905946, "lon": 9.380017420552365, "website": "http://www.paderborn.de/"}, {"name": "Private Fachhochschule G\u00f6ttingen", "country": "Germany", "lat": 50.94507596152277, "lon": 12.106558159401605, "website": "http://www.pfh-goettingen.de/"}, {"name": "P\u00e4dagogische Hochschule Erfurt/M\u00fchlhausen", "country": "Germany", "lat": 49.17541568342319, "lon": 11.768929498278055, "website": "http://www.ph-erfurt.de/"}, {"name": "P\u00e4dagogische Hochschule Freiburg", "country": "Germany", "lat": 54.111026375040524, "lon": 11.363170685706915, "website": "http://www.ph-freiburg.de/"}, {"name": "P\u00e4dagogische Hochschule Schw\u00e4bisch Gm\u00fcnd", "country": "Germany", "lat": 52.715860031238236, "lon": 11.236150446048402, "website": "http://www.ph-gmuend.de/"}, {"name": "P\u00e4dagogische Hochschule Heidelberg", "country": "Germany", "lat": 53.36927611776276, "lon": 10.423524227271141, "website": "http://www.ph-heidelberg.de/"}, {"name": "Philosophisch-Theologische Hochschule SVD Sankt Augustin", "country": "Germany", "lat": 50.634376520086, "lon": 9.190513115084315, "website": "http://www.philtheol-augustin.de/"}, {"name": "P\u00e4dagogische Hochschule Karlsruhe", "country": "Germany", "lat": 53.31679142789328, "lon": 12.97173796476216, "website": "http://www.ph-karlsruhe.de/"}, {"name": "P\u00e4dagogische Hochschule Ludwigsburg", "country": "Germany", "lat": 50.04926524422328, "lon": 10.902488895398063, "website": "http://www.ph-ludwigsburg.de/"}, {"name": "P\u00e4dagogische Hochschule Weingarten", "country": "Germany", "lat": 52.48110409880228, "lon": 8.024239370544326, "website": "http://www.ph-weingarten.de/"}, {"name": "Popakademie Baden-W\u00fcrttemberg", "country": "Germany", "lat": 49.843787146783754, "lon": 9.34548731865237, "website": "http://www.popakademie.de/"}, {"name": "Private FernFachhochschule Darmstadt", "country": "Germany", "lat": 53.119414634390196, "lon": 12.083731703314083, "website": "http://www.privatfh-da.de/"}, {"name": "Philosophisch-Theologische Hochschule der Salesianer Don Boscos", "country": "Germany", "lat": 52.11051131647904, "lon": 8.324471570174099, "website": "http://www.pth-bb.de/"}, {"name": "Philosophisch-Theologische Hochschule M\u00fcnster", "country": "Germany", "lat": 52.09987063623786, "lon": 12.76179234389232, "website": "http://www.pth-muenster.de/"}, {"name": "Philosophisch-Theologische Hochschule Vallendar der Gesellschaft des Katholischen Apostolates (Pallottiner)", "country": "Germany", "lat": 52.892395808197904, "lon": 9.63060439741683, "website": "http://www.pthv.de/"}, {"name": "Evangelische Fachhochschule f\u00fcr Sozialp\u00e4dagogik der \"Diakonenanstalt des Rauhen Hauses\" Hamburg", "country": "Germany", "lat": 50.22668821200961, "lon": 8.62532397051902, "website": "http://www.rauheshaus.de/"}, {"name": "Rheinische Fachhochschule K\u00f6ln", "country": "Germany", "lat": 53.45414737499834, "lon": 10.530912678653065, "website": "http://www.rfh-koeln.de/"}, {"name": "Ruhr-Universit\u00e4t Bochum", "country": "Germany", "lat": 49.66308571766148, "lon": 8.156071147092048, "website": "http://www.ruhr-uni-bochum.de/"}, {"name": "Rheinisch Westf\u00e4lische Technische Hochschule Aachen", "country": "Germany", "lat": 48.52244620011596, "lon": 7.7616078271817335, "website": "http://www.rwth-aachen.de/"}, {"name": "Lutherische Theologische Hochschule Oberursel", "country": "Germany", "lat": 48.625863631761085, "lon": 8.1884946749894, "website": "http://www.selk.de/"}, {"name": "Gustav-Siewerth-Akademie", "country": "Germany", "lat": 51.02297224385744, "lon": 9.803061910860361, "website": "http://www.siewerth-akademie.de/"}, {"name": "Schiller International University, Heidelberg", "country": "Germany", "lat": 54.05586614629469, "lon": 10.963155144703212, "website": "http://www.siu-heidelberg.de/"}, {"name": "SRH University of Applied Sciences", "country": "Germany", "lat": 48.43013282494841, "lon": 10.074413814241712, "website": "http://www.srh-berlin.de/"}, {"name": "Philosophisch-Theologische Hochschule Sankt Georgen", "country": "Germany", "lat": 51.11569542249873, "lon": 8.565353347367791, "website": "http://www.st-georgen.uni-frankfurt.de/"}, {"name": "Steinbeis-Hochschule-Berlin", "country": "Germany", "lat": 50.336304258532664, "lon": 8.180255666878468, "website": "http://www.stw.de/"}, {"name": "Technische Fachhochschule Berlin", "country": "Germany", "lat": 53.534056458396286, "lon": 12.780008882269591, "website": "http://www.tfh-berlin.de/"}, {"name": "Technische Fachhochschule Georg Agricola f\u00fcr Rohstoff, Energie und, Umwelt zu Bochum", "country": "Germany", "lat": 52.91867830259652, "lon": 12.8881495918068, "website": "http://www.tfh-bochum.de/"}, {"name": "Technische Fachhochschule Wildau", "country": "Germany", "lat": 53.04676487265094, "lon": 11.801529050181935, "website": "http://www.tfh-wildau.de/"}, {"name": "Theologische Hochschule Friedensau", "country": "Germany", "lat": 51.949107076829456, "lon": 10.695648772426317, "website": "http://www.thh-friedensau.de/"}, {"name": "Tier\u00e4rztliche Hochschule Hannover", "country": "Germany", "lat": 52.05348743675373, "lon": 8.929318610278848, "website": "http://www.tiho-hannover.de/"}, {"name": "Technische Universit\u00e4t Berlin", "country": "Germany", "lat": 49.625610298392665, "lon": 12.641019964817367, "website": "http://www.tu-berlin.de/"}, {"name": "Technische Universit\u00e4t Carolo-Wilhelmina zu Braunschweig", "country": "Germany", "lat": 51.57870771365978, "lon": 11.285001285047139, "website": "https://www.tu-braunschweig.de/"}, {"name": "Technische Universit\u00e4t Chemnitz", "country": "Germany", "lat": 50.48131555041514, "lon": 13.013713869797439, "website": "http://www.tu-chemnitz.de/"}, {"name": "Technische Universit\u00e4t Clausthal", "country": "Germany", "lat": 48.736233232367105, "lon": 12.02967788400855, "website": "http://www.tu-clausthal.de/"}, {"name": "Brandenburgische Technische Universit\u00e4t Cottbus", "country": "Germany", "lat": 50.88285475668223, "lon": 10.206634307240108, "website": "http://www.tu-cottbus.de/"}, {"name": "Technische Universit\u00e4t Darmstadt", "country": "Germany", "lat": 51.01247085817148, "lon": 10.115440238134964, "website": "https://www.tu-darmstadt.de/"}, {"name": "Technische Universit\u00e4t Dresden", "country": "Germany", "lat": 51.75084441870253, "lon": 9.047603835979306, "website": "http://www.tu-dresden.de/"}, {"name": "Technische Universit\u00e4t Bergakademie Freiberg", "country": "Germany", "lat": 51.39790439488986, "lon": 9.4703511899477, "website": "http://www.tu-freiberg.de/"}, {"name": "Technische Universit\u00e4t Hamburg", "country": "Germany", "lat": 51.43416471658998, "lon": 13.125469140804976, "website": "http://www.tuhh.de/"}, {"name": "Technische Universit\u00e4t Ilmenau", "country": "Germany", "lat": 50.261839374473595, "lon": 7.596370776864075, "website": "http://www.tu-ilmenau.de/"}, {"name": "Technische Universit\u00e4t M\u00fcnchen", "country": "Germany", "lat": 51.040880765161305, "lon": 9.404327003227866, "website": "http://www.tum.de/"}, {"name": "Universit\u00e4t Augsburg", "country": "Germany", "lat": 51.63345712448088, "lon": 8.378315216807177, "website": "http://www.uni-augsburg.de/"}, {"name": "Otto-Friedrich Universit\u00e4t Bamberg", "country": "Germany", "lat": 51.763222541147755, "lon": 12.151790563257922, "website": "http://www.uni-bamberg.de/"}, {"name": "Universit\u00e4t Bayreuth", "country": "Germany", "lat": 52.98907847546748, "lon": 9.582197052578543, "website": "http://www.uni-bayreuth.de/"}, {"name": "Universit\u00e4t Bielefeld", "country": "Germany", "lat": 51.03282177715437, "lon": 9.271801757494261, "website": "http://www.uni-bielefeld.de/"}, {"name": "Rheinische Friedrich-Wilhelms Universit\u00e4t Bonn", "country": "Germany", "lat": 52.0255198193252, "lon": 13.343343391757521, "website": "http://www.uni-bonn.de/"}, {"name": "Universit\u00e4t Bremen", "country": "Germany", "lat": 48.653418225076926, "lon": 11.741135724863735, "website": "http://www.uni-bremen.de/"}, {"name": "Universit\u00e4t der Bundeswehr Hamburg", "country": "Germany", "lat": 51.50839090860895, "lon": 10.938804556743138, "website": "http://www.unibw-hamburg.de/"}, {"name": "Universit\u00e4t der Bundeswehr M\u00fcnchen", "country": "Germany", "lat": 51.02527710309691, "lon": 10.511011230493867, "website": "http://www.unibw-muenchen.de/"}, {"name": "Technische Universit\u00e4t Dortmund", "country": "Germany", "lat": 53.531286044293275, "lon": 9.517036481554575, "website": "http://www.tu-dortmund.de/"}, {"name": "Heinrich-Heine Universit\u00e4t D\u00fcsseldorf", "country": "Germany", "lat": 53.62719247054077, "lon": 9.222111124599754, "website": "http://www.uni-duesseldorf.de/"}, {"name": "Universit\u00e4t Duisburg-Essen", "country": "Germany", "lat": 48.47123153233404, "lon": 9.954119811710862, "website": "http://www.uni-duisburg-essen.de/"}, {"name": "Universit\u00e4t Erfurt", "country": "Germany", "lat": 52.18446089076664, "lon": 13.2282702836584, "website": "http://www.uni-erfurt.de/"}, {"name": "Friedrich-Alexander Universit\u00e4t Erlangen-N\u00fcrnberg", "country": "Germany", "lat": 50.277858229546126, "lon": 9.62016495422604, "website": "https://www.fau.de/"}, {"name": "Universit\u00e4t Flensburg", "country": "Germany", "lat": 49.25046308722961, "lon": 13.348219097135146, "website": "http://www.uni-flensburg.de/"}, {"name": "Johann Wolfgang Goethe Universit\u00e4t Frankfurt am Main", "country": "Germany", "lat": 52.20189880347346, "lon": 9.914339518494662, "website": "http://www.uni-frankfurt.de/"}, {"name": "Albert-Ludwigs-Universit\u00e4t Freiburg", "country": "Germany", "lat": 48.824393564863676, "lon": 8.908476772641976, "website": "http://www.uni-freiburg.de/"}, {"name": "Justus Liebig Universit\u00e4t Gie\u00dfen", "country": "Germany", "lat": 50.20555367874897, "lon": 10.483327626159893, "website": "http://www.uni-giessen.de/"}, {"name": "Georg-August Universit\u00e4t G\u00f6ttingen", "country": "Germany", "lat": 53.50393996371296, "lon": 12.583873485535097, "website": "http://www.uni-goettingen.de/"}, {"name": "Ernst-Moritz-Arndt Universit\u00e4t Greifswald", "country": "Germany", "lat": 50.56100669665719, "lon": 13.407561017553808, "website": "http://www.uni-greifswald.de/"}, {"name": "Martin-Luther Universit\u00e4t Halle-Wittenberg", "country": "Germany", "lat": 54.15702517572359, "lon": 12.373965291674969, "website": "http://www.uni-halle.de/"}, {"name": "Universit\u00e4t Hamburg", "country": "Germany", "lat": 53.24072511717623, "lon": 9.970975417507216, "website": "http://www.uni-hamburg.de/"}, {"name": "Universit\u00e4t Hannover", "country": "Germany", "lat": 50.82387139267937, "lon": 8.142336536722127, "website": "http://www.uni-hannover.de/"}, {"name": "Ruprecht-Karls-Universit\u00e4t Heidelberg", "country": "Germany", "lat": 51.54825321414213, "lon": 11.677124426453812, "website": "http://www.uni-heidelberg.de/"}, {"name": "Universit\u00e4t Hildesheim", "country": "Germany", "lat": 50.37604965694835, "lon": 9.867215395062772, "website": "http://www.uni-hildesheim.de/"}, {"name": "Universit\u00e4t Hohenheim", "country": "Germany", "lat": 51.76376866316136, "lon": 7.946712647777515, "website": "http://www.uni-hohenheim.de/"}, {"name": "Friedrich-Schiller Universit\u00e4t Jena", "country": "Germany", "lat": 50.66055836862456, "lon": 8.533858969095053, "website": "http://www.uni-jena.de/"}, {"name": "Karlsruher Institut f\u00fcr Technologie", "country": "Germany", "lat": 51.83943122098316, "lon": 12.200195041643997, "website": "http://www.kit.edu/"}, {"name": "Universit\u00e4t Kassel", "country": "Germany", "lat": 50.323000310939015, "lon": 13.180177396226586, "website": "http://www.uni-kassel.de/"}, {"name": "Christian-Albrechts-Universit\u00e4t Kiel", "country": "Germany", "lat": 51.37822672467391, "lon": 11.341885991525093, "website": "http://www.uni-kiel.de/"}, {"name": "Universit\u00e4t Kaiserslautern", "country": "Germany", "lat": 49.29641656388422, "lon": 9.7580257536199, "website": "http://www.uni-kl.de/"}, {"name": "Universit\u00e4t Koblenz-Landau", "country": "Germany", "lat": 49.3736702548033, "lon": 13.406405514580067, "website": "http://www.uni-koblenz-landau.de/"}, {"name": "Universit\u00e4t K\u00f6ln", "country": "Germany", "lat": 51.47307686498897, "lon": 10.666410469008273, "website": "http://www.uni-koeln.de/"}, {"name": "Universit\u00e4t Konstanz", "country": "Germany", "lat": 51.368105376072755, "lon": 9.951234370844528, "website": "http://www.uni-konstanz.de/"}, {"name": "Universit\u00e4t Leipzig", "country": "Germany", "lat": 49.579000589926885, "lon": 11.381922640063447, "website": "http://www.uni-leipzig.de/"}, {"name": "Universit\u00e4t L\u00fcneburg", "country": "Germany", "lat": 48.65480371176538, "lon": 13.159616038656633, "website": "http://www.uni-lueneburg.de/"}, {"name": "Otto-von-Guericke Universit\u00e4t Magdeburg", "country": "Germany", "lat": 49.76407277321154, "lon": 11.6907795063804, "website": "http://www.uni-magdeburg.de/"}, {"name": "Johannes-Gutenberg Universit\u00e4t Mainz", "country": "Germany", "lat": 51.23711163718205, "lon": 12.76083442055637, "website": "http://www.uni-mainz.de/"}, {"name": "Universit\u00e4t Mannheim", "country": "Germany", "lat": 50.22765111401461, "lon": 10.951331245098546, "website": "http://www.uni-mannheim.de/"}, {"name": "Phillips-Universit\u00e4t Marburg", "country": "Germany", "lat": 53.293527481869376, "lon": 8.589689954345388, "website": "http://www.uni-marburg.de/"}, {"name": "Ludwig-Maximilians-Universit\u00e4t M\u00fcnchen", "country": "Germany", "lat": 50.96531204225749, "lon": 7.561718202152576, "website": "http://www.lmu.de/"}, {"name": "Westf\u00e4lische Wilhelms-Universit\u00e4t M\u00fcnster", "country": "Germany", "lat": 49.34389826574256, "lon": 10.685879553371088, "website": "http://www.uni-muenster.de/"}, {"name": "Carl von Ossietzky Universit\u00e4t Oldenburg", "country": "Germany", "lat": 50.151256578586874, "lon": 11.494203692234013, "website": "https://uol.de/"}, {"name": "Universit\u00e4t Osnabr\u00fcck", "country": "Germany", "lat": 53.68403339580342, "lon": 8.520685335247913, "website": "http://www.uni-osnabrueck.de/"}, {"name": "Universit\u00e4t Paderborn", "country": "Germany", "lat": 50.00629871415732, "lon": 13.408089710617325, "website": "http://www.uni-paderborn.de/"}, {"name": "Universit\u00e4t Passau", "country": "Germany", "lat": 53.191745123868145, "lon": 9.816574443826017, "website": "http://www.uni-passau.de/"}, {"name": "Universit\u00e4t Potsdam", "country": "Germany", "lat": 48.92898998240776, "lon": 13.07039678763958, "website": "http://www.uni-potsdam.de/"}, {"name": "Universit\u00e4t Regensburg", "country": "Germany", "lat": 53.349445004262336, "lon": 10.997081849275588, "website": "http://www.uni-regensburg.de/"}, {"name": "Universit\u00e4t Rostock", "country": "Germany", "lat": 53.162403474146785, "lon": 11.279932099750003, "website": "http://www.uni-rostock.de/"}, {"name": "Universit\u00e4t des Saarlandes", "country": "Germany", "lat": 51.70738040353805, "lon": 9.355750269542142, "website": "http://www.uni-saarland.de/"}, {"name": "Universit\u00e4t Siegen", "country": "Germany", "lat": 52.59110875978387, "lon": 8.024629190749817, "website": "http://www.uni-siegen.de/"}, {"name": "Universit\u00e4t Stuttgart", "country": "Germany", "lat": 51.491579673434735, "lon": 8.744954607282432, "website": "http://www.uni-stuttgart.de/"}, {"name": "Universit\u00e4t Trier", "country": "Germany", "lat": 51.68053270720165, "lon": 7.895704530881156, "website": "http://www.uni-trier.de/"}, {"name": "Eberhard-Karls-Universit\u00e4t T\u00fcbingen", "country": "Germany", "lat": 51.71426818521096, "lon": 12.906284161390914, "website": "http://www.uni-tuebingen.de/"}, {"name": "Universit\u00e4t Ulm", "country": "Germany", "lat": 48.48122430355373, "lon": 8.28716514491966, "website": "http://www.uni-ulm.de/"}, {"name": "Hochschule Vechta", "country": "Germany", "lat": 49.33162639704504, "lon": 8.753765326193385, "website": "http://www.uni-vechta.de/"}, {"name": "Bauhaus Universit\u00e4t Weimar", "country": "Germany", "lat": 53.970381209370366, "lon": 10.87636061260108, "website": "http://www.uni-weimar.de/"}, {"name": "Private Universit\u00e4t Witten/Herdecke", "country": "Germany", "lat": 49.42111241118637, "lon": 7.732832050378854, "website": "http://www.uni-wh.de/"}, {"name": "Bayerische Julius-Maximilians-Universit\u00e4t W\u00fcrzburg", "country": "Germany", "lat": 49.45409996235228, "lon": 8.78349005040378, "website": "http://www.uni-wuerzburg.de/"}, {"name": "Bergische Universit\u00e4t Gesamthochschule Wuppertal", "country": "Germany", "lat": 52.28816550794584, "lon": 13.02304818374284, "website": "http://www.uni-wuppertal.de/"}, {"name": "WHU \u2013 Otto Beisheim School of Management", "country": "Germany", "lat": 52.547594875665546, "lon": 7.963783971731632, "website": "https://www.whu.edu/"}, {"name": "Duale Hochschule Baden-W\u00fcrttemberg", "country": "Germany", "lat": 50.441752508360054, "lon": 7.466195748436315, "website": "http://www.dhbw.de/"}, {"name": "Duale Hochschule Baden-W\u00fcrttemberg Heidenheim", "country": "Germany", "lat": 50.821775188212584, "lon": 8.908358093613733, "website": "http://www.heidenheim.dhbw.de/"}, {"name": "Duale Hochschule Baden-W\u00fcrttemberg Center for Advanced Studies (CAS)", "country": "Germany", "lat": 52.38510737018463, "lon": 8.62295965784267, "website": "http://www.cas.dhbw.de/"}, {"name": "Duale Hochschule Baden-W\u00fcrttemberg L\u00f6rrach", "country": "Germany", "lat": 50.60078121162469, "lon": 9.696705923818168, "website": "http://www.dhbw-loerrach.de/"}, {"name": "Duale Hochschule Baden-W\u00fcrttemberg Mosbach", "country": "Germany", "lat": 52.405307279201374, "lon": 9.758324022496815, "website": "http://www.dhbw-mosbach.de/"}, {"name": "Duale Hochschule Baden-W\u00fcrttemberg Ravensburg", "country": "Germany", "lat": 48.57862196605065, "lon": 9.632850553521457, "website": "http://www.ravensburg.dhbw.de/"}, {"name": "Duale Hochschule Baden-W\u00fcrttemberg Stuttgart", "country": "Germany", "lat": 49.16024550466216, "lon": 11.412569592849453, "website": "http://www.dhbw-stuttgart.de/"}, {"name": "Duale Hochschule Baden-W\u00fcrttemberg Villingen-Schwenningen", "country": "Germany", "lat": 52.22224638237801, "lon": 7.782343619037241, "website": "http://www.dhbw-vs.de/"}, {"name": "Duale Hochschule Baden-W\u00fcrttemberg Heilbronn", "country": "Germany", "lat": 49.043740977590005, "lon": 10.151907023137776, "website": "http://www.heilbronn.dhbw.de/"}, {"name": "Duale Hochschule Baden-W\u00fcrttemberg Karlsruhe", "country": "Germany", "lat": 49.59606979938995, "lon": 11.533296622698334, "website": "http://www.dhbw-karlsruhe.de/"}, {"name": "Duale Hochschule Baden-Wuerttemberg Mannheim", "country": "Germany", "lat": 53.61356420525503, "lon": 9.63811411115022, "website": "http://www.dhbw-mannheim.de/"}, {"name": "Hochschule Hannover", "country": "Germany", "lat": 53.62997786459152, "lon": 10.129435594461459, "website": "https://www.hs-hannover.de/"}, {"name": "Staatliche Studienakademie Bautzen", "country": "Germany", "lat": 49.88925737107544, "lon": 13.077633361901999, "website": "https://www.ba-bautzen.de/"}, {"name": "Technische Hochschule Mittelhessen", "country": "Germany", "lat": 53.59423718577938, "lon": 8.321815887399154, "website": "https://www.thm.de/"}, {"name": "Hochschule f\u00fcr Wirtschaft und Gesellschaft Ludwigshafen", "country": "Germany", "lat": 53.15372495122782, "lon": 11.488380765977332, "website": "https://www.hwg-lu.de/"}, {"name": "Leuphana Universit\u00e4t L\u00fcneburg", "country": "Germany", "lat": 52.01548022800365, "lon": 9.794892804113449, "website": "https://www.leuphana.de/"}, {"name": "Ostbayerische Technische Hochschule Amberg-Weiden", "country": "Germany", "lat": 51.251923823086145, "lon": 9.775677438293098, "website": "https://www.oth-aw.de/"}, {"name": "Musikhochschule L\u00fcbeck", "country": "Germany", "lat": 51.02076459981514, "lon": 12.28088399363799, "website": "https://www.mh-luebeck.de/"}, {"name": "Hochschule f\u00fcr Musik und Theater M\u00fcnchen", "country": "Germany", "lat": 52.604778667566336, "lon": 9.754312494268593, "website": "https://website.musikhochschule-muenchen.de/"}, {"name": "Universit\u00e4t der K\u00fcnste Berlin", "country": "Germany", "lat": 52.95695074727483, "lon": 12.159885612648631, "website": "https://www.udk-berlin.de/"}, {"name": "Hochschule f\u00fcr Musik und Tanz K\u00f6ln", "country": "Germany", "lat": 54.11412460821606, "lon": 7.677590335713102, "website": "https://www.hfmt-koeln.de/"}, {"name": "Hochschule f\u00fcr Musik Carl Maria von Weber", "country": "Germany", "lat": 51.864237156348786, "lon": 9.024023804943564, "website": "https://www.hfmdd.de/"}, {"name": "Hochschule f\u00fcr Musik und Darstellende Kunst Stuttgart", "country": "Germany", "lat": 50.09277548282477, "lon": 8.092938618294541, "website": "https://www.hmdk-stuttgart.de/"}, {"name": "Hochschule f\u00fcr K\u00fcnste Bremen", "country": "Germany", "lat": 52.17268665227716, "lon": 10.351828536258658, "website": "https://www.hfk-bremen.de/"}, {"name": "Hochschule f\u00fcr Musik und Theater \u201eFelix Mendelssohn Bartholdy\u201c Leipzig", "country": "Germany", "lat": 49.07979469583856, "lon": 10.149489061420958, "website": "https://www.hmt-leipzig.de/"}, {"name": "Hochschule f\u00fcr Musik, Theater und Medien Hannover", "country": "Germany", "lat": 49.45275621282633, "lon": 12.033292413381982, "website": "https://www.hmtm-hannover.de/"}, {"name": "Hochschule f\u00fcr Musik Detmold", "country": "Germany", "lat": 53.00557617261095, "lon": 10.527918292883847, "website": "https://www.hfm-detmold.de/"}, {"name": "Deutsche Universit\u00e4t f\u00fcr Verwaltungswissenschaften Speyer", "country": "Germany", "lat": 54.07930144957516, "lon": 13.329102691175446, "website": "https://www.uni-speyer.de/"}, {"name": "Europa-Universit\u00e4t Viadrina", "country": "Germany", "lat": 52.35684332540072, "lon": 9.37511695504678, "website": "https://www.europa-uni.de/"}, {"name": "Frankfurt School of Finance & Management", "country": "Germany", "lat": 52.17852921187963, "lon": 10.16387287141561, "website": "https://www.frankfurt-school.de/"}, {"name": "Hochschule f\u00fcr Fernsehen und Film M\u00fcnchen", "country": "Germany", "lat": 53.01094619512101, "lon": 13.084619293591626, "website": "https://www.hff-muenchen.de/"}, {"name": "IST-Hochschule fur Management", "country": "Germany", "lat": 48.987151510974385, "lon": 8.947794355602193, "website": "https://www.ist-hochschule.de/"}, {"name": "EBS Universit\u00e4t", "country": "Germany", "lat": 49.175301623545785, "lon": 8.203630725209932, "website": "https://www.ebs.edu/"}, {"name": "Hochschule RheinMain", "country": "Germany", "lat": 52.00999042158979, "lon": 12.982505449011708, "website": "https://www.hs-rm.de/"}, {"name": "Rosenheim University of Applied Sciences", "country": "Germany", "lat": 50.39820919998393, "lon": 11.196921972739172, "website": "https://th-rosenheim.de/"}, {"name": "Karl-Schiller-Berufskolleg (KSBK)", "country": "Germany", "lat": 49.25515487843352, "lon": 12.970979245752162, "website": "http://www.ksbk-do.de/"}, {"name": "Westphalian University of Applied Sciences", "country": "Germany", "lat": 53.59309279293806, "lon": 10.778936703700289, "website": "https://www.w-hs.de/"}, {"name": "Technische Hochschule Ulm", "country": "Germany", "lat": 51.22578257304372, "lon": 10.630618162541783, "website": "https://www.thu.de/"}, {"name": "Brandenburg University of Technology Cottbus - Senftenberg", "country": "Germany", "lat": 49.069893880669376, "lon": 13.237536218476148, "website": "https://www.b-tu.de/"}]