[{"name": "Atharva College of Engineering", "country": "India", "lat": 23.07640462593873, "lon": 78.40738909546677, "website": "https://atharvacoe.ac.in"}, {"name": "Bhagwan Parshuram Institute of Technology", "country": "India", "lat": 19.834521021465836, "lon": 81.24829886371418, "website": "http://bpitindia.ac.in"}, {"name": "University of Petroleum and Energy Studies", "country": "India", "lat": 22.835899304557376, "lon": 78.13978388742123, "website": "https://www.upes.ac.in/"}, {"name": "Ashoka University", "country": "India", "lat": 20.63006322547339, "lon": 78.81709657815848, "website": "https://www.ashoka.edu.in"}, {"name": "Indian Institute of Information Technology Sri City", "country": "India", "lat": 21.1748162302824, "lon": 77.0537690141803, "website": "https://www.iiits.ac.in/"}, {"name": "DAV Institute of Engineering & Technology", "country": "India", "lat": 19.636457525980937, "lon": 78.13177530865983, "website": "http://www.davietjal.org/"}, {"name": "Lovely Professional University", "country": "India", "lat": 22.57989775601343, "lon": 77.61448031940833, "website": "http://www.lpu.in/"}, {"name": "Somaiya Vidyavihar", "country": "India", "lat": 20.665059403964364, "lon": 79.77815555596837, "website": "https://somaiya.edu/"}, {"name": "NorthCap University", "country": "India", "lat": 18.252443678662786, "lon": 80.53133418143422, "website": "http://www.ncuindia.edu/"}, {"name": "Dharamsinh Desai University", "country": "India", "lat": 18.535539326114268, "lon": 81.82039877159383, "website": "http://www.ddu.ac.in/"}, {"name": "University of Health Sciences Andhra Pradesh", "country": "India", "lat": 18.211230843587273, "lon": 76.61911943089771, "website": "http://ntruhs.ap.nic.in/"}, {"name": "Allahabad Agricultural Institute, Deemed University", "country": "India", "lat": 19.59138916272624, "lon": 81.2368151651711, "website": "http://www.aaidu.org/"}, {"name": "Assam Agricultural University", "country": "India", "lat": 22.92859763288662, "lon": 77.58094131888546, "website": "http://www.aau.ac.in/"}, {"name": "Ahmedabad University", "country": "India", "lat": 19.575753512061144, "lon": 78.04106813838582, "website": "http://www.ahduni.edu.in/"}, {"name": "All India Institute of Medical Sciences", "country": "India", "lat": 19.767778509431995, "lon": 81.7280549137131, "website": "http://www.aiims.ac.in/"}, {"name": "AISECT University", "country": "India", "lat": 19.141261003241937, "lon": 79.42064608387966, "website": "http://www.aisectuniversity.ac.in/"}, {"name": "Alagappa University", "country": "India", "lat": 22.349023561537486, "lon": 78.72241447197179, "website": "http://www.alagappauniversity.ac.in/"}, {"name": "Allahabad University", "country": "India", "lat": 19.602623218706594, "lon": 76.7880453265009, "website": "http://www.alldunivpio.org/"}, {"name": "Open International University for Alternative Medicines", "country": "India", "lat": 23.52155893502205, "lon": 78.57119118566439, "website": "http://www.altmeduniversity.com/"}, {"name": "Indian Board of Alternative Medicine", "country": "India", "lat": 19.707255300440387, "lon": 79.98988967407477, "website": "http://www.altmedworld.net/"}, {"name": "Amity University", "country": "India", "lat": 17.993358620776014, "lon": 81.20486138070213, "website": "http://www.amity.edu/"}, {"name": "Amrita Vishwa Vidyapeetham", "country": "India", "lat": 21.87245499562658, "lon": 79.13942572589461, "website": "http://www.amrita.edu/"}, {"name": "Amravati University", "country": "India", "lat": 19.54335831673044, "lon": 79.79490131702175, "website": "http://www.amtuni.com/"}, {"name": "Aligarh Muslim University", "country": "India", "lat": 18.154869663690736, "lon": 77.57243629423664, "website": "http://www.amu.ac.in/"}, {"name": "Andhra University", "country": "India", "lat": 22.557036252185, "lon": 76.15454117144247, "website": "http://www.andhrauniversity.info/"}, {"name": "Acharya Ranga Agricultural University", "country": "India", "lat": 23.279337958610196, "lon": 80.16447434200762, "website": "http://www.angrau.net/"}, {"name": "Annamalai University", "country": "India", "lat": 17.862001993056605, "lon": 79.43728910971276, "website": "http://www.annamalaiuniversity.ac.in/"}, {"name": "Anna University of Technology, Tirunelveli", "country": "India", "lat": 18.735713912668324, "lon": 76.50423640768167, "website": "http://www.annauniv.edu.in/"}, {"name": "Anna University", "country": "India", "lat": 19.486501186630406, "lon": 81.59005965266506, "website": "http://www.annauniv.edu/"}, {"name": "Awadhesh Pratap Singh University", "country": "India", "lat": 21.820680326119625, "lon": 79.73745654090172, "website": "http://www.apsurewa.nic.in/"}, {"name": "ARYA Institute of Engineering & Technology", "country": "India", "lat": 19.94305920772922, "lon": 77.34526135739739, "website": "http://www.aryainstitutejpr.com/"}, {"name": "Assam University", "country": "India", "lat": 20.005084229284517, "lon": 80.98571665897038, "website": "http://www.assamuniversity.nic.in/"}, {"name": "Gujarat Ayurved University", "country": "India", "lat": 18.164969220537216, "lon": 78.11966029190305, "website": "http://www.ayurveduniversity.com/"}, {"name": "Dr. Babasaheb Ambedkar Marathwada Universtiy", "country": "India", "lat": 22.416502184601246, "lon": 76.3566999246497, "website": "http://www.bamu.net/"}, {"name": "Berhampur University", "country": "India", "lat": 20.905521933301927, "lon": 77.21492054594928, "website": "http://www.bamu.nic.in/"}, {"name": "Banasthali University", "country": "India", "lat": 19.73213585417799, "lon": 76.86971334959269, "website": "http://www.banasthali.org/"}, {"name": "Bankura University", "country": "India", "lat": 18.94042614813441, "lon": 79.77242540278903, "website": "http://www.bankurauniv.com/"}, {"name": "Birsa Agricultural University", "country": "India", "lat": 22.717241905357913, "lon": 80.477219629851, "website": "http://www.bau.nic.in/"}, {"name": "Babasaheb Bhimrao Ambedkar University", "country": "India", "lat": 19.69337791409711, "lon": 81.7629921036309, "website": "http://www.bbauindia.org/"}, {"name": "Bidhan Chandra Agricultural University", "country": "India", "lat": 22.03700367547316, "lon": 81.31678216275452, "website": "http://www.bckv.edu.in/"}, {"name": "Bharathidasan University", "country": "India", "lat": 20.420294606881743, "lon": 77.26783330478506, "website": "http://www.bdu.ernet.in/"}, {"name": "Bengal Engineering College", "country": "India", "lat": 19.085671738773822, "lon": 79.56453194036722, "website": "http://www.becs.ac.in/"}, {"name": "Bangalore University", "country": "India", "lat": 22.606812694500835, "lon": 80.55261555840553, "website": "http://bengaluruuniversity.com/"}, {"name": "Bhagwant University", "country": "India", "lat": 21.163230614903636, "lon": 78.93170687563942, "website": "http://www.bhagwantuniversity.com/"}, {"name": "Bharathiar University", "country": "India", "lat": 19.524136779727016, "lon": 79.33004014691801, "website": "http://www.bharathi.ernet.in/"}, {"name": "Bharath Institue Of Higher Education & Research", "country": "India", "lat": 23.130411797193858, "lon": 79.1180279661565, "website": "http://www.bharathuniv.com/"}, {"name": "Bharati Vidyapeeth University", "country": "India", "lat": 21.34700351852709, "lon": 76.73701117858566, "website": "http://www.bharatividyapeeth.edu/"}, {"name": "Bhavnagar University", "country": "India", "lat": 20.694350107303293, "lon": 81.55893042048007, "website": "http://www.bhavuni.edu/"}, {"name": "Banaras Hindu University", "country": "India", "lat": 21.7467605388341, "lon": 81.5205165063093, "website": "http://www.bhu.ac.in/"}, {"name": "Orissa University of Agriculture and Technology", "country": "India", "lat": 18.111379217949647, "lon": 78.37823166418492, "website": "http://bhub.ori.nic.in/ouat/"}, {"name": "Birla Institute of Technology, Ranchi", "country": "India", "lat": 19.83191566134161, "lon": 76.13660063664234, "website": "http://bitmesraranchi.org/"}, {"name": "Birla Institute of Technology and Science", "country": "India", "lat": 17.6190875027931, "lon": 80.20553893425354, "website": "http://www.bits-pilani.ac.in/"}, {"name": "Bhupendra Narayan Mandal University", "country": "India", "lat": 21.167142869856793, "lon": 77.73426492485153, "website": "http://www.bnmu.in/"}, {"name": "Biju Pattnaik University of Technology", "country": "India", "lat": 19.35804664786228, "lon": 78.51118108502773, "website": "http://www.bput.org/"}, {"name": "B. R. Ambedkar Bihar University", "country": "India", "lat": 22.931842272069698, "lon": 78.40024318199924, "website": "http://www.brabu.net/"}, {"name": "Dr. B.R. Ambedkar Open University", "country": "India", "lat": 19.644691552421598, "lon": 76.6167482938669, "website": "http://www.braou.ac.in/"}, {"name": "Dr. B. R. Ambedkar National Institute of Technology Jalandhar", "country": "India", "lat": 20.802766160729206, "lon": 79.10172689363391, "website": "http://www.nitj.ac.in/"}, {"name": "Dr. Bhim Rao Abdekar University", "country": "India", "lat": 17.826387340645674, "lon": 78.48250690611597, "website": "http://www.brauagra.com/"}, {"name": "B. S. Abdur Rahman University", "country": "India", "lat": 21.782883783823245, "lon": 81.12255170607469, "website": "http://www.bsauniv.ac.in/"}, {"name": "Barkatullah University", "country": "India", "lat": 22.23293535199933, "lon": 76.408986900436, "website": "http://www.bubhopal.nic.in/"}, {"name": "VIT Bhopal", "country": "India", "lat": 19.005235779401648, "lon": 81.01657949733254, "website": "https://vitbhopal.ac.in/"}, {"name": "Bundelkhand University", "country": "India", "lat": 17.852370142298533, "lon": 79.20859477734348, "website": "http://www.bundelkhanduniversity.org/"}, {"name": "University of Burdwan", "country": "India", "lat": 22.83163547761935, "lon": 81.60100180623938, "website": "http://www.burdwanuniversity.ac.in/"}, {"name": "University of Calcutta", "country": "India", "lat": 18.808666469140334, "lon": 80.3580953593495, "website": "http://www.caluniv.ac.in/"}, {"name": "Central Agricultural University", "country": "India", "lat": 18.236896820122006, "lon": 79.77802833610777, "website": "http://www.cau.org.in/"}, {"name": "Chaudhary Charan Singh University", "country": "India", "lat": 17.992682237971096, "lon": 76.29002146242802, "website": "http://www.ccsuniversity.ac.in/"}, {"name": "Ch. Charan Singh University", "country": "India", "lat": 21.42326358843143, "lon": 81.05877155211437, "website": "http://www.ccsuniversity.org/"}, {"name": "Center for Entrepreneurship and Small Business Management", "country": "India", "lat": 21.440703095566583, "lon": 77.24005300191375, "website": "http://www.cesbm.ac.in/"}, {"name": "Christ University", "country": "India", "lat": 20.185616176834305, "lon": 78.24865988186755, "website": "http://www.christuniversity.in/"}, {"name": "Central Institute of English and Foreign Languages", "country": "India", "lat": 21.846028760328817, "lon": 81.55852102204345, "website": "http://www.ciefl.org/"}, {"name": "Central Institute of Fisheries Education", "country": "India", "lat": 21.51542952806495, "lon": 78.66049065749962, "website": "http://www.cife.edu.in/"}, {"name": "Central Institute of Higher Tibetan Studies", "country": "India", "lat": 21.429658664563007, "lon": 79.28047555095006, "website": "http://www.cihts.ac.in/"}, {"name": "CMJ University", "country": "India", "lat": 18.21727334545761, "lon": 78.22147016212968, "website": "http://www.cmjuniversity.edu.in/"}, {"name": "Chandra Shekhar Azad University of Agriculture and Technology", "country": "India", "lat": 21.620848942775854, "lon": 77.90670802647244, "website": "http://www.csauk.ac.in/"}, {"name": "Cochin University of Science and Technology", "country": "India", "lat": 18.862505230337394, "lon": 79.61358696272086, "website": "http://www.cusat.ac.in/"}, {"name": "Dr. C.V. Raman University", "country": "India", "lat": 21.848087149492713, "lon": 78.62369034954564, "website": "http://www.cvru.ac.in/"}, {"name": "Dhirubhai Ambani Institute of Information and Communication Technology", "country": "India", "lat": 19.573149432451675, "lon": 80.32526666910292, "website": "http://www.da-iict.org/"}, {"name": "Darul Huda Islamic University", "country": "India", "lat": 21.24313420741683, "lon": 81.1725118473798, "website": "http://www.darulhuda.com/"}, {"name": "Dav University", "country": "India", "lat": 19.998189651533494, "lon": 77.30055057296325, "website": "http://www.davuniversity.org/"}, {"name": "Devi Ahilya University of Indore", "country": "India", "lat": 18.825725606545483, "lon": 78.88378574577553, "website": "http://www.davv.ac.in/"}, {"name": "Dr. Babasaheb Ambedkar Technological University", "country": "India", "lat": 18.78660609436781, "lon": 76.21583600364156, "website": "http://www.dbatechuni.org/"}, {"name": "Konkan Agricultural University", "country": "India", "lat": 20.564771247976452, "lon": 80.13816340826645, "website": "http://www.dbskkv.org/"}, {"name": "Tamil Nadu Agricultural University", "country": "India", "lat": 19.503826602932868, "lon": 77.33353451510025, "website": "http://dbs.tn.nic.in/tnau/"}, {"name": "Delhi College of Engineering (DCE)", "country": "India", "lat": 20.261458878523992, "lon": 80.15448336789132, "website": "http://www.dceonline.net/"}, {"name": "Deen Dayal Upadhyay Gorakhpur University", "country": "India", "lat": 22.351805340737428, "lon": 81.7873120994709, "website": "http://www.ddugu.edu.in/"}, {"name": "Deccan College Postgraduate and Research Institute", "country": "India", "lat": 19.673214197798963, "lon": 76.59053956941479, "website": "http://www.deccancollegepune.ac.in/"}, {"name": "COEP Technological University", "country": "India", "lat": 22.989686381432804, "lon": 80.15002093205115, "website": "https://www.coep.org.in/"}, {"name": "Dayalbagh Educational Institute", "country": "India", "lat": 18.75338996289999, "lon": 77.74851044419482, "website": "http://www.dei.ac.in/"}, {"name": "Dibrugarh University", "country": "India", "lat": 21.535612092748067, "lon": 76.6437455493038, "website": "http://www.dibru.ernet.in/"}, {"name": "Dravidian University", "country": "India", "lat": 19.00895851859983, "lon": 81.46028908274435, "website": "http://www.dravidianuniversity.ac.in/"}, {"name": "University of Delhi", "country": "India", "lat": 23.038895075774924, "lon": 79.32288527005633, "website": "http://www.du.ac.in/"}, {"name": "Dr. D.Y. Patil University", "country": "India", "lat": 21.602535142911293, "lon": 76.67325820392311, "website": "http://www.dypatiluniversity.org/"}, {"name": "Eiilm University", "country": "India", "lat": 22.276725912275808, "lon": 81.38162136262382, "website": "http://www.eiilmuniversity.ac.in/"}, {"name": "Fatima Mata National College", "country": "India", "lat": 19.18591030171575, "lon": 78.7474831305974, "website": "http://www.fatimacollege.net/"}, {"name": "Forest Research Institute Dehradun", "country": "India", "lat": 23.49082768263058, "lon": 77.78992480768468, "website": "http://fri.icfre.gov.in/"}, {"name": "Govind Ballabh Pant University of Agriculture and Technology", "country": "India", "lat": 19.837695201065856, "lon": 79.0903397095356, "website": "http://www.gbpuat.ac.in/"}, {"name": "Guru Ghasidas University", "country": "India", "lat": 18.477656786456112, "lon": 79.24970262694477, "website": "http://www.ggu.ac.in/"}, {"name": "Gokhale Institute of Politics and Economics", "country": "India", "lat": 19.027458030752356, "lon": 77.76942741198128, "website": "http://www.gipe.ernet.in/"}, {"name": "Gandhi Institute of Technology and Managment", "country": "India", "lat": 21.780200645229215, "lon": 78.17817469824769, "website": "http://www.gitam.edu/"}, {"name": "Guru Jambeshwar University", "country": "India", "lat": 17.915052098741384, "lon": 81.25091542578431, "website": "http://www.gju.ernet.in/"}, {"name": "Gurukula Kangri University", "country": "India", "lat": 20.657694466238127, "lon": 81.06947808237716, "website": "http://www.gkvharidwar.org/"}, {"name": "Guru Nanak Dev University", "country": "India", "lat": 22.259030857942612, "lon": 81.8948393755408, "website": "http://www.gnduonline.org/"}, {"name": "Global Open University , Nagaland", "country": "India", "lat": 20.8389050886625, "lon": 80.81829660335261, "website": "http://www.government.ind.in/"}, {"name": "Gujarat Technological University Ahmedabad", "country": "India", "lat": 22.728447783009194, "lon": 76.85903050405778, "website": "http://www.gtu.ac.in/"}, {"name": "Gujarat University Ahmedabad", "country": "India", "lat": 18.93493878829726, "lon": 80.87965873090833, "website": "http://www.gujaratuniversity.org.in/"}, {"name": "Gulbarga University", "country": "India", "lat": 18.316239214645154, "lon": 78.2022153095649, "website": "http://www.gulbargauniversity.kar.nic.in/"}, {"name": "Gauhati University", "country": "India", "lat": 21.972027883188378, "lon": 80.80835403818047, "website": "http://www.gu.nic.in/"}, {"name": "Gurukul University", "country": "India", "lat": 18.31731056944671, "lon": 77.12800526841096, "website": "http://www.gurukuluniversity.org/"}, {"name": "CCS Haryana Agricultural University", "country": "India", "lat": 17.93389167070955, "lon": 80.45760663032506, "website": "http://hau.ernet.in/"}, {"name": "Himachal Pradesh Agricultural University", "country": "India", "lat": 17.991826075425926, "lon": 77.16521556035785, "website": "http://hillagric.ernet.in/"}, {"name": "Hemwati Nandan Bahuguna Garhwal University", "country": "India", "lat": 22.93099163270987, "lon": 77.25541301583863, "website": "http://www.hnbgu.ac.in/"}, {"name": "Hidayatullah National Law University, Raipur", "country": "India", "lat": 17.81764996106666, "lon": 81.41992824363356, "website": "http://www.hnluraipur.com/"}, {"name": "Sri Ramachardra Medical College and Research Institute", "country": "India", "lat": 20.05472034259261, "lon": 77.0797341938201, "website": "https://www.sriramachandra.edu.in/"}, {"name": "Himachal Pradesh University", "country": "India", "lat": 22.192935191259664, "lon": 79.8238575150379, "website": "http://hpuniv.nic.in/"}, {"name": "Indian Agricultural Research Institute", "country": "India", "lat": 21.54963725288439, "lon": 78.52702892518569, "website": "http://www.iari.ernet.in/"}, {"name": "IASE (Institute of Advanced Studies) Deemed University", "country": "India", "lat": 21.442483519477236, "lon": 81.3034905412432, "website": "http://www.iaseduniv.org/"}, {"name": "ICFAI University", "country": "India", "lat": 22.459142691152564, "lon": 76.21706976600461, "website": "http://www.icfai.org/"}, {"name": "ICFAI University, Dehradun", "country": "India", "lat": 22.65213012631036, "lon": 77.6968106906732, "website": "https://www.iudehradun.edu.in/"}, {"name": "ICFAI University, Tripura", "country": "India", "lat": 22.870684752662868, "lon": 79.77443758178369, "website": "https://www.iutripura.edu.in/"}, {"name": "ICFAI University, Sikkim", "country": "India", "lat": 23.11423964350588, "lon": 79.03717067156612, "website": "https://www.iusikkim.edu.in/"}, {"name": "ICFAI University, Mizoram", "country": "India", "lat": 20.613434940971402, "lon": 80.05950387598614, "website": "https://www.iumizoram.edu.in/"}, {"name": "ICFAI University, Meghalaya", "country": "India", "lat": 21.049879574411932, "lon": 81.79014218363403, "website": "https://www.iumeghalaya.edu.in/"}, {"name": "ICFAI University, Jharkhand", "country": "India", "lat": 22.009553908485913, "lon": 79.34234510101165, "website": "https://www.iujharkhand.edu.in/"}, {"name": "ICFAI University, Nagaland", "country": "India", "lat": 18.552748537613674, "lon": 79.3086325100798, "website": "https://www.iunagaland.edu.in/"}, {"name": "ICFAI University, Jaipur", "country": "India", "lat": 22.474310554424015, "lon": 79.33423196758967, "website": "https://www.iujaipur.edu.in/"}, {"name": "ICFAI University, Raipur", "country": "India", "lat": 22.109591650761207, "lon": 80.51911421709488, "website": "https://www.iuraipur.edu.in/"}, {"name": "ICFAI University, Himachal Pradesh", "country": "India", "lat": 22.70793940205642, "lon": 80.22525305968838, "website": "https://www.iuhimachal.edu.in/"}, {"name": "ICFAI University, Hyderabad", "country": "India", "lat": 18.964421584480515, "lon": 77.45877878001694, "website": "https://www.ifheindia.org/"}, {"name": "Indira Gandhi Agricultural University", "country": "India", "lat": 18.028372346738372, "lon": 79.87921114216901, "website": "http://www.igau.edu.in/"}, {"name": "Indira Gandhi Institute of Development and Research", "country": "India", "lat": 19.158839548564163, "lon": 80.59261185609375, "website": "http://www.igidr.ac.in/"}, {"name": "Indira Gandhi Institute of Medical Sciences", "country": "India", "lat": 17.89542981959943, "lon": 78.42750413995726, "website": "http://www.igims.org/"}, {"name": "Indira Gandhi National Open University", "country": "India", "lat": 23.52278004732076, "lon": 77.76749902604678, "website": "http://www.ignou.ac.in/"}, {"name": "Indian Institute of Information Technology Allahabad", "country": "India", "lat": 19.303571843883987, "lon": 77.53261758194739, "website": "http://www.iiita.com/"}, {"name": "Indian Institute of Information Technology and Management - Kerala", "country": "India", "lat": 18.56691348866633, "lon": 79.63388049499616, "website": "http://www.iiitmk.ac.in/"}, {"name": "Indraprastha Institute of Information Technology, Delhi", "country": "India", "lat": 20.148121400740294, "lon": 77.49558893504994, "website": "http://www.iiitd.ac.in/"}, {"name": "International Institute of Information Technology, Pune", "country": "India", "lat": 18.364390914397223, "lon": 79.54969051293338, "website": "https://www.isquareit.edu.in/"}, {"name": "International Institute of Information Technology, Bhubaneswar", "country": "India", "lat": 23.02646790925103, "lon": 78.38728023406964, "website": "https://www.iiit-bh.ac.in/"}, {"name": "International Institute of Information Technology, Bangalore", "country": "India", "lat": 18.997420860454888, "lon": 78.39646405466466, "website": "https://www.iiitb.ac.in/"}, {"name": "Indian Institute of Management, Tiruchirappalli", "country": "India", "lat": 18.60056080171875, "lon": 76.88569053724208, "website": "http://www.iimtrichy.ac.in/"}, {"name": "Indian Institute of Information Technology, Guwahati", "country": "India", "lat": 18.388075014260878, "lon": 80.09313981051226, "website": "http://www.iimtrichy.ac.in/"}, {"name": "Indian Institute of Information Technology, Vadodara", "country": "India", "lat": 18.501532356927218, "lon": 76.9756260356407, "website": "http://iiitvadodara.ac.in/"}, {"name": "Indian Institute of Information Technology, Kota", "country": "India", "lat": 18.54181319236125, "lon": 77.48896934885137, "website": "http://iiitkota.ac.in/"}, {"name": "International Institute for Population Sciences", "country": "India", "lat": 22.060612560254246, "lon": 79.57761406378867, "website": "http://www.iipsindia.org/"}, {"name": "Indian Institute of Science", "country": "India", "lat": 22.542219902718195, "lon": 81.82255103265491, "website": "http://www.iisc.ernet.in/"}, {"name": "Indian Institute of Technology, Bombay", "country": "India", "lat": 21.46984481222868, "lon": 76.93427546967058, "website": "http://www.iitb.ac.in/"}, {"name": "Indian Institute of Technology, Delhi", "country": "India", "lat": 20.512563883106218, "lon": 77.79919911393453, "website": "http://www.iitd.ernet.in/"}, {"name": "Indian Institute of Technology, Gandhinagar", "country": "India", "lat": 19.905123989287933, "lon": 77.40539535597512, "website": "https://iitgn.ac.in/"}, {"name": "Indian Institute of Technology, Guwahati", "country": "India", "lat": 22.893308360327307, "lon": 76.82451638617256, "website": "http://www.iitg.ernet.in/"}, {"name": "Indian Institute of Technology, Hyderabad", "country": "India", "lat": 19.031456513544548, "lon": 77.67593108847569, "website": "http://www.iith.ac.in/"}, {"name": "Indian Institute of Technology, Kanpur", "country": "India", "lat": 17.750395063561164, "lon": 76.14464171843011, "website": "http://www.iitk.ac.in/"}, {"name": "Indian Institute of Technology, Kharagpur", "country": "India", "lat": 20.398313240042096, "lon": 76.16727221593797, "website": "http://www.iitkgp.ernet.in/"}, {"name": "Indian Institute of Technology, Madras", "country": "India", "lat": 17.60916506647138, "lon": 78.31993609355276, "website": "http://www.iitm.ac.in/"}, {"name": "Madras Institute of Technology", "country": "India", "lat": 17.73870641440198, "lon": 77.57097296697215, "website": "https://www.mitindia.edu/en/"}, {"name": "Indian Institute of Technology, Roorkee", "country": "India", "lat": 17.622816897577703, "lon": 75.97192387313501, "website": "http://www.iitr.ac.in/"}, {"name": "Indian Institute of Technology, Patna", "country": "India", "lat": 19.761317314996756, "lon": 76.48627690000211, "website": "http://www.iitp.ac.in/"}, {"name": "Indian Institute of Technology, Indore", "country": "India", "lat": 20.882871498281347, "lon": 78.73674092716168, "website": "http://www.iiti.ac.in/"}, {"name": "Indian Institute of Technology, Jodhpur", "country": "India", "lat": 18.586489673010007, "lon": 80.75707538320447, "website": "http://www.iitj.ac.in/"}, {"name": "University of Music and Fine Arts", "country": "India", "lat": 17.78390317086011, "lon": 77.16381747917212, "website": "http://www.iksvv.com/"}, {"name": "Indian Law Institue", "country": "India", "lat": 21.193482946993683, "lon": 81.20956426513794, "website": "https://www.ili.ac.in/"}, {"name": "Indus University", "country": "India", "lat": 18.66595071810354, "lon": 76.58450405058315, "website": "http://www.indusuni.ac.in/"}, {"name": "Integral University", "country": "India", "lat": 21.25833176616345, "lon": 81.55665200715298, "website": "http://www.integraluniversity.ac.in/"}, {"name": "Guru Gobind Singh Indraprastha University", "country": "India", "lat": 19.612199171418272, "lon": 80.1199270596571, "website": "http://www.ipu.ac.in/"}, {"name": "Indian School of Business Management and Administration", "country": "India", "lat": 21.606030836752804, "lon": 77.61693108782057, "website": "http://isbm.org.in/"}, {"name": "Indian Statistical Institute", "country": "India", "lat": 18.327871379909134, "lon": 76.83637630114063, "website": "http://www.isical.ac.in/"}, {"name": "Indian School of Mines (ISM)", "country": "India", "lat": 21.244020597662924, "lon": 79.96192200903822, "website": "http://www.ismdhanbad.ac.in/"}, {"name": "Institute of Technology and Management", "country": "India", "lat": 20.621348753941678, "lon": 78.84193492417056, "website": "http://www.itmindia.edu/"}, {"name": "Indian University", "country": "India", "lat": 18.90950136030655, "lon": 76.51966498332708, "website": "http://www.iur.ac.in/"}, {"name": "Indian Veterinary Research Institute", "country": "India", "lat": 19.604692367753383, "lon": 79.58874744607955, "website": "http://www.ivri.nic.in/"}, {"name": "Jadavpur University", "country": "India", "lat": 20.85351954685022, "lon": 77.98188533392832, "website": "http://www.jadavpur.edu/"}, {"name": "First Global University to teaching Jainism", "country": "India", "lat": 19.76023665604336, "lon": 81.02123438122346, "website": "http://www.jainuniversity.org/"}, {"name": "Jamia Hamdard University", "country": "India", "lat": 21.7060140541634, "lon": 76.02239385392372, "website": "http://www.jamiahamdard.edu/"}, {"name": "University of Jammu", "country": "India", "lat": 23.208151542019102, "lon": 80.47195017869666, "website": "http://www.jammuvarsity.org/"}, {"name": "Jaypee Institute of Information Technology", "country": "India", "lat": 20.49166532391898, "lon": 78.82802346856215, "website": "http://www.jiit.ac.in/"}, {"name": "Jiwaji University", "country": "India", "lat": 21.56237288357828, "lon": 79.45476699628726, "website": "http://www.jiwaji.edu/"}, {"name": "Jamia Millia Islamia University", "country": "India", "lat": 19.66704224165091, "lon": 79.64997568694982, "website": "http://jmi.nic.in/"}, {"name": "Jawaharlal Nehru Centre for Advanced Scientific Research", "country": "India", "lat": 18.649539811430945, "lon": 81.453935644255, "website": "http://www.jncasr.ac.in/"}, {"name": "Jawaharlal Nehru Agricultural University", "country": "India", "lat": 20.118419630572486, "lon": 80.50500782005894, "website": "http://www.jnkvv.nic.in/"}, {"name": "Jawaharlal Nehru Technological University Hyderabad", "country": "India", "lat": 23.287786233858444, "lon": 81.23535860677062, "website": "http://www.jntuh.ac.in/"}, {"name": "Jawaharlal Nehru University", "country": "India", "lat": 23.449043196532088, "lon": 81.83669495737121, "website": "http://www.jnu.ac.in/"}, {"name": "Jaipur National University", "country": "India", "lat": 19.357520647198506, "lon": 79.10373207043375, "website": "http://www.jnujaipur.ac.in/"}, {"name": "Jodhpur National University", "country": "India", "lat": 17.98655112771496, "lon": 78.64925188165229, "website": "http://www.jodhpurnationaluniversity.com/"}, {"name": "Jai Prakash University", "country": "India", "lat": 22.447067108088426, "lon": 81.71771200446705, "website": "http://jpv.bih.nic.in/"}, {"name": "Rajasthan Vidyapeeth University", "country": "India", "lat": 19.270723778092705, "lon": 76.02076543639606, "website": "http://www.jrnrvu.org/"}, {"name": "Jain Vishva Bharati Institute", "country": "India", "lat": 22.341823238345825, "lon": 78.89593414508607, "website": "http://www.jvbi.ac.in/"}, {"name": "Kalinga University", "country": "India", "lat": 19.547862865173677, "lon": 81.93709014767532, "website": "http://www.kalingauniversity.com/"}, {"name": "Sri Chandrasekharendra Saraswathi Viswa Mahavidyalaya", "country": "India", "lat": 18.48688418050167, "lon": 79.75972753757608, "website": "http://www.kanchiuniv.ac.in/"}, {"name": "Kannada University", "country": "India", "lat": 17.657420939299463, "lon": 80.47424720991562, "website": "http://www.kannadauniversity.org/"}, {"name": "Kannur University", "country": "India", "lat": 18.991413322065906, "lon": 80.80407526129758, "website": "http://www.kannuruniversity.ac.in/"}, {"name": "Chhatrapati Shahu Ji Maharaj University", "country": "India", "lat": 19.476177802403832, "lon": 80.00410258205817, "website": "http://www.kanpuruniversity.org/"}, {"name": "Karnataka State Open University", "country": "India", "lat": 22.612855736717137, "lon": 81.00615890852197, "website": "http://www.karnatakastateopenuniversity.in/"}, {"name": "Karpagam University", "country": "India", "lat": 22.788907924438874, "lon": 78.7665641992265, "website": "http://www.karpagamuniv.com/"}, {"name": "Karunya Institute Of Technology", "country": "India", "lat": 21.797615497190424, "lon": 77.50989254496132, "website": "http://www.karunya.edu/"}, {"name": "University of Kashmir", "country": "India", "lat": 17.776728735946158, "lon": 78.27089892147444, "website": "http://kashmiruniversity.net/"}, {"name": "Kerala Agricultural University", "country": "India", "lat": 22.678147142795893, "lon": 81.52533504886632, "website": "http://www.kau.edu/"}, {"name": "University of Kerala", "country": "India", "lat": 19.14545465302188, "lon": 81.26616641022943, "website": "http://www.keralauniversity.ac.in/"}, {"name": "Kohinoor School of Hospitality Management", "country": "India", "lat": 23.471287787425776, "lon": 81.93090106376259, "website": "http://kimi.kohinoor.ac.in/"}, {"name": "University of Kalyani", "country": "India", "lat": 21.088758547738387, "lon": 80.03647607541431, "website": "http://www.klyuniv.ac.in/"}, {"name": "Krishna University", "country": "India", "lat": 20.695749307508745, "lon": 77.49783108660861, "website": "http://www.krishnauniversity.ac.in/"}, {"name": "Kameshwar Singh Darbhanga Sanskrit University", "country": "India", "lat": 20.179482712501645, "lon": 81.29447733645964, "website": "http://www.ksdsu.edu.in/"}, {"name": "Karnataka State Law University", "country": "India", "lat": 21.33471133844931, "lon": 78.36069790585482, "website": "http://www.kslu.ac.in/"}, {"name": "Karnatak University", "country": "India", "lat": 22.329152597376435, "lon": 81.09719931662521, "website": "http://www.kud.ac.in/"}, {"name": "Kerala University of Fisheries and Ocean Sciences", "country": "India", "lat": 18.045017690274285, "lon": 78.37023146125397, "website": "http://www.kufos.ac.in/"}, {"name": "Kurukshetra University", "country": "India", "lat": 19.14601997521698, "lon": 76.03604855377256, "website": "http://www.kukinfo.com/"}, {"name": "Kumaraguru College of Technology", "country": "India", "lat": 19.44001701465706, "lon": 76.11405987785757, "website": "http://www.kct.ac.in/"}, {"name": "Kumaun University", "country": "India", "lat": 19.782342877922936, "lon": 80.33361619038898, "website": "http://www.kumaununiversity.org/"}, {"name": "Kuvempu University", "country": "India", "lat": 18.374509045799083, "lon": 76.44413941453304, "website": "http://www.kuvempu.ac.in/"}, {"name": "Kakatiya University", "country": "India", "lat": 22.69300313779418, "lon": 80.68490900996106, "website": "http://www.kuwarangal.com/"}, {"name": "L.D.College of Engineering", "country": "India", "lat": 18.454214046808787, "lon": 80.52835107001093, "website": "http://www.ldceahd.org/"}, {"name": "Lakshmibai National Institute of Physical Education", "country": "India", "lat": 21.50755363602365, "lon": 79.46402019965323, "website": "http://www.lnipe.edu/"}, {"name": "Lalit Narayan Mithila University", "country": "India", "lat": 22.252111985889357, "lon": 77.78454909531878, "website": "http://lnmu.bih.nic.in/"}, {"name": "University of Lucknow", "country": "India", "lat": 19.128267226178934, "lon": 76.79652697927602, "website": "http://www.lucknowuniv.org/"}, {"name": "Mar Athanasios College for Advanced Studies", "country": "India", "lat": 18.941113195094758, "lon": 76.18587249402174, "website": "http://www.macfast.org/"}, {"name": "Magadh University", "country": "India", "lat": 20.448601261763773, "lon": 77.66996402421283, "website": "http://www.magadhuniversity.org/"}, {"name": "Mangalore University", "country": "India", "lat": 22.350901425929102, "lon": 76.59304346381022, "website": "http://www.mangaloreuniversity.ac.in/"}, {"name": "Manipal University", "country": "India", "lat": 20.068943932195513, "lon": 80.38124694501131, "website": "http://www.manipal.edu/"}, {"name": "Manipur University", "country": "India", "lat": 20.483684851171954, "lon": 76.51816326077272, "website": "http://www.manipur.nic.in/maniuniversity.htm"}, {"name": "Moulana Azad national Urdu University", "country": "India", "lat": 19.616193771206472, "lon": 81.49000982794813, "website": "http://www.manuu.ac.in/"}, {"name": "Makanlal Chutur Vedi University", "country": "India", "lat": 19.082356229109088, "lon": 80.30158081724063, "website": "http://www.mcu.ac.in/"}, {"name": "Maharshi Dayanand Sarswati University Ajmer", "country": "India", "lat": 18.236879603297936, "lon": 81.49818557280814, "website": "http://www.mdsuajmer.ac.in/"}, {"name": "Maharishi Dayanand University, Rohtak", "country": "India", "lat": 22.48823550101178, "lon": 80.37300613767819, "website": "http://www.mdurohtak.com/"}, {"name": "Mahatma Gandhi Kashi Vidyapith", "country": "India", "lat": 18.316277881770194, "lon": 78.50427429461973, "website": "http://www.mgkvp.ac.in/"}, {"name": "Maharaja Ganga Singh University, Bikaner", "country": "India", "lat": 18.93727389758272, "lon": 78.20452643704105, "website": "http://www.mgsubikaner.ac.in/"}, {"name": "Mahatma Gandhi University, Kerala", "country": "India", "lat": 17.764809130633495, "lon": 79.10982753387992, "website": "http://www.mgu.ac.in/"}, {"name": "Mahatma Jyotiba Phule Rohilkhand University Bareilly", "country": "India", "lat": 19.582061961605586, "lon": 78.56009081200882, "website": "http://www.mjpru.ac.in/"}, {"name": "Madurai Kamaraj University", "country": "India", "lat": 20.35667413282276, "lon": 79.57623977716837, "website": "http://www.mkuhyd.com/"}, {"name": "Marathwada Agricultural University", "country": "India", "lat": 19.24883344082737, "lon": 78.90862715665209, "website": "http://mkv2.mah.nic.in/"}, {"name": "Mohan Lal Sukhadia University", "country": "India", "lat": 23.28432905713552, "lon": 79.42248369332358, "website": "http://www.mlsu.ac.in/"}, {"name": "Motilal Nehru National Institute Of Technology", "country": "India", "lat": 19.35852175963087, "lon": 80.63058974543824, "website": "http://www.mnnit.ac.in/"}, {"name": "Madhya Pradesh Bhoj (Open) University", "country": "India", "lat": 21.240197415090325, "lon": 80.08478828860987, "website": "http://www.mpbou.org/"}, {"name": "Mahatma Phule Agricultural University", "country": "India", "lat": 18.479538596016546, "lon": 81.86672008066178, "website": "http://mpkv.mah.nic.in/"}, {"name": "Maharaja Sayajirao University of Baroda", "country": "India", "lat": 22.372718478953548, "lon": 79.81395914858913, "website": "http://www.msubaroda.ac.in/"}, {"name": "University of Mumbai", "country": "India", "lat": 20.587102126845267, "lon": 76.49931953573729, "website": "http://www.mu.ac.in/"}, {"name": "Acharya Nagarjuna University", "country": "India", "lat": 23.093241292401377, "lon": 81.3431250478737, "website": "http://www.nagarjunauniversity.ac.in/"}, {"name": "Nagaland University", "country": "India", "lat": 18.388185554072578, "lon": 80.14346387769278, "website": "http://www.nagauniv.org.in/"}, {"name": "Nagpur University", "country": "India", "lat": 20.87489205403291, "lon": 78.42758511963214, "website": "http://www.nagpur-university.com/"}, {"name": "Nalanda Open University", "country": "India", "lat": 21.41180574069317, "lon": 79.18208289990031, "website": "http://www.nalandaopenuniversity.info/"}, {"name": "National Museum Institute of History of Art, Conservation and Museology", "country": "India", "lat": 18.933621585890673, "lon": 79.73108817546262, "website": "http://www.nationalmuseumindia.org/nmi/index.htm"}, {"name": "University of North Bengal", "country": "India", "lat": 23.40021225236605, "lon": 77.51654706734179, "website": "http://www.nbu.ac.in/"}, {"name": "National Dairy Research Institute", "country": "India", "lat": 19.198511394287586, "lon": 77.50394045070935, "website": "http://ndri.nic.in/"}, {"name": "Narendra Deva University of Agriculture and Technology", "country": "India", "lat": 21.824162595547797, "lon": 77.23438486318013, "website": "http://www.nduat.nic.in/"}, {"name": "North Eastern Hill University", "country": "India", "lat": 22.57233287253439, "lon": 77.17669588386575, "website": "http://www.nehu.ac.in/"}, {"name": "Hemchandracharay North Gujarat University", "country": "India", "lat": 23.298341680108734, "lon": 76.71812943121539, "website": "http://www.ngu.ac.in/"}, {"name": "National Institute of Mental Health and Neuro Sciences", "country": "India", "lat": 22.984943654053467, "lon": 80.91252809025491, "website": "http://www.nimhans.kar.nic.in/"}, {"name": "Nizam's Institute of Medical Sciences", "country": "India", "lat": 19.43273850098496, "lon": 81.92719206687161, "website": "http://nims.ap.nic.in/"}, {"name": "Institute of Management Studies", "country": "India", "lat": 17.997313274687308, "lon": 79.73832793087752, "website": "http://www.nims.net.in/"}, {"name": "Nirma University", "country": "India", "lat": 19.290017961612747, "lon": 78.70021843568334, "website": "http://www.nirmauni.ac.in/"}, {"name": "National Institute of Industrial Engineering", "country": "India", "lat": 23.396684956150374, "lon": 76.94628666712848, "website": "http://www.nitie.edu/"}, {"name": "National Institute of Technology Agartala", "country": "India", "lat": 19.65286601802473, "lon": 79.21022664778653, "website": "http://www.nita.ac.in/"}, {"name": "National Institute of Technology Andhra Pradesh", "country": "India", "lat": 20.22423825771601, "lon": 79.91311696908888, "website": "http://www.nitandhra.ac.in/"}, {"name": "National Institute of Technology Arunachal Pradesh", "country": "India", "lat": 22.45120644759163, "lon": 77.66232952257629, "website": "http://www.nitap.in/"}, {"name": "National Institute of Technology Calicut", "country": "India", "lat": 20.239073505283525, "lon": 77.45575004023914, "website": "http://www.nitc.ac.in/"}, {"name": "National Institute of Technology Delhi", "country": "India", "lat": 20.987802596834168, "lon": 78.04519651269351, "website": "http://www.nitdelhi.ac.in/"}, {"name": "National Institute of Technology Durgapur", "country": "India", "lat": 22.200071489069444, "lon": 77.97741055390374, "website": "http://www.nitdgp.ac.in/"}, {"name": "National Institute of Technology Goa", "country": "India", "lat": 19.56839366227439, "lon": 76.47881357776508, "website": "http://www.nitgoa.ac.in/"}, {"name": "National Institute of Technology Hamirpur", "country": "India", "lat": 22.561231798981414, "lon": 78.61292733659617, "website": "http://www.nith.ac.in/"}, {"name": "National Institute of Technology Jamshedpur", "country": "India", "lat": 19.86391729566941, "lon": 77.12911599566331, "website": "http://www.nitjsr.ac.in/"}, {"name": "National Institute of Technology Kurukshetra", "country": "India", "lat": 20.116392482765043, "lon": 78.37461386355615, "website": "http://www.nitkkr.net/"}, {"name": "National Institute of Technology Manipur", "country": "India", "lat": 17.630164079770566, "lon": 80.08463726832079, "website": "http://www.nitmanipur.ac.in"}, {"name": "National Institute of Technology Meghalaya", "country": "India", "lat": 23.442093267706344, "lon": 79.93297152362298, "website": "http://www.nitm.ac.in"}, {"name": "National Institute of Technology Mizoram", "country": "India", "lat": 21.67777357029234, "lon": 81.2213490626024, "website": "http://www.nitmz.ac.in"}, {"name": "National Institute of Technology Nagaland", "country": "India", "lat": 21.106473307758783, "lon": 76.6232325316912, "website": "http://www.nitnagaland.ac.in"}, {"name": "National Institute of Technology Patna", "country": "India", "lat": 19.109970060053286, "lon": 81.4718028381506, "website": "http://www.nitp.ac.in"}, {"name": "National Institute of Technology Puducherry", "country": "India", "lat": 22.132540483891283, "lon": 76.9697797347219, "website": "http://www.nitpy.ac.in"}, {"name": "National Institute of Technology Raipur", "country": "India", "lat": 18.41709950240375, "lon": 77.7921972431352, "website": "http://www.nitrr.ac.in"}, {"name": "National Institute of Technology Rourkela", "country": "India", "lat": 21.532449322004272, "lon": 80.56453164402512, "website": "http://www.nitrkl.ac.in/"}, {"name": "National Institute of Technology Sikkim", "country": "India", "lat": 19.81330919081521, "lon": 81.5798837436814, "website": "http://www.nitsikkim.ac.in/"}, {"name": "National Institute of Technology Silchar", "country": "India", "lat": 22.417515447008775, "lon": 79.18204422933229, "website": "http://www.nits.ac.in/"}, {"name": "National Institute of Technology Srinagar", "country": "India", "lat": 20.930315264917045, "lon": 80.9770861542053, "website": "http://www.nitsri.net/"}, {"name": "National Institute of Technology Surathkal", "country": "India", "lat": 19.30023890408335, "lon": 78.29087403532058, "website": "http://www.nitk.ac.in/"}, {"name": "National Institute of Technology Trichy", "country": "India", "lat": 18.79845641868005, "lon": 78.6820595808282, "website": "http://www.nitt.edu/"}, {"name": "National Institute of Technology Uttarakhand", "country": "India", "lat": 20.715861294645027, "lon": 79.5200208340733, "website": "http://www.nituk.ac.in/"}, {"name": "National Institute of Technology Warangal", "country": "India", "lat": 20.260481691294096, "lon": 80.60274954734773, "website": "http://www.nitw.ernet.in/"}, {"name": "National Law School of India University", "country": "India", "lat": 22.359807828704326, "lon": 78.89383399386412, "website": "http://www.nls.ac.in/"}, {"name": "Narsee Monjee Institute of Management Studies", "country": "India", "lat": 18.736083755561786, "lon": 78.47440040888502, "website": "http://www.nmims.edu/"}, {"name": "North Maharashtra University", "country": "India", "lat": 19.29119555117148, "lon": 80.75146712008578, "website": "http://www.nmu.ac.in/"}, {"name": "Netaji Subhas University of Technology", "country": "India", "lat": 20.595302908868447, "lon": 81.41773254928653, "website": "http://www.nsut.ac.in/"}, {"name": "Osmania University", "country": "India", "lat": 18.04607630873066, "lon": 80.34441914812601, "website": "http://www.osmania.ac.in/"}, {"name": "Sri Padmavati Women's University", "country": "India", "lat": 21.112610131339096, "lon": 81.50998113361429, "website": "http://www.padmavatiwomen-univ.org/"}, {"name": "Pandit Deendayal Energy University", "country": "India", "lat": 19.376761059056957, "lon": 80.20663652354287, "website": "https://www.pdeu.ac.in/"}, {"name": "Punjab Agricultural University", "country": "India", "lat": 17.985008927235167, "lon": 80.40705093724392, "website": "http://www.pau.edu/"}, {"name": "Dr. Panjabrao Deshmukh Krishi Vidyapeeth", "country": "India", "lat": 18.87145039417488, "lon": 81.83310091772526, "website": "http://www.pdkv.ac.in/"}, {"name": "Parul University", "country": "India", "lat": 19.751762424715096, "lon": 79.28848644532562, "website": "http://www.paruluniversity.ac.in/"}, {"name": "Punjab Engineering College", "country": "India", "lat": 21.63727631045166, "lon": 79.88716496995805, "website": "http://www.pec.ac.in/"}, {"name": "PES University", "country": "India", "lat": 17.679650059034874, "lon": 76.82387781645096, "website": "http://www.pes.edu/"}, {"name": "Postgraduate lnstitute of Medical Education and Research", "country": "India", "lat": 21.814826835860444, "lon": 76.05329190566323, "website": "http://www.pgimer.nic.in/"}, {"name": "Pondicherry University", "country": "India", "lat": 23.157405954295236, "lon": 80.38097229859092, "website": "http://www.pondiuni.org/"}, {"name": "PSG College of Technology", "country": "India", "lat": 20.18234095398524, "lon": 77.72829341966211, "website": "http://www.psgtech.edu/"}, {"name": "Jai Narain Vyas University", "country": "India", "lat": 19.66785325465104, "lon": 81.33683684759816, "website": "http://www.ptetjnvu.org/"}, {"name": "Punjab Technical University", "country": "India", "lat": 21.45016045116838, "lon": 80.86826457137609, "website": "http://www.ptu.ac.in/"}, {"name": "Panjab University", "country": "India", "lat": 17.670275321435998, "lon": 77.36677550160569, "website": "http://www.puchd.ac.in/"}, {"name": "Punjabi University Patiala", "country": "India", "lat": 22.383967623514955, "lon": 81.93266201889006, "website": "http://www.punjabiuniversity.ac.in/"}, {"name": "Patna University", "country": "India", "lat": 19.07524915468253, "lon": 78.71632963825715, "website": "http://puonline.bih.nic.in/"}, {"name": "Rajendra Agricultural University", "country": "India", "lat": 21.421826464691335, "lon": 81.5592213947287, "website": "http://www.pusavarsity.org.in/"}, {"name": "Rabindra Bharati University", "country": "India", "lat": 23.325602734774446, "lon": 79.01555775401128, "website": "http://www.rabindrabharatiuniversity.net/"}, {"name": "Ranchi University", "country": "India", "lat": 23.106478488339782, "lon": 80.35335447325194, "website": "http://www.ranchiuniversity.org.in/"}, {"name": "Rajasthan Agricultural University, Bikaner", "country": "India", "lat": 23.180413071922047, "lon": 78.89899654229119, "website": "http://www.raubikaner.org/"}, {"name": "Rani Durgavati University", "country": "India", "lat": 18.912186608506747, "lon": 77.33265159008621, "website": "http://www.rdunijbpin.org/"}, {"name": "Rajiv Gandhi Technical University (University of Technology of Madhya Pradesh)", "country": "India", "lat": 21.155023782805305, "lon": 78.70266525139014, "website": "http://www.rgtu.net/"}, {"name": "Rajiv Gandhi University", "country": "India", "lat": 23.146905479959862, "lon": 76.65076663682454, "website": "http://www.rgu.ac.in/"}, {"name": "Rajitlal Institute of Technology & Health Sciences (RITHS)", "country": "India", "lat": 19.298199502877807, "lon": 77.94068620356477, "website": "http://www.riths.ac.in/"}, {"name": "Dr. Ram Manohar Lohia Avadh University", "country": "India", "lat": 22.40086106234283, "lon": 81.10120146088312, "website": "http://www.rmlau.ac.in/"}, {"name": "Pandit Ravi Shankar Shukla University", "country": "India", "lat": 19.306787524740855, "lon": 77.61789141716702, "website": "http://www.rsuniversity.com/"}, {"name": "Rajasthan Technical University", "country": "India", "lat": 21.70782250108973, "lon": 78.5799821443611, "website": "http://www.rtu.ac.in/"}, {"name": "Mahatma Gandhi Chitrakut Gramoday University", "country": "India", "lat": 21.09271657171442, "lon": 76.65777288634136, "website": "http://www.ruraluniversity-chitrakoot.org/"}, {"name": "Dr. Hari Singh Gour University, formerly University of Sagar", "country": "India", "lat": 21.03788895440333, "lon": 80.44733913526008, "website": "http://www.sagaruniversity.nic.in/"}, {"name": "Sambalpur University", "country": "India", "lat": 19.979125910317293, "lon": 76.51491063954164, "website": "http://www.sambalpuruniversitypgc.in/"}, {"name": "National Sanskrit University", "country": "India", "lat": 19.392471647929828, "lon": 81.65124756325982, "website": "http://www.sanskrit.nic.in/"}, {"name": "SASTRA University", "country": "India", "lat": 22.756825920790465, "lon": 80.41785278509685, "website": "http://www.sastra.edu/"}, {"name": "Sathyabama University", "country": "India", "lat": 18.60495670135622, "lon": 78.99873858649059, "website": "http://www.sathyabamauniv.ac.in/"}, {"name": "Saurashtra University", "country": "India", "lat": 18.68955932213372, "lon": 78.3958718685844, "website": "http://www.saurashtrauniversity.edu/"}, {"name": "Sree Chitra Tirunal Institute for Medical Sciences and Technology", "country": "India", "lat": 22.144625584927937, "lon": 77.38001662715511, "website": "http://sctimst.ker.nic.in/"}, {"name": "Sardarkrushinagar Dantiwada Agricultural University", "country": "India", "lat": 22.301630428087396, "lon": 77.25425260628327, "website": "http://www.sdau.edu.in/"}, {"name": "Sanjay Gandhi Postgraduate lnstitute of Medical Sciences", "country": "India", "lat": 19.92334429408392, "lon": 77.82886355923574, "website": "http://www.sgpgi.ac.in/"}, {"name": "South Gujarat University", "country": "India", "lat": 22.735994655296246, "lon": 81.35572210557561, "website": "http://www.sgu.ernet.in/"}, {"name": "Shobhit University, Meerut", "country": "India", "lat": 19.54201828217808, "lon": 81.46672189275075, "website": "http://www.shobhituniversity.ac.in/"}, {"name": "Shridhar University", "country": "India", "lat": 19.716477346975566, "lon": 79.2266722554085, "website": "http://www.shridharuniversity.ac.in/"}, {"name": "Vikrama Simhapuri University", "country": "India", "lat": 23.266881254405565, "lon": 81.14044360783639, "website": "http://www.simhapuriuniv.ac.in/"}, {"name": "Symbiosis International University", "country": "India", "lat": 18.781887971099113, "lon": 77.05413041020577, "website": "http://www.siu.edu.in/"}, {"name": "Shri Jagannath Sanskrit University", "country": "India", "lat": 21.932206548199105, "lon": 76.62575178360798, "website": "http://www.sjsv.nic.in/"}, {"name": "Sido Kanhu Murmu University", "country": "India", "lat": 22.068290610325086, "lon": 80.46637230786524, "website": "http://www.skmu.edu.in/"}, {"name": "Sher-E-Kashmir University of Agricultural Sciences and Technology", "country": "India", "lat": 19.478107182259276, "lon": 78.40773564020628, "website": "http://www.skuastkashmir.ac.in/"}, {"name": "Sri Krishnadevaraya University", "country": "India", "lat": 19.284373597806542, "lon": 76.24504987814461, "website": "http://skuniv.ap.nic.in/"}, {"name": "Shri Lal Bahadur Shastri Rashtriya Sanskrit Vidyapeetha", "country": "India", "lat": 19.040376448246576, "lon": 77.52167680054583, "website": "http://www.slbsrsv.ac.in/"}, {"name": "SMK Fomra Institute of Technology", "country": "India", "lat": 22.405551157249718, "lon": 77.95866850505304, "website": "http://www.smkfomra.net/"}, {"name": "Sikkim Manipal University of Health, Medical and Technological Sciences", "country": "India", "lat": 18.046901593304383, "lon": 81.10323617186164, "website": "http://www.smu.edu.in/"}, {"name": "Shreemati Nathibai Damodar Thackersey Women's University", "country": "India", "lat": 20.570284106258168, "lon": 80.0158195744223, "website": "http://www.sndt.edu/"}, {"name": "Sikha 'O' Anushandhan University", "country": "India", "lat": 19.64048437107291, "lon": 77.1555053399621, "website": "http://www.soauniversity.ac.in/"}, {"name": "South Asian University", "country": "India", "lat": 18.372308396302405, "lon": 79.57767875287125, "website": "http://www.southasianuniversity.org/"}, {"name": "School of Planning and Architecture", "country": "India", "lat": 22.72019140399919, "lon": 78.06787280884316, "website": "http://www.spa.ac.in/"}, {"name": "Periyar University", "country": "India", "lat": 22.66679041923458, "lon": 77.02120926244667, "website": "http://www.spuniv.org/"}, {"name": "Sardar Patel University", "country": "India", "lat": 19.32363102801875, "lon": 76.61991822689146, "website": "http://www.spuvvn.edu/"}, {"name": "Sri Sathya Sai Institute of Higher Learning", "country": "India", "lat": 23.193466551489166, "lon": 80.77915177259914, "website": "http://www.srisathyasai.org.in/pages/instts/HighLearn.htm"}, {"name": "Sree Rama Krishna Degree College", "country": "India", "lat": 18.04376602349718, "lon": 77.82588490963248, "website": "http://www.srkdc.org/"}, {"name": "SRM Institute Of Science & Technology", "country": "India", "lat": 21.0298584732183, "lon": 79.0048377430491, "website": "http://www.srmuniv.ac.in/"}, {"name": "Swami Ramanand Teerth Marathwada University", "country": "India", "lat": 19.560539030580223, "lon": 78.19142691095773, "website": "http://www.srtmun.org/"}, {"name": "Sri Sant Gajanan Maharaj College of Engineering", "country": "India", "lat": 18.035375301625518, "lon": 78.53960726134542, "website": "http://www.ssgmce.org/"}, {"name": "Sree Sankaracharya University of Sanskrit", "country": "India", "lat": 19.241144613272024, "lon": 80.78752521299712, "website": "http://www.ssus.ac.in/"}, {"name": "Sampurnanand Sanskrit University", "country": "India", "lat": 18.137907309019063, "lon": 76.15233805471925, "website": "http://ssvv.up.nic.in/"}, {"name": "Solapur University", "country": "India", "lat": 19.1638294887327, "lon": 76.50533451787503, "website": "http://su.digitaluniversity.ac/"}, {"name": "Sardar Vallabhai Patel University of Agriculture Amd Technology", "country": "India", "lat": 21.534609637717622, "lon": 79.88326267332755, "website": "http://www.svbpuctm.org/"}, {"name": "Sardar Vallabhbhai National Institute of Technology", "country": "India", "lat": 20.327619255947525, "lon": 76.21726844451874, "website": "http://www.svnit.ac.in/"}, {"name": "Sri Venkateswara Institute of Medical Sciences", "country": "India", "lat": 19.222259989459587, "lon": 77.22429326456148, "website": "http://svimstpt.ap.nic.in/"}, {"name": "Sri Venkateswara University", "country": "India", "lat": 17.68939290251808, "lon": 80.38198420441958, "website": "http://svuni.ap.nic.in/"}, {"name": "Tamil University", "country": "India", "lat": 19.11409094441981, "lon": 76.6027529529964, "website": "http://www.tamiluniversity.ac.in/"}, {"name": "Tamil Nadu Veterinary and Animal Sciences University", "country": "India", "lat": 21.36140504213197, "lon": 76.20263270717093, "website": "http://www.tanuvas.com/"}, {"name": "Thiagarajar College of Engineering", "country": "India", "lat": 17.924288457893176, "lon": 81.71076542403557, "website": "http://www.tce.edu/"}, {"name": "Potti Sreeramulu Telugu University", "country": "India", "lat": 19.08629494427302, "lon": 80.51907309979863, "website": "http://www.teluguuniversity.ac.in/"}, {"name": "Tezpur University", "country": "India", "lat": 20.511200042570724, "lon": 79.43408858471814, "website": "http://www.tezu.ernet.in/"}, {"name": "The New College", "country": "India", "lat": 20.301293962201004, "lon": 78.91015671633463, "website": "http://www.thenewcollege.edu.in/"}, {"name": "Thapar Institute of Engineering and Technology", "country": "India", "lat": 21.916523996946236, "lon": 76.3541121273213, "website": "http://www.tiet.ac.in/"}, {"name": "Tata Institute of Social Sciences", "country": "India", "lat": 22.806917454196498, "lon": 78.4967875645514, "website": "http://www.tiss.edu/"}, {"name": "Tilka Manjhi Bhagalpur University", "country": "India", "lat": 22.37217123433218, "lon": 81.00812800831653, "website": "http://www.tmbu.org/"}, {"name": "Tilak Maharashtra Vidyapeeth", "country": "India", "lat": 22.700756374496493, "lon": 79.86344722207176, "website": "http://www.tmv.edu.in/"}, {"name": "Tamil Nadu Dr. Ambedkar Law University", "country": "India", "lat": 21.80375106228331, "lon": 76.9413225457454, "website": "http://www.tndalu.org/"}, {"name": "Tamil Nadu Dr. M.G.R. Medical University", "country": "India", "lat": 18.77759265417061, "lon": 80.5428586181804, "website": "http://www.tnmmu.ac.in/"}, {"name": "Avinashilingam Institute for Home Science and Higher Education for Women", "country": "India", "lat": 23.33123610152228, "lon": 77.46588023726027, "website": "http://www.tnuniv.ac.in/adu/"}, {"name": "Maulana Azad National Institute of Technology Bhopal", "country": "India", "lat": 21.1582971730096, "lon": 78.53560799989347, "website": "http://www.manit.ac.in/"}, {"name": "Malaviya National Institute of Technology Jaipur", "country": "India", "lat": 19.982844591708265, "lon": 79.19683764127076, "website": "http://www.mnit.ac.in/"}, {"name": "Tripura University", "country": "India", "lat": 23.19393071736164, "lon": 80.18345095533805, "website": "http://www.tripurauniv.in/"}, {"name": "Takhatmal Shrivallabh Homoeopathic Medical College", "country": "India", "lat": 20.35316513818066, "lon": 76.22320048518387, "website": "http://www.tshmc.org/"}, {"name": "Tumkur University", "country": "India", "lat": 22.49094566480016, "lon": 76.42847687688293, "website": "http://www.tumkuruniversity.ac.in/"}, {"name": "Thiruvalluvar University", "country": "India", "lat": 19.542918369471963, "lon": 81.1489369242225, "website": "http://www.tvuni.in/"}, {"name": "University of Agricultural Sciences, Bangalore", "country": "India", "lat": 18.938659522182352, "lon": 78.08111422867275, "website": "http://uasbng.kar.nic.in/"}, {"name": "University of Agricultural Sciences, Dharwad", "country": "India", "lat": 23.558431959920714, "lon": 80.9806097877867, "website": "http://www.uasd.net/"}, {"name": "Uttarakhand Technical University", "country": "India", "lat": 17.653343575118033, "lon": 81.55402080824345, "website": "http://www.uktech.ac.in/"}, {"name": "University of Media Arts", "country": "India", "lat": 22.942649042953683, "lon": 81.19875104734133, "website": "http://www.uma.ac.in/"}, {"name": "University of Calicut", "country": "India", "lat": 18.054008811517726, "lon": 80.00838716075621, "website": "http://unical.ac.in/"}, {"name": "Goa University", "country": "India", "lat": 18.60065023256439, "lon": 78.73935004028459, "website": "http://www.unigoa.ac.in/"}, {"name": "University of Mysore", "country": "India", "lat": 20.773893658739055, "lon": 77.30842190233453, "website": "http://www.uni-mysore.ac.in/"}, {"name": "University of Pune", "country": "India", "lat": 19.06538837678028, "lon": 78.46064212491676, "website": "http://www.unipune.ernet.in/"}, {"name": "University of Rajasthan", "country": "India", "lat": 18.26078499258409, "lon": 77.10018239884165, "website": "http://www.uniraj.org/"}, {"name": "Shivaji University", "country": "India", "lat": 21.551255674166494, "lon": 77.95330887556479, "website": "http://www.unishivaji.ac.in/"}, {"name": "University of Madras", "country": "India", "lat": 21.91269557532724, "lon": 76.0705535670582, "website": "http://www.unom.ac.in/"}, {"name": "University of Hyderabad", "country": "India", "lat": 22.459929981556044, "lon": 79.0890938731252, "website": "http://www.uohyd.ernet.in/"}, {"name": "University of Kota", "country": "India", "lat": 22.094241201593242, "lon": 80.86794518677446, "website": "http://www.uok.ac.in/"}, {"name": "University of Roorkee", "country": "India", "lat": 22.586481856295265, "lon": 76.38578422343399, "website": "http://www.uor.org/"}, {"name": "Uttarakhand Open University", "country": "India", "lat": 19.641331790451993, "lon": 79.64722878664759, "website": "http://www.uou.ac.in/"}, {"name": "Uttar Pradesh Technical University", "country": "India", "lat": 17.692995476959872, "lon": 78.8974405665242, "website": "http://www.uptu.ac.in/"}, {"name": "Utkal University", "country": "India", "lat": 18.143891026569534, "lon": 77.91344498954135, "website": "http://www.utkaluniv.org/"}, {"name": "VBS Purvanchal University", "country": "India", "lat": 18.804087705017345, "lon": 81.25847688890119, "website": "http://vbspu.ac.in/"}, {"name": "Vinoba Bhave University", "country": "India", "lat": 17.80551880047011, "lon": 76.05941458843174, "website": "http://www.vbu.co.in/"}, {"name": "Vidyasagar University", "country": "India", "lat": 22.199399687299326, "lon": 80.0574079721153, "website": "http://www.vidyasagar.ac.in/"}, {"name": "Vignan University", "country": "India", "lat": 23.58957011184137, "lon": 80.8455111107307, "website": "http://www.vignanuniversity.org/"}, {"name": "Vikram University", "country": "India", "lat": 18.344922475309172, "lon": 81.0155893796475, "website": "http://www.vikramuniversity.org/"}, {"name": "Vinayaka Mission's Research Foundation-Deemed University", "country": "India", "lat": 22.375663737477215, "lon": 80.42893289678616, "website": "http://www.vinayakamissions.com/"}, {"name": "Visva-Bharati University", "country": "India", "lat": 20.583410718414548, "lon": 76.03788388958364, "website": "http://www.visva-bharati.ac.in/"}, {"name": "Vellore Institute of Technology", "country": "India", "lat": 22.262287807593054, "lon": 80.82309751573789, "website": "http://www.vit.ac.in/"}, {"name": "Veer Kunwar Singh University", "country": "India", "lat": 21.16106333906486, "lon": 80.73322366188813, "website": "http://www.vksu-ara.org/"}, {"name": "Vardhaman Mahaveer Open University", "country": "India", "lat": 19.335670168457934, "lon": 78.60523378367202, "website": "http://www.vmou.ac.in/"}, {"name": "Visvesvaraya National Institute of Technology", "country": "India", "lat": 22.543177142700287, "lon": 81.94276481250458, "website": "http://www.vnitnagpur.ac.in/"}, {"name": "Veer Surendra Sai University of Technology", "country": "India", "lat": 20.666017025314734, "lon": 76.52135384379254, "website": "http://www.vssut.ac.in/"}, {"name": "Visvesvaraya Technological University", "country": "India", "lat": 20.28923329889974, "lon": 78.46887970444867, "website": "http://www.vtu.ac.in/"}, {"name": "West Bengal University of Animal and Fishery Sciences", "country": "India", "lat": 19.29984961939652, "lon": 81.83921435396618, "website": "http://www.wbuafs.nic.in/"}, {"name": "West Bengal University of Technology", "country": "India", "lat": 20.09000343010116, "lon": 81.44346788003332, "website": "http://www.wbut.net/"}, {"name": "Yashawantrao Chavan Maharashtra Open University", "country": "India", "lat": 19.8115603319844, "lon": 78.99201038878829, "website": "http://www.ycmou.com/"}, {"name": "Dr. YS Parmar University of Horticulture and Forestry", "country": "India", "lat": 19.20314937294159, "lon": 80.32615718673338, "website": "http://www.ysparmaruniversity.org/"}, {"name": "Charotar University of Science and Technology", "country": "India", "lat": 19.087890625580126, "lon": 80.40671175135918, "website": "https://www.charusat.ac.in/"}, {"name": "Navrachana University", "country": "India", "lat": 18.25294318642807, "lon": 76.75203430728355, "website": "https://www.nuv.ac.in/"}, {"name": "Atal Bihari Vajpayee Indian Institute of Information Technology and Management, Gwalior", "country": "India", "lat": 17.84749570933244, "lon": 77.50774018562839, "website": "https://www.iiitm.ac.in/"}, {"name": "COER University Roorkee", "country": "India", "lat": 18.407804465582874, "lon": 79.41623731935931, "website": "https://coeruniversity.ac.in"}, {"name": "IIT Bhubaneswar", "country": "India", "lat": 23.40057100292341, "lon": 80.2489595701378, "website": "https://www.iitbbs.ac.in/"}, {"name": "SRM University", "country": "India", "lat": 19.023801329207362, "lon": 81.78511268202865, "website": "https://srmap.edu.in/"}, {"name": "KIET Group of Institutions", "country": "India", "lat": 23.15912865279251, "lon": 77.30243026069313, "website": "https://kiet.edu"}, {"name": "Ramaiah University of Applied Sciences", "country": "India", "lat": 19.515398160414716, "lon": 80.32272426376313, "website": "https://msruas.ac.in"}, {"name": "Uttaranchal University", "country": "India", "lat": 21.188663724076854, "lon": 78.63566251632759, "website": "https://uudoon.in"}, {"name": "University College, Thiruvananthapuram", "country": "India", "lat": 20.58736202351808, "lon": 79.66456946145611, "website": "http://universitycollege.ac.in"}, {"name": "GSFC University", "country": "India", "lat": 17.701648553588488, "lon": 76.78935171166295, "website": "https://gsfcuni.edu.in"}, {"name": "Anurag University", "country": "India", "lat": 18.367043601151522, "lon": 77.46782316832373, "website": "https://anurag.edu.in"}, {"name": "Bishop Herber College", "country": "India", "lat": 21.450182520841302, "lon": 77.22454162176477, "website": "https://bhc.edu.in"}, {"name": "Pondicherry University", "country": "India", "lat": 23.122701557471796, "lon": 76.81013594908724, "website": "https://bicpu.edu.in"}, {"name": "Panimalar Engineering College", "country": "India", "lat": 18.464881689992556, "lon": 77.8123142494279, "website": "https://panimalar.ac.in"}, {"name": "Rajalakshmi Engineering College", "country": "India", "lat": 19.287749517424107, "lon": 76.26004222051765, "website": "https://www.rajalakshmi.org/"}, {"name": "Rajagiri School of Engineering and Technology", "country": "India", "lat": 21.182353825470692, "lon": 76.86549620724547, "website": "https://www.rajagiritech.edu.in/"}, {"name": "St Joseph's College Of Engineering", "country": "India", "lat": 18.342007956281428, "lon": 81.02982620328423, "website": "https://stjosephs.ac.in/"}, {"name": "St Joseph's Institute Of Technology", "country": "India", "lat": 23.05038811888358, "lon": 81.86185997393079, "website": "https://www.stjosephstechnology.ac.in/"}, {"name": "Sri Sivasubramaniya Nadar Institutions", "country": "India", "lat": 19.275883240720113, "lon": 81.28119931707404, "website": "https://www.ssn.edu.in/"}, {"name": "Saveetha Engineering College", "country": "India", "lat": 18.450709060487785, "lon": 80.79938731449316, "website": "https://www.saveetha.ac.in/"}, {"name": "Sri Venkateswara College of Engineering", "country": "India", "lat": 18.126631899565123, "lon": 79.2844518346639, "website": "https://www.svce.ac.in/"}, {"name": "Easwari Engineering College", "country": "India", "lat": 22.11717090020271, "lon": 81.7669020235368, "website": "https://srmeaswari.ac.in/"}, {"name": "Jeppiar Engineering College", "country": "India", "lat": 21.87583420324977, "lon": 76.0658325861756, "website": "https://jeppiaarcollege.org/jeppiaar/"}, {"name": "Rajalakshmi Institute of Technology", "country": "India", "lat": 20.94755067662219, "lon": 76.65206425926925, "website": "https://ritchennai.org/"}, {"name": "Saveetha School of Engineering", "country": "India", "lat": 20.085172978365986, "lon": 78.0424556014445, "website": "https://saveethaengineering.com/"}, {"name": "Saveetha University", "country": "India", "lat": 21.333084277605106, "lon": 76.4223477578174, "website": "https://www.saveetha.com/"}, {"name": "KCG College of Technology", "country": "India", "lat": 18.590826062764794, "lon": 77.95439954391846, "website": "https://kcgcollege.ac.in/"}, {"name": "Hindustan Institute of Technology and Science", "country": "India", "lat": 22.01180023975446, "lon": 81.15635241731431, "website": "https://hindustanuniv.ac.in/"}, {"name": "Chennai Institute of Technology", "country": "India", "lat": 20.195188054544694, "lon": 77.81473468745011, "website": "https://www.citchennai.edu.in/"}, {"name": "Sri Sai Ram Engineering College", "country": "India", "lat": 23.387192126846017, "lon": 81.80695576758417, "website": "https://sairam.edu.in/"}, {"name": "Loyola-ICAM College of Engineering and Technology", "country": "India", "lat": 21.726014086192674, "lon": 76.10384093526991, "website": "https://licet.ac.in/"}, {"name": "Sri Sai Ram Institute of Technology", "country": "India", "lat": 19.98263730183569, "lon": 76.00121558703454, "website": "https://sairamit.edu.in/"}, {"name": "RMK Engineering College", "country": "India", "lat": 18.102325598153307, "lon": 76.92778440439447, "website": "http://www.rmkec.ac.in/"}, {"name": "RMK College of Engineering and Technology", "country": "India", "lat": 21.76086839293513, "lon": 78.52213513127431, "website": "https://rmkcet.ac.in/"}, {"name": "RMD Engineering College", "country": "India", "lat": 22.090872239821678, "lon": 78.94793884621748, "website": "https://rmd.ac.in/"}, {"name": "Velammal Engineering College", "country": "India", "lat": 22.441146868436014, "lon": 79.71446135926782, "website": "https://velammal.edu.in/"}, {"name": "Velammal Institute of Technology", "country": "India", "lat": 18.695332382080856, "lon": 80.77686614078887, "website": "https://velammalitech.edu.in/"}, {"name": "Prathyusha Engineering College", "country": "India", "lat": 21.583547099294606, "lon": 79.58328838222967, "website": "https://prathyusha.edu.in/"}, {"name": "Alpha College of Engineering", "country": "India", "lat": 21.096931947087775, "lon": 81.59105369220987, "website": "https://alphagroup.edu/engineering/"}, {"name": "SA Engineering College", "country": "India", "lat": 19.920399965720495, "lon": 77.52112551903319, "website": "https://www.saec.ac.in/"}, {"name": "Sister Nivedita University", "country": "India", "lat": 18.473002653957806, "lon": 80.23972799129795, "website": "https://snuniv.ac.in/"}, {"name": "JIS University", "country": "India", "lat": 21.829772534228955, "lon": 81.51087532522969, "website": "https://www.jisuniversity.ac.in/"}, {"name": "JIS College of Engineering", "country": "India", "lat": 23.104081726897643, "lon": 78.03528329432152, "website": "https://www.jiscollege.ac.in/"}, {"name": "Narula Institute of Technology", "country": "India", "lat": 22.281967757901455, "lon": 80.22196679292031, "website": "https://www.nit.ac.in/"}, {"name": "Guru Nanak Institute of Technology", "country": "India", "lat": 18.892473462615154, "lon": 77.58047201288555, "website": "https://gnit.ac.in/"}, {"name": "Guru Nanak Institute of Hotel Management", "country": "India", "lat": 20.873943768577895, "lon": 81.35590118938762, "website": "https://www.gnihm.ac.in/"}, {"name": "Guru Nanak Institute of Pharmaceutical Science & Technology", "country": "India", "lat": 19.904679582324643, "lon": 78.97918137415667, "website": "https://www.gnipst.ac.in/"}, {"name": "Guru Nanak Institute of Dental Sciences & Research", "country": "India", "lat": 19.482504204487636, "lon": 77.72905350446611, "website": "https://www.gnidsr.ac.in/"}, {"name": "Dr. Sudhir Chandra Sur Institute of Technology & Sports Complex", "country": "India", "lat": 20.109206867506494, "lon": 81.24526464218071, "website": "https://www.surtech.edu.in/"}, {"name": "JIS Institute of Advanced Studies & Research", "country": "India", "lat": 22.734970132221473, "lon": 76.96764879408224, "website": "https://jisiasr.org/"}, {"name": "JIS School of Medical Science & Research", "country": "India", "lat": 21.556817882207625, "lon": 77.93622171980348, "website": "https://jismsr.org/"}, {"name": "JIS Institute of Pharmacy", "country": "India", "lat": 23.482712940749852, "lon": 78.75515004147336, "website": "https://jisiop.org/"}, {"name": "JIS School of Polytechnic", "country": "India", "lat": 17.881774016799827, "lon": 81.39943103018174, "website": "https://www.jissp.ac.in/"}, {"name": "Greater Kolkata College of Engineering & Management", "country": "India", "lat": 18.19540198240129, "lon": 78.5843613871675, "website": "https://www.gkcem.ac.in/"}, {"name": "Chandil Polytechnic School", "country": "India", "lat": 19.119876543416233, "lon": 81.85908927666237, "website": "https://www.chandilpolytechnic.org/"}, {"name": "Gola Polytechnic School", "country": "India", "lat": 17.888129998160125, "lon": 77.72620028952385, "website": "https://golapolytechnic.org/"}, {"name": "Asansol Engineering College", "country": "India", "lat": 19.500951923384736, "lon": 80.01202042965656, "website": "http://www.aecwb.edu.in/"}, {"name": "Aditya University", "country": "India", "lat": 23.048532673216318, "lon": 81.63436730902993, "website": "https://aditya.ac.in/"}, {"name": "Assam Down Town University", "country": "India", "lat": 22.214616085361165, "lon": 80.46426917652218, "website": "https://adtu.in/"}, {"name": "Kalinga Institute of Industrial Technology (KIIT)", "country": "India", "lat": 20.26093883691843, "lon": 79.11647009061106, "website": "https://kiit.ac.in/"}, {"name": "Sharda University", "country": "India", "lat": 20.56476118154519, "lon": 81.5768959296475, "website": "https://www.sharda.ac.in/"}, {"name": "Shri Jagdishprasad Jhabarmal Tibrewala University", "country": "India", "lat": 18.9974003788412, "lon": 77.53243935393284, "website": "https://jjtu.ac.in/"}, {"name": "Singhania University", "country": "India", "lat": 23.24608204158783, "lon": 80.28084588607288, "website": "https://singhaniauniversity.ac.in/"}, {"name": "Manav Rachna University", "country": "India", "lat": 20.53416996556912, "lon": 76.2282261530845, "website": "https://manavrachna.edu.in/"}, {"name": "MIT World Peace University", "country": "India", "lat": 18.28332358985115, "lon": 79.04055203405596, "website": "https://mitwpu.edu.in/"}, {"name": "Technique Polytechnic Institute", "country": "India", "lat": 22.53650102626967, "lon": 80.04072725667811, "website": "https://www.techniqueedu.com/"}, {"name": "Indian Institute Of Technology\u2013Ropar (IIT\u2013Ropar)", "country": "India", "lat": 21.41458193400838, "lon": 80.38217511942398, "website": "https://www.iitrpr.ac.in/"}, {"name": "Kaloji Narayana Rao University of Health Sciences", "country": "India", "lat": 18.49941064294303, "lon": 79.06131518910908, "website": "https://www.knruhs.telangana.gov.in/"}, {"name": "Mahatma Gandhi University, Nalgonda", "country": "India", "lat": 22.276459658211852, "lon": 80.57332564282477, "website": "https://mguniversity.ac.in/"}, {"name": "Nizam\u2019s Institute of Medical Sciences", "country": "India", "lat": 22.90044456486256, "lon": 78.21602890254646, "website": "https://www.nims.edu.in/"}, {"name": "Palamuru University", "country": "India", "lat": 18.431022650773286, "lon": 77.43957491255388, "website": "https://palamuruuniversity.ac.in/"}, {"name": "Professor Jayashankar Telangana State Agricultural University", "country": "India", "lat": 21.11662773729622, "lon": 80.90054977362885, "website": "https://pjtau.edu.in/"}, {"name": "P. V. Narasimha Rao Telangana Veterinary University", "country": "India", "lat": 19.48784032136025, "lon": 79.57727686806986, "website": "https://tsvu.nic.in/"}, {"name": "Satavahana University", "country": "India", "lat": 23.46246367817566, "lon": 78.27064059506134, "website": "https://satavahana.ac.in/"}, {"name": "Sri Konda Laxman Telangana State Horticultural University", "country": "India", "lat": 18.734574780807147, "lon": 77.22870084801329, "website": "https://www.skltshu.ac.in/"}, {"name": "Telangana University", "country": "India", "lat": 22.306950349744, "lon": 79.52229070855712, "website": "https://www.telanganauniversity.ac.in/"}, {"name": "Chitkara Univerity", "country": "India", "lat": 21.1750989582047, "lon": 81.45539944416605, "website": "https://www.chitkara.edu.in/"}, {"name": "St. Joseph's College of Commerce", "country": "India", "lat": 21.643938041255915, "lon": 79.68314684448984, "website": "https://sjcc.edu.in/"}]